timestamp,roll_deg,pitch_deg,yaw_deg,omega_raw,omega_filtered,alpha,tau_ff,tau_pid,tau_total,pwm_left,pwm_right,deadzone_factor,accel1_x,accel1_y,accel1_z,gyro1_x,gyro1_y,gyro1_z,accel2_x,accel2_y,accel2_z,gyro2_x,gyro2_y,gyro2_z
108.6257,2.6424,1.3041,146.1268,0.6296,0.0000,0.0000,304.0652,-55.7151,103.4514,1500,1500,0.9155,-0.1894,0.4047,9.8972,0.4166,-0.0493,-0.3991,-0.2177,0.4135,9.7358,0.8426,0.3229,-0.2629
108.6455,2.6652,1.3098,146.1162,1.7402,0.0000,0.0000,306.6852,-56.1971,105.4578,1500,1500,0.9253,-0.2373,0.4071,9.9116,1.6150,0.0576,-0.5213,-0.2393,0.4350,9.8507,1.8655,0.2084,-0.5377
108.6644,2.6859,1.3075,146.1035,3.0189,0.0000,0.0000,309.0650,-56.6376,107.2466,1500,1500,0.9337,-0.2109,0.2922,9.8517,2.8211,-0.0493,-0.6663,-0.0645,0.4230,9.8411,3.2166,0.1626,-0.5911
108.6839,2.7536,1.3148,146.0868,4.0418,0.0000,0.0000,316.8641,-58.0206,112.8133,1500,1500,0.9582,-0.2420,0.4191,9.9403,3.9127,-0.0111,-0.9716,-0.2848,0.3847,9.8603,4.1708,0.3229,-0.7209
108.7024,2.8322,1.3122,146.0688,4.3853,0.0000,0.0000,325.9025,-59.6198,118.6487,1500,1500,0.9801,-0.1750,0.4694,9.9666,4.4776,0.2561,-1.0480,-0.2010,0.4182,9.8052,4.2929,0.6054,-0.9270
108.7210,2.9161,1.3206,146.0483,4.3471,0.0000,0.0000,335.5603,-61.3275,123.9813,1500,1500,0.9949,-0.1918,0.5125,9.9427,4.3097,0.6683,-1.1625,-0.3063,0.3488,9.8363,4.3845,0.9107,-1.1407
108.7396,2.9862,1.3309,146.0253,4.4616,0.0000,0.0000,343.6237,-62.7587,127.5758,1500,1500,0.9999,-0.2133,0.4478,9.8828,4.6608,0.4698,-1.2923,-0.1938,0.3656,9.8196,4.2624,0.8802,-1.2247
108.7580,3.0657,1.3483,146.0000,4.6677,0.0000,0.0000,352.7798,-64.3807,130.9687,1500,1500,1.0000,-0.2301,0.4885,9.9259,4.6608,0.6912,-1.4449,-0.1315,0.5044,9.8555,4.6746,1.1168,-1.3621
108.7765,3.1399,1.3602,145.9754,4.4731,0.0000,0.0000,361.3079,-65.8943,134.1133,1500,1500,1.0000,-0.1654,0.4837,9.7392,4.6532,1.3477,-1.4907,-0.1603,0.5403,9.7430,4.2929,1.3000,-1.2934
108.7950,3.2039,1.3671,145.9495,3.9883,0.0029,0.0085,368.6518,-67.2069,136.8260,1500,1500,1.0000,-0.1726,0.4909,9.7559,4.3021,1.0271,-1.4678,-0.1650,0.5810,9.8172,3.6746,0.9565,-1.4232
108.8134,3.2762,1.3593,145.9228,3.0532,0.0029,-0.0000,377.0030,-68.6868,139.9042,1500,1500,1.0000,-0.1295,0.6346,9.9235,3.4318,0.6301,-1.5365,-0.1770,0.6002,9.7142,2.6746,0.8268,-1.4919
108.8319,3.3313,1.3614,145.8943,2.3357,0.0000,-0.0000,383.3390,-69.8213,142.2456,1500,1500,1.0000,-0.1870,0.6226,9.8493,2.5005,0.5996,-1.6205,-0.1794,0.5787,9.7047,2.1708,0.5443,-1.5529
108.8504,3.3654,1.3418,145.8665,1.4349,0.0000,-0.0000,387.2592,-70.5363,143.7007,1500,1500,1.0000,-0.0888,0.6034,9.7296,1.5921,0.4240,-1.6358,-0.1076,0.6289,9.6975,1.2777,0.6206,-1.4613
108.8689,3.3847,1.3200,145.8196,0.2631,0.0000,-0.0000,389.4872,-70.9574,144.5351,1500,1500,1.0000,-0.0314,0.6561,9.9307,0.5616,0.6606,-1.8113,-0.1483,0.6720,9.7980,-0.0353,1.2848,-3.4766
108.8874,3.3893,1.3275,145.7893,-0.8933,0.0000,-0.0000,390.0167,-71.0833,144.7463,1500,1500,1.0000,-0.1511,0.6777,9.7679,-0.5147,1.0881,-1.8419,-0.1243,0.6696,9.5155,-1.2719,1.2848,-1.6293
108.9060,3.3657,1.3364,145.7552,-2.2750,0.0000,-0.0000,387.2991,-70.6446,143.7661,1500,1500,1.0000,-0.1942,0.6585,9.6410,-1.9193,0.8210,-2.0098,-0.0693,0.6696,9.6735,-2.6307,0.6741,-1.8048
108.9244,3.3261,1.3350,145.7202,-3.5804,0.0000,-0.0000,382.7410,-69.8857,142.1103,1500,1500,1.0000,-0.2253,0.6968,9.7488,-3.1254,-0.2935,-2.0022,-0.2560,0.7989,9.5849,-4.0353,-0.0282,-1.8354
108.9429,3.2533,1.3333,145.6813,-4.6529,0.0000,-0.0000,374.3579,-68.4613,139.0509,1500,1500,1.0000,-0.2708,0.6322,9.7559,-4.2476,-0.6523,-2.3457,-0.2321,0.5882,9.4197,-5.0582,-0.7763,-1.8201
108.9614,3.1682,1.3204,145.6435,-5.3132,0.0000,-0.0000,364.5687,-66.7916,135.4751,1500,1500,1.0000,-0.2540,0.6178,9.7152,-5.0415,-1.3470,-2.2006,-0.3518,0.5475,9.7023,-5.5849,-0.9671,-1.7972
108.9798,3.0628,1.3014,145.6036,-5.6796,0.0000,-0.0000,352.4433,-64.7149,131.0416,1500,1500,1.0000,-0.2205,0.5388,9.7176,-5.4613,-1.2630,-2.2159,-0.2057,0.5451,9.7047,-5.8979,-0.9366,-1.9957
108.9987,2.9510,1.2794,145.5606,-5.4773,0.0000,-0.0000,339.5703,-62.5071,126.1091,1500,1500,0.9982,-0.1822,0.4909,9.8206,-5.2857,-0.9271,-2.3381,-0.2871,0.4685,9.5993,-5.6689,-0.7381,-2.1178
109.0181,2.8218,1.2906,145.5316,-5.2140,0.0000,-0.0000,324.7082,-59.9523,118.1865,1500,1500,0.9776,-0.3402,0.3927,9.9547,-5.2018,-0.9577,-0.6816,-0.3183,0.3895,9.6496,-5.2261,-0.7305,-2.1636
109.0367,2.6913,1.3018,145.4850,-4.7025,-0.0003,-0.0015,309.6896,-57.3682,107.9964,1500,1500,0.9359,-0.3091,0.2850,9.7775,-4.7285,-0.7516,-2.6052,-0.2704,0.3584,9.7286,-4.6765,-0.3335,-2.2552
109.0552,2.5868,1.3195,145.4383,-4.0193,-0.0284,-0.0726,297.8698,-55.3042,98.7917,1500,1500,0.8896,-0.3234,0.3281,9.7535,-3.9651,-0.4081,-2.7045,-0.3135,0.2195,9.8076,-4.0735,-0.2954,-2.2247
109.0738,2.4830,1.3466,145.3897,-3.1147,-0.0257,0.0034,285.7066,-53.2531,88.9314,1500,1500,0.8341,-0.3761,0.2347,9.7871,-3.2170,-0.6142,-2.6968,-0.2991,0.2578,9.6855,-3.0124,-0.1809,-2.3926
109.0923,2.4199,1.3533,145.3430,-1.7865,0.0000,0.0000,278.4563,-52.0155,82.8063,1500,1500,0.7964,-0.2708,0.2850,9.5740,-1.9575,-0.3699,-2.6510,-0.2871,0.2626,9.5921,-1.6155,-0.2190,-2.2858
109.1108,2.3819,1.3724,145.2956,-0.3132,0.0000,0.0000,274.0837,-51.2793,79.0896,1500,1500,0.7725,-0.3426,0.2659,9.6530,-0.3621,-0.4539,-2.6892,-0.2800,0.2698,9.5849,-0.2643,-0.3717,-2.3316
109.1292,2.3711,1.3694,145.2505,0.6296,0.0000,0.0000,272.8452,-51.0878,78.0415,1500,1500,0.7656,-0.3067,0.3042,9.6099,0.4547,-1.1180,-2.5213,-0.3614,0.2435,9.5825,0.8044,-1.2572,-2.2018
109.1477,2.3957,1.3727,145.2045,1.4006,0.0000,0.0000,275.6750,-51.6036,80.4657,1500,1500,0.7813,-0.3689,0.4023,9.6673,1.3784,-1.5378,-2.5671,-0.3518,0.2459,9.5658,1.4227,-1.5549,-2.2705
109.1662,2.4296,1.3624,145.1600,2.2402,0.0000,0.0000,279.5701,-52.3048,83.7912,1500,1500,0.8024,-0.3378,0.3832,9.7440,2.0425,-1.8432,-2.5365,-0.6223,0.1477,9.5275,2.4380,-2.0664,-2.1026
109.1846,2.4490,1.3348,145.1172,2.8548,0.0000,0.0000,281.8094,-52.7185,85.7001,1500,1500,0.8141,-0.2277,0.2635,9.6410,2.8211,-1.9424,-2.4831,-0.2369,0.1980,9.6209,2.8884,-1.1961,-1.9346
109.2032,2.4776,1.3261,145.0780,2.9120,0.0000,0.0000,285.1020,-53.3156,88.4882,1500,1500,0.8310,-0.2875,0.3066,9.8158,2.9815,-1.1561,-2.0938,-0.2512,0.2890,9.6759,2.8426,-1.3183,-1.9652
109.2217,2.5146,1.2971,145.0387,2.8738,0.0000,0.0000,289.3615,-54.0810,92.0585,1500,1500,0.8519,-0.1702,0.3568,9.8900,2.9204,-1.0874,-2.1243,-0.2536,0.3344,9.9800,2.8273,-0.8984,-1.9957
109.2402,2.5504,1.3098,145.0045,2.3051,0.0000,0.0000,293.4721,-54.8209,95.4572,1500,1500,0.8711,-0.2971,0.4047,9.8637,2.5082,-1.2172,-2.1014,-0.2991,0.3608,9.8052,2.1021,0.7733,-1.5453
109.2588,2.5562,1.2875,144.9724,1.4082,0.0000,0.0000,294.1405,-54.9627,96.0140,1500,1500,0.8741,-0.3091,0.3473,9.9020,1.6685,-1.5073,-1.7732,-0.3039,0.3895,9.8842,1.1479,-3.0435,-1.4079
109.2773,2.5398,1.2664,144.9426,0.4883,0.0000,-0.0000,292.2567,-54.6607,94.4832,1500,1500,0.8655,-0.2277,0.3257,9.9738,0.8364,-1.5378,-1.5823,-0.2393,0.3775,9.9465,0.1403,-0.9366,-1.4613
109.2958,2.5142,1.2331,144.9177,-0.2750,0.0000,-0.0000,289.3050,-54.1728,92.0549,1500,1500,0.8516,-0.2013,0.3473,10.0001,-0.0033,-2.8432,-1.4373,-0.3422,0.4063,9.9680,-0.5468,-0.4175,-1.0568
109.3143,2.4809,1.2084,144.8991,-1.0918,0.0000,-0.0000,285.4841,-53.5335,88.8723,1500,1500,0.8329,-0.1247,0.3784,9.9834,-0.6063,-0.4920,-1.2541,-0.1507,0.3751,9.9417,-1.5773,-0.1885,-0.6751
109.3328,2.4412,1.1844,144.8858,-1.6262,0.0000,-0.0000,280.9075,-52.7625,85.0173,1500,1500,0.8094,-0.1104,0.3904,10.0935,-0.2170,-0.4004,-0.9564,-0.3135,0.3488,9.9896,-3.0353,-0.0129,-0.4232
109.3513,2.3467,1.1628,144.8732,-3.7941,0.0000,-0.0000,270.0355,-50.8964,75.7538,1500,1500,0.7496,-0.1056,0.3137,10.0696,-3.3773,-0.1561,-0.7045,-0.1555,0.3129,9.9177,-4.2109,0.0863,-0.5987
109.3698,2.2297,1.1318,144.8627,-4.3819,0.0000,-0.0000,256.5719,-48.5787,64.3341,1500,1500,0.6692,-0.0553,0.2419,10.0648,-4.1407,-0.2783,-0.6739,-0.0166,0.2123,9.9201,-4.6231,0.3000,-0.3774
109.3883,2.1013,1.1049,144.8753,-4.7330,0.0000,-0.0000,241.7946,-46.0314,52.2266,1500,1500,0.5757,-0.0601,0.1964,10.0025,-4.5224,0.0805,1.3490,0.0863,0.1573,9.9560,-4.9437,0.3000,0.0501
109.4068,1.9537,1.0821,144.8745,-5.1452,0.0000,-0.0000,224.8158,-43.0999,39.3191,1500,1500,0.4653,-0.0697,0.1150,10.0337,-4.9880,-0.0722,-0.1319,-0.0118,0.2099,9.9058,-5.3025,0.4603,0.1494
109.4252,1.8165,1.0772,144.8773,-5.1605,0.0000,-0.0000,209.0207,-40.3728,28.6431,1500,1500,0.3639,-0.1391,0.1437,10.2013,-5.0185,0.0500,0.0513,-0.0358,0.2267,9.9489,-5.3025,0.6970,0.3249
109.4438,1.7091,1.0588,144.8834,-4.8514,0.0000,-0.0000,196.6650,-38.2424,21.3642,1500,1500,0.2880,-0.0768,0.2371,9.9762,-4.7972,0.1034,0.0742,-0.0118,0.0495,9.8651,-4.9055,0.5214,0.6226
109.4622,1.5850,1.0436,144.8925,-4.7559,-0.0469,-0.2149,183.0014,-35.7759,14.2822,1500,1500,0.2066,-0.0625,0.1246,9.9906,-4.6750,0.3858,0.4024,-0.0286,0.1908,9.9153,-4.8368,0.8268,0.6226
109.4807,1.4493,1.0326,144.9038,-4.8094,-0.2130,-0.7996,169.0744,-33.0771,8.2235,1500,1500,0.1287,-0.0553,0.0528,10.0265,-4.7666,0.7446,0.4024,0.0959,0.1070,9.9417,-4.8521,1.0863,0.8822
109.4992,1.3210,1.0273,144.9223,-5.4391,-0.5882,-2.5253,159.2770,-30.5236,4.1305,1500,1500,0.0690,-0.1032,0.1174,9.9355,-4.5224,0.5232,0.7917,-0.0070,0.1238,9.9800,-6.3559,0.7581,1.2486
109.5178,1.2393,1.0142,144.9435,-3.5002,-0.5307,0.2903,141.7726,-28.9030,2.1405,1500,1500,0.0395,-0.0721,0.1509,9.9570,-3.6140,0.4087,1.0894,-0.0358,0.1070,9.9273,-3.3865,0.7123,1.2104
109.5362,1.1771,1.0058,144.9650,-2.6949,-0.3269,0.7598,133.2635,-27.6709,1.1326,1500,1500,0.0221,-0.0888,0.1557,9.9499,-2.7361,0.3095,1.0436,-0.0453,0.1285,9.9369,-2.6536,0.8955,1.3020
109.5549,1.1513,0.9830,144.9904,-1.1987,-0.0435,0.2579,131.7354,-27.1655,0.8227,1500,1500,0.0163,-0.0122,0.1844,10.0815,-0.2170,0.5309,1.2039,-0.0142,0.1573,9.8746,-2.1803,0.8420,1.5158
109.5734,1.1046,0.9381,145.0165,-2.0078,-0.0007,0.0023,127.1022,-26.2434,0.3860,1500,1500,0.0079,0.1291,0.1509,9.9594,-1.9804,0.7981,1.2955,0.0025,0.2698,9.8627,-2.0353,1.2695,1.5081
109.5918,1.0748,0.9163,145.0431,-1.5727,0.0000,0.0000,123.6779,-25.6578,0.1942,1500,1500,0.0041,0.0357,0.1821,9.9211,-1.5376,1.0500,1.2955,-0.0238,0.3321,9.8722,-1.6078,1.2008,1.5768
109.6103,1.0515,0.9003,145.0726,-1.4811,0.0000,0.0000,120.9971,-25.2024,0.0909,1500,1500,0.0020,0.0141,0.2012,9.8972,-1.3850,0.8973,1.3642,-0.0310,0.2435,9.7358,-1.5773,1.4298,1.7982
109.6293,1.0305,0.8979,145.1030,-1.4201,0.0000,0.0000,118.5770,-24.7920,0.0315,1500,1500,0.0007,-0.0529,0.2060,9.8876,-1.4155,0.9965,1.5780,-0.1196,0.2195,9.8579,-1.4246,1.1626,1.5768
109.6480,1.0245,0.9232,145.1319,-1.0040,0.0000,0.0000,117.8906,-24.6830,0.0203,1500,1500,0.0004,-0.1678,0.2323,9.8469,-0.9651,0.8515,1.4100,-0.2512,0.2961,9.7717,-1.0429,1.6054,1.6379
109.6665,1.0370,0.9651,145.1587,-1.2407,0.0000,0.0000,119.3323,-24.9439,0.0467,1500,1500,0.0010,-0.1798,0.3353,9.7464,-1.0796,1.8591,1.2497,-0.0549,0.3057,9.6089,-1.4017,2.2695,1.5234
109.6851,1.0581,0.9983,145.1872,-1.4506,0.0000,0.0000,121.7590,-25.3763,0.1163,1500,1500,0.0025,-0.1846,0.3880,9.6338,-1.2476,1.6606,1.4940,-0.2105,0.4111,9.4126,-1.6536,1.3993,1.4165
109.7035,1.0655,1.0475,145.2151,-1.9849,0.0000,-0.0000,122.6021,-25.5335,0.1481,1500,1500,0.0031,-0.3618,0.3784,9.7464,-1.6369,0.4316,1.3032,-0.4595,0.4206,9.7166,-2.3330,0.4145,1.6455
109.7220,1.0592,1.0939,145.2407,-2.8895,0.0000,-0.0000,121.8841,-25.4193,0.1208,1500,1500,0.0026,-0.4240,0.3951,9.7152,-2.5529,-0.3699,1.2879,-0.4284,0.3225,9.6017,-3.2261,-0.3488,1.4165
109.7406,1.0284,1.1314,145.2622,-3.8170,0.0000,-0.0000,118.3378,-24.8132,0.0273,1500,1500,0.0006,-0.4743,0.3568,9.6530,-3.4613,-1.3623,0.9139,-0.4930,0.3656,9.4126,-4.1727,-1.4481,1.4013
109.7591,1.0010,1.1383,145.2834,-3.9926,0.0000,-0.0000,115.1842,-24.2751,0.0000,1500,1500,0.0000,-0.3570,0.3808,9.5931,-3.8201,-1.9042,0.9368,-0.3853,0.3608,9.6137,-4.1651,-1.2877,1.3326
109.7776,0.9557,1.1670,145.3057,-4.6109,0.0000,-0.0000,109.9664,-23.3778,0.0000,1500,1500,0.0000,-0.3977,0.3544,9.8613,-4.3086,-1.0951,0.9749,-0.4404,0.3799,9.8675,-4.9132,-0.4252,1.4089
109.7962,0.9181,1.1828,145.3233,-4.7559,-0.0367,-0.1702,106.1305,-18.3704,0.0000,1500,1500,0.0000,-0.3498,0.3904,9.6195,-4.6979,-0.9119,0.7001,-0.2081,0.3416,9.6544,-4.8139,-0.9519,1.1188
109.8149,0.8839,1.1997,145.3380,-4.5689,-0.1624,-0.5312,103.2365,-17.6863,0.0000,1500,1500,0.0000,-0.3785,0.3856,9.7057,-4.4231,-1.3775,0.5093,-0.4476,0.3871,9.7477,-4.7147,-1.0053,1.0119
109.8335,0.8443,1.2066,145.3505,-4.4353,-0.3171,-0.7478,99.3068,-16.8945,0.0000,1500,1500,0.0000,-0.3306,0.3425,9.6721,-4.3086,-1.1790,0.4329,-0.3805,0.3608,9.7238,-4.5620,-1.1045,0.8669
109.8519,0.7890,1.2014,145.3607,-5.2712,-0.6837,-2.5025,81.6687,-15.7889,0.0000,1500,1500,0.0000,-0.2923,0.3353,9.7583,-4.2018,-1.4081,0.2879,-0.1962,0.3273,9.5849,-6.3406,-1.1274,0.7677
109.8704,0.7590,1.1658,145.3623,-4.2559,-0.8005,-0.7475,74.5734,-15.1872,0.0000,1500,1500,0.0000,-0.1367,0.3592,9.7727,-4.1712,-1.3394,-0.1014,-0.1387,0.3297,9.8244,-4.3406,-0.8984,0.2028
109.8890,0.7280,1.1449,145.3588,-3.6949,-0.7517,0.2873,69.1169,-14.5668,0.0000,1500,1500,0.0000,-0.1822,0.3018,9.6937,-3.5758,-1.0416,-0.2465,-0.2201,0.2171,9.7765,-3.8139,-0.8755,-0.1865
109.9076,0.6658,1.1496,145.3495,-3.5765,-0.6813,0.3941,62.9008,-13.3232,0.0000,1500,1500,0.0000,-0.2947,0.1390,9.7416,-2.7437,-1.0264,-0.5442,-0.2728,0.3273,9.7430,-4.4094,-0.8145,-0.4384
109.9261,0.6832,1.1561,145.3346,-1.4315,-0.2117,1.1839,62.6681,-13.6702,0.0000,1500,1500,0.0000,-0.3881,0.3161,9.6985,-1.5147,-2.8355,-0.9258,-0.3111,0.2674,9.8555,-1.3483,-0.9824,-0.7285
109.9446,0.7083,1.1548,145.3153,-0.2063,0.0000,0.0000,67.9169,-14.1725,0.0000,1500,1500,0.0000,-0.2756,0.2515,9.7655,-0.3163,-1.1256,-1.0709,-0.2010,0.2554,9.7214,-0.0964,-0.8450,-1.0568
109.9631,0.7598,1.1609,145.2881,0.9922,0.0000,0.0000,72.8609,-15.2042,0.0000,1500,1500,0.0000,-0.2588,0.2754,9.7607,0.8211,-0.5607,-1.5518,-0.2010,0.2842,9.7956,1.1632,-0.2419,-1.4461
109.9816,0.8164,1.1663,145.2412,1.8471,0.0000,0.0000,93.9400,-16.3357,0.0000,1500,1500,0.0000,-0.2636,0.2371,9.7488,1.8059,-0.5149,-1.6510,-0.2776,0.2195,9.6951,1.8884,-0.5320,-3.4842
110.0000,0.8810,1.2019,145.2040,2.3280,0.0000,0.0000,101.3767,-17.6290,0.0000,1500,1500,0.0000,-0.4527,0.2419,9.7440,2.4166,-1.0340,-2.0403,-0.3853,0.2770,9.7166,2.2395,-1.1045,-2.0110
110.0186,0.9630,1.2281,145.1603,3.0761,0.0000,0.0000,110.8141,-19.2701,0.0000,1500,1500,0.0000,-0.4408,0.2706,9.8254,3.0196,-1.3775,-2.3610,-0.4116,0.2794,9.7980,3.1326,-1.3183,-2.3697
110.0372,1.0608,1.2472,145.1116,3.8586,0.0000,0.0000,122.0710,-21.2276,0.1219,1500,1500,0.0027,-0.4168,0.2946,9.9738,3.7753,-1.3852,-2.6968,-0.4523,0.3321,9.7717,3.9418,-1.3183,-2.5606
110.0556,1.1560,1.2459,145.0582,4.3509,0.0000,0.0000,133.0217,-23.1425,0.8448,1500,1500,0.0173,-0.2971,0.2563,9.8756,4.3479,-1.3088,-2.8877,-0.2752,0.3033,9.8411,4.3540,-0.8297,-2.8812
110.0741,1.2820,1.2618,144.9988,4.5876,0.0000,0.0000,147.5203,-25.6752,2.9259,1500,1500,0.0540,-0.3234,0.3999,9.9044,4.7753,-0.6142,-3.3915,-0.2393,0.3799,9.8172,4.3998,-0.2343,-3.1255
110.0926,1.4001,1.2792,144.9336,3.9807,0.0000,0.0000,161.1111,-28.0514,6.1537,1500,1500,0.1041,-0.3139,0.4382,9.9499,4.3555,-0.2172,-3.6358,-0.3255,0.3751,9.9369,3.6059,-0.2496,-3.4919
110.1112,1.4827,1.3291,144.8642,2.6868,0.0000,0.0000,170.6147,-29.7180,9.1841,1500,1500,0.1466,-0.4551,0.3999,9.8613,3.1494,-0.3165,-3.7732,-0.4547,0.3919,10.0135,2.2242,0.0787,-3.7896
110.1296,1.5365,1.3995,144.7874,1.3700,0.0000,-0.0000,176.8008,-30.8086,11.5051,1500,1500,0.1773,-0.5605,0.3999,9.9594,1.6761,-0.3088,-4.2617,-0.5505,0.4374,9.7454,1.0639,0.1474,-4.1255
110.1480,1.5659,1.4702,144.7052,0.4120,0.0000,-0.0000,180.1923,-31.4137,12.8948,1500,1500,0.1949,-0.5222,0.3808,9.9475,0.7982,0.2866,-4.5289,-0.4930,0.3536,9.8052,0.0258,0.7428,-4.4995
110.1666,1.6017,1.5628,144.6198,-0.7063,0.0000,-0.0000,184.3123,-32.1458,14.6935,1500,1500,0.2171,-0.5796,0.5101,9.8972,-0.4079,0.9965,-4.8037,-0.5936,0.5140,9.7932,-1.0048,1.2390,-4.6216
110.1850,1.6243,1.6801,144.5252,-1.5575,0.0000,-0.0000,186.9044,-32.6125,15.8876,1500,1500,0.2315,-0.7592,0.5268,9.8397,-1.0415,0.5996,-5.2846,-0.7325,0.5691,9.7669,-2.0735,0.4451,-5.1407
110.2034,1.6345,1.7966,144.4240,-2.7674,0.0000,-0.0000,188.0865,-32.8344,16.4491,1500,1500,0.2381,-0.8047,0.5867,9.9283,-2.3163,0.1492,-5.5289,-0.7133,0.5643,9.8291,-3.2185,0.4451,-5.6827
110.2220,1.5927,1.8935,144.3148,-4.3323,0.0000,-0.0000,183.2747,-32.0140,14.2347,1500,1500,0.2114,-0.7448,0.4837,9.9594,-3.8430,0.1950,-6.0480,-0.6319,0.4470,9.6448,-4.8216,0.0405,-5.8430
110.2406,1.5115,1.9424,144.2010,-5.7407,0.0000,-0.0000,173.9242,-30.4039,10.3999,1500,1500,0.1628,-0.5485,0.4095,9.7823,-5.1789,-0.2019,-6.2083,-0.5098,0.3584,9.7501,-6.3025,-0.1198,-6.1026
110.2591,1.3964,1.9551,144.0811,-6.7903,0.0000,-0.0000,160.6799,-28.1159,6.0386,1500,1500,0.1023,-0.4048,0.3281,9.9163,-6.3773,-0.3470,-6.7503,-0.2488,0.4135,9.8483,-7.2032,-0.1351,-6.2705
110.2775,1.2882,1.9660,143.9581,-6.9544,0.0000,-0.0000,148.2296,-25.9649,3.0677,1500,1500,0.0563,-0.3713,0.3544,9.8852,-6.9193,-0.3623,-6.9945,-0.3566,0.3823,9.8196,-6.9895,0.4374,-6.4384
110.2962,1.1819,1.9899,143.8255,-6.9353,-0.1658,-1.6350,140.7091,-23.8511,1.1964,1500,1500,0.0233,-0.3977,0.3449,9.8278,-6.7590,0.1797,-7.4297,-0.4069,0.4901,9.8172,-7.1116,0.6588,-6.9423
110.3147,1.0746,2.0388,143.6901,-6.7178,-0.8392,-5.7834,140.3044,-21.7150,0.2038,1500,1500,0.0041,-0.4623,0.3042,9.8349,-6.6063,0.9355,-7.4297,-0.3326,0.3368,9.8291,-6.8292,1.2924,-7.3010
110.3331,0.9534,2.0480,143.5515,-6.5727,-1.7212,-8.7059,134.7744,-19.3005,0.0000,1500,1500,0.0000,-0.2612,0.2084,9.8206,-6.3773,1.4011,-7.6892,-0.3231,0.1980,9.8603,-6.7681,1.3535,-7.4003
110.3517,0.8315,2.0527,143.4063,-6.4162,-2.5779,-9.5605,102.6738,-16.6373,0.0000,1500,1500,0.0000,-0.2803,0.1749,9.8086,-6.2705,0.8744,-8.0251,-0.2560,0.1549,9.7813,-6.5620,1.0252,-7.6674
110.3704,0.7124,2.0667,143.2530,-6.0498,-3.2047,-7.6257,86.6121,-14.2546,0.4183,1500,1500,0.0133,-0.3426,0.1414,9.7942,-5.8811,0.7904,-8.2999,-0.2081,0.1142,9.7406,-6.2185,0.7352,-8.1102
110.3888,0.6096,2.0797,143.0973,-5.4124,-3.4632,-3.3160,66.4125,-12.1979,1.5840,1500,1500,0.0641,-0.3737,0.1342,9.7272,-5.4689,0.2561,-8.5900,-0.3494,0.1525,9.7142,-5.3559,0.4145,-8.2629
110.4073,0.5425,2.0645,142.9382,-4.2598,-3.1698,3.5224,43.5690,-10.8558,0.1630,1500,1500,0.0092,-0.2708,0.1821,9.8206,-4.2247,0.1416,-8.8113,-0.1842,0.3368,9.6639,-4.2948,0.0710,-8.4766
110.4258,0.5067,2.0285,142.7739,-3.1262,-2.4336,7.3033,31.0561,-10.1382,0.0000,1500,1500,0.0000,-0.1606,0.2228,9.8206,-3.1407,0.3706,-8.9411,-0.1435,0.2123,9.8651,-3.1116,0.1016,-8.8812
110.4443,0.4728,1.9996,142.6057,-2.3666,-1.5649,6.6047,29.4831,-9.4601,0.0000,1500,1500,0.0000,-0.1918,0.1605,9.8972,-2.3621,0.0271,-9.2694,-0.2512,0.1932,9.8866,-2.3712,0.3306,-9.0110
110.4628,0.4701,1.9824,142.4342,-1.9811,-0.8384,3.9423,35.6183,-9.4070,0.0000,1500,1500,0.0000,-0.1750,0.2730,9.9523,-1.9040,0.7446,-9.5594,-0.0789,0.1190,9.8579,-2.0582,1.2390,-9.1713
110.4813,0.4449,2.0091,142.2556,-1.3056,-0.2688,1.6059,38.8106,-8.9030,0.0000,1500,1500,0.0000,-0.2995,0.1007,9.8158,-1.4308,1.7065,-9.7121,-0.1339,0.3081,9.7908,-1.1803,2.0329,-9.5835
110.4998,0.4252,2.0056,142.0723,-1.4659,-0.0418,0.2158,40.2596,-8.5092,0.0000,1500,1500,0.0000,-0.1271,0.1390,9.7440,-0.4918,2.3248,-10.0709,0.0911,0.2219,9.7454,-2.4399,2.3000,-9.7667
110.5183,0.4411,1.9777,141.8849,0.2784,0.0000,0.0000,42.3010,-8.8272,0.0000,1500,1500,0.0000,-0.0457,0.1533,9.9570,0.3402,2.1492,-10.2312,-0.0789,0.2339,9.7070,0.2166,1.6435,-10.1102
110.5368,0.4883,1.9234,141.6937,0.5151,0.0000,0.0000,46.8251,-9.7712,0.0000,1500,1500,0.0000,-0.0146,0.2778,9.6937,0.6227,1.0881,-10.5976,-0.0645,0.2794,9.5921,0.4074,0.4145,-10.3316
110.5553,0.5522,1.8821,141.4951,0.9960,0.0000,0.0000,52.9548,-11.0503,0.0000,1500,1500,0.0000,-0.1128,0.3209,9.6650,1.0044,0.2255,-10.9258,-0.1052,0.2435,9.6879,0.9876,0.1474,-10.6827
110.5738,0.5866,1.8502,141.2925,1.0112,0.0000,0.0000,56.2524,-11.7385,0.0000,1500,1500,0.0000,-0.1750,0.1988,9.7128,1.2181,-0.1027,-11.0938,-0.0693,0.0447,9.6520,0.8044,-0.0969,-10.8277
110.5923,0.6147,1.8118,141.0847,0.9883,0.0000,0.0000,58.9467,-12.3007,0.0000,1500,1500,0.0000,-0.1319,0.1773,9.7918,1.3784,-0.2325,-11.3304,-0.0453,0.1788,9.8387,0.5983,0.1855,-11.1789
110.6108,0.6558,1.7684,140.8747,0.7326,0.0000,0.0000,62.8841,-13.1223,0.0000,1500,1500,0.0000,-0.0744,0.2659,9.8421,0.9815,0.1874,-11.6510,-0.1890,0.2243,9.8291,0.4838,0.3153,-11.2323
110.6293,0.6954,1.7235,140.6573,0.9616,0.0000,0.0000,66.6863,-13.9157,0.0000,1500,1500,0.0000,-0.0290,0.2467,9.9140,1.1112,0.5156,-11.9258,-0.0453,0.2435,9.8387,0.8120,0.7504,-11.6369
110.6479,0.7363,1.7012,140.4344,1.1525,0.0000,0.0000,70.6019,-14.7328,0.0000,1500,1500,0.0000,-0.0170,0.2371,9.8062,1.3326,3.0042,-12.1090,-0.0429,0.3297,9.8435,0.9723,0.9413,-11.8888
110.6664,0.7654,1.6687,140.2082,1.1448,0.0000,0.0000,73.3974,-15.3162,0.0000,1500,1500,0.0000,-0.0385,0.1988,9.9331,1.2792,1.0805,-12.3304,-0.1866,0.1070,9.8052,1.0105,0.9413,-12.2094
110.6849,0.7770,1.5878,139.9771,0.5761,0.0000,0.0000,74.5109,-15.5485,0.0000,1500,1500,0.0000,0.1315,0.1749,9.8589,1.6532,0.5996,-12.5900,0.2132,0.0735,9.7023,-0.5010,0.1245,-12.3850
110.7035,0.7863,1.5086,139.7413,1.9235,0.0000,0.0000,75.3986,-15.7338,0.0000,1500,1500,0.0000,0.0788,0.0408,9.8158,2.0960,-0.3699,-12.8571,0.0552,0.0639,9.7454,1.7510,-0.3183,-12.4537
110.7221,0.7927,1.4433,139.5036,1.8548,0.0000,0.0000,76.0115,-15.8617,0.0000,1500,1500,0.0000,0.0261,0.0336,9.8517,2.0273,-0.4768,-12.9487,-0.0166,0.0902,9.7884,1.6823,-0.3106,-12.6293
110.7405,0.8155,1.3771,139.2646,1.8319,0.0000,0.0000,93.8424,-16.3188,0.0000,1500,1500,0.0000,0.0524,0.1150,9.8972,1.9433,-0.2096,-13.0938,0.1247,0.0400,9.7645,1.7204,-0.2877,-12.7590
110.7590,0.8393,1.3074,139.0248,2.1486,0.0000,0.0000,96.5767,-16.7942,0.0000,1500,1500,0.0000,0.1123,0.0935,9.9882,2.1723,0.0576,-13.1243,0.0959,0.0998,9.9608,2.1250,0.0863,-12.8354
110.7775,0.8425,1.2533,138.7841,2.5303,0.0000,0.0000,96.9494,-16.8591,0.0000,1500,1500,0.0000,0.0668,-0.0334,9.9618,2.6914,0.3782,-13.2159,0.1510,0.0064,9.9632,2.3693,0.2084,-12.7361
110.7960,0.8236,1.2118,138.5426,2.8357,0.0000,0.0000,94.7743,-16.4808,0.0000,1500,1500,0.0000,0.0524,-0.1651,9.9379,2.9051,0.6454,-13.1396,0.2276,-0.0893,9.7980,2.7662,0.7886,-12.8277
110.8146,0.8322,1.1727,138.3010,3.1563,0.0000,0.0000,95.7647,-16.6530,0.0000,1500,1500,0.0000,0.0716,-0.0669,9.8206,3.2944,1.1034,-13.1243,0.0313,-0.0031,9.6376,3.0181,0.8344,-12.8048
110.8331,0.8518,1.1568,138.0634,3.4540,0.0000,0.0000,98.0213,-17.0455,0.0000,1500,1500,0.0000,-0.0673,-0.0382,9.7152,3.6532,0.8133,-12.9411,-0.0022,-0.0606,9.7549,3.2548,0.2771,-12.6522
110.8515,0.8598,1.1307,137.8271,3.3586,0.0000,0.0000,98.9388,-17.2050,0.0000,1500,1500,0.0000,-0.0337,-0.0837,9.9738,3.5921,0.4622,-12.8648,-0.0286,-0.0271,9.7406,3.1250,0.2008,-12.6522
110.8701,0.8572,1.0823,137.5910,3.1754,0.0000,0.0000,98.6361,-17.1524,0.0000,1500,1500,0.0000,0.0309,-0.1148,9.7583,3.3021,0.0118,-12.8495,0.0433,-0.0869,9.6783,3.0487,-0.3412,-12.5453
110.8886,0.9004,1.0100,137.3575,4.7059,0.0000,0.0000,103.6097,-18.0173,0.0000,1500,1500,0.0000,0.1386,-0.0286,9.5740,5.6532,-0.3317,-12.7121,-0.0741,-0.1013,9.6544,3.7586,-0.2877,-12.3468
110.9071,0.9319,0.9963,137.1301,4.8051,0.0000,0.0000,107.2339,-18.6475,0.0000,1500,1500,0.0000,-0.0792,-0.0933,9.7918,4.7524,-0.0874,-12.4526,-0.0765,-0.0726,9.7884,4.8578,0.3611,-12.1407
110.9255,0.9755,0.9947,136.9088,5.3128,0.1251,0.7035,110.2268,-19.5203,0.0000,1500,1500,0.0000,-0.0864,-0.0741,9.6841,5.3937,0.7828,-12.0327,-0.0525,-0.0390,9.6783,5.2319,0.6206,-11.9194
110.9440,1.0600,0.9420,136.6883,5.5570,0.4813,2.3355,115.2462,-21.2104,0.1134,1500,1500,0.0026,0.1075,0.0983,9.6362,5.5005,0.4851,-11.9335,-0.0405,-0.0367,9.5945,5.6135,-0.0664,-11.8048
110.9625,1.1141,0.9139,136.4686,5.9998,1.0945,5.1277,113.4273,-22.3031,0.4028,1500,1500,0.0094,-0.0242,-0.0645,9.7104,6.0578,0.0042,-12.0327,-0.0214,-0.0319,9.6639,5.9418,-0.2725,-11.7056
110.9809,1.1696,0.8700,136.2538,6.8319,2.1096,10.8012,103.4803,-23.4259,0.8284,1500,1500,0.0204,0.0165,-0.1220,9.6745,6.6227,-0.4615,-11.6129,-0.1435,-0.0941,9.8411,7.0410,-0.7458,-11.4995
110.9995,1.2548,0.8507,136.0442,8.3051,3.7835,23.4938,76.7301,-25.1425,5.7554,1500,1500,0.1690,-0.0433,-0.1052,9.8062,8.1418,-1.0645,-11.3839,-0.1914,-0.0678,9.6304,8.4685,0.7352,-11.1331
111.0180,1.3975,0.8574,135.8374,9.9082,5.6537,38.7955,49.0755,-28.0094,26.7223,1500,1500,0.9631,-0.2492,0.0336,9.7200,9.6074,-1.3241,-11.2159,-0.2177,0.1453,9.6927,10.2090,-0.9442,-11.0033
111.0365,1.5799,0.8910,135.6376,11.1296,6.5647,43.6190,56.1786,-31.6743,31.5672,1500,1500,1.0000,-0.2540,0.1485,9.9020,11.1341,0.0652,-10.9258,-0.1746,0.0543,9.6759,11.1250,0.5748,-10.7056
111.0550,1.7526,0.8901,135.4379,10.8891,7.2134,35.0377,100.7605,-35.1449,45.7854,1500,1500,1.0000,-0.1151,0.1485,9.6434,11.0044,0.3553,-10.8342,-0.3326,0.1477,9.4868,10.7739,-0.2648,-10.6903
111.0736,1.9095,0.8880,135.2424,10.8013,7.7516,28.9700,136.2965,-38.3031,57.3146,1500,1500,1.0000,-0.1846,0.1102,9.7128,10.8975,-0.6676,-10.7121,-0.4883,0.1740,9.8244,10.7052,-1.0969,-10.2476
111.0920,2.0516,0.9282,135.0502,10.8319,8.2136,25.0291,163.9974,-41.1655,66.5020,1500,1500,1.0000,-0.4144,0.0719,9.9092,10.8898,-1.0264,-10.5442,-0.4116,0.1142,9.5993,10.7739,-1.3183,-10.1484
111.1105,2.1869,0.9409,134.8630,11.6715,8.7323,28.0995,170.7166,-43.8921,69.7467,1500,1500,1.0000,-0.3019,-0.0095,9.6817,11.6608,-1.3546,-10.2312,-0.3398,0.0854,10.0135,11.6823,-1.4328,-9.8583
111.1291,2.3624,0.9839,134.6614,11.0990,9.0873,19.0959,216.8410,-47.4255,84.4282,1500,1500,1.0000,-0.4072,0.2299,9.6171,9.6456,-0.8355,-10.0174,-0.2848,0.0519,9.7861,12.5525,-1.2038,-11.3545
111.1476,2.5282,0.9743,134.4920,13.6296,9.7686,36.7886,184.9645,-50.7667,77.1734,1500,1500,1.0000,-0.0816,0.0145,9.8302,13.6532,-0.3165,-9.3533,-0.2034,0.1238,9.8459,13.6059,0.4298,-8.8354
111.1661,2.7297,1.0155,134.3285,13.7631,10.3678,32.3531,220.9324,-54.8251,89.2736,1500,1500,1.0000,-0.3067,0.2060,10.0552,13.7219,0.7446,-8.9182,-0.3255,0.0495,9.6520,13.8044,-0.1045,-8.6903
111.1846,2.8825,1.0521,134.1701,12.9158,10.7500,20.6519,272.2187,-57.9105,105.1765,1500,1500,1.0000,-0.3187,0.0839,9.9116,13.4166,-0.0111,-8.6434,-0.2656,0.1669,9.8579,12.4151,-0.1198,-8.3392
111.2031,3.0126,1.0713,134.0185,11.6906,10.8911,7.6352,324.6711,-60.5414,121.1786,1500,1500,1.0000,-0.2468,0.1126,9.8709,11.6990,-0.0035,-8.2770,-0.2297,-0.1157,9.7956,11.6823,-0.2343,-7.9881
111.2218,3.1442,1.0772,133.8766,12.3624,11.1118,11.8066,327.8059,-63.2056,123.3884,1500,1500,1.0000,-0.2205,0.0695,9.9618,12.1036,-0.2554,-7.7579,-0.1890,0.1309,9.8172,12.6212,-0.6542,-7.2247
111.2415,3.3182,1.0319,133.7380,12.7479,11.3572,12.4630,345.9354,-66.7182,130.2210,1500,1500,1.0000,-0.0266,0.2132,9.8134,12.7753,-0.9424,-7.1472,-0.1004,0.2506,9.7477,12.7204,-0.7839,-6.7285
111.2608,3.5238,0.9935,133.6089,14.0456,11.7605,20.9166,345.2509,-70.8658,132.1031,1500,1500,1.0000,-0.0984,0.2850,9.9140,13.0883,-1.1180,-6.5365,-0.1627,0.2961,9.9680,15.0029,-1.7687,-6.5606
111.2796,3.6573,0.9769,133.4908,11.2479,11.6836,-4.0888,432.6321,-73.5728,157.9234,1500,1500,1.0000,-0.2133,0.2682,10.1246,11.7295,-1.9195,-6.1625,-0.3494,0.2722,10.0303,10.7662,-1.5549,-6.0568
111.2987,3.7760,0.9552,133.3801,9.3395,11.3320,-18.3732,487.4308,-75.9845,174.4729,1500,1500,1.0000,-0.1032,0.3784,10.0097,9.6532,-0.8508,-5.7655,-0.0334,0.2195,9.8483,9.0258,-0.5931,-5.6369
111.3184,3.8143,0.8449,133.2730,7.7975,10.8018,-26.9369,516.5049,-76.7892,183.0159,1500,1500,1.0000,0.2248,0.1605,9.9283,8.4089,-2.8203,-5.4984,0.1199,0.1549,9.8435,7.1861,-0.4099,-5.0568
111.3380,3.8285,0.7940,133.1780,6.9196,10.2195,-29.6932,526.0752,-77.1111,185.8566,1500,1500,1.0000,0.1315,0.1366,10.2324,7.2792,-0.0035,-5.0327,0.1055,0.1788,10.1548,6.5601,0.4298,-4.5758
111.3574,3.8341,0.7681,133.0949,5.9235,9.5751,-33.1334,536.6260,-77.2612,188.8859,1500,1500,1.0000,0.0309,0.1821,10.0313,6.0960,0.4622,-4.3915,0.0433,0.2554,9.9225,5.7510,0.2313,-4.0949
111.3764,3.8706,0.7544,133.0173,6.0227,9.0422,-28.0690,526.2379,-78.0294,186.3613,1500,1500,1.0000,-0.0816,0.3185,10.0145,6.0578,-0.2401,-4.3381,-0.1411,0.2267,9.9153,5.9876,-0.5320,-3.7590
111.3954,3.8776,0.7594,132.9452,6.2097,8.6173,-22.3840,510.6734,-78.2086,182.0929,1500,1500,1.0000,-0.1175,0.1725,10.0600,6.2105,-0.3928,-3.9716,-0.0645,0.1022,10.1380,6.2090,0.6435,-3.5606
111.4149,3.8701,0.7605,132.8777,6.6944,8.3289,-14.7884,487.9363,-78.0976,175.6710,1500,1500,1.0000,0.0453,0.0647,10.1582,6.7524,1.6606,-3.7045,0.0696,0.0376,9.9010,6.6365,2.0100,-3.3392
111.4346,3.8677,0.7420,132.8117,7.0876,8.1427,-9.4601,472.3162,-78.0885,171.2928,1500,1500,1.0000,0.0931,0.0456,9.9666,6.9662,1.6301,-3.5136,0.1247,0.1812,10.0207,7.2090,1.2848,-3.2400
111.4540,3.8798,0.7385,132.7510,8.0418,8.1276,-0.7785,448.6998,-78.3683,164.8201,1500,1500,1.0000,-0.0218,0.0264,10.1007,7.8135,0.8973,-2.9869,0.0840,0.1118,10.0949,8.2700,0.8497,-3.1713
111.4729,3.9595,0.7517,132.6943,10.4693,8.4788,18.5788,402.1222,-80.0018,152.5951,1500,1500,1.0000,-0.1223,0.1294,10.1031,9.8898,0.6912,-2.9869,-0.0956,0.1046,10.0398,11.0487,0.5138,-2.9499
111.4919,4.0931,0.7144,132.6396,13.1067,9.1730,36.6537,365.4484,-82.7160,143.6835,1500,1500,1.0000,0.0285,0.1581,9.9116,12.5540,-0.0874,-2.6816,0.0504,0.1525,9.8291,13.6594,-0.5091,-2.8659
111.5113,4.2716,0.6418,132.5838,15.4044,10.1077,48.0452,353.1809,-86.3283,142.0548,1500,1500,1.0000,0.2248,0.1653,9.9211,14.8669,-0.2019,-2.7121,0.3018,0.1429,9.9536,15.9418,0.3382,-2.8506
111.5311,4.5013,0.6060,132.5292,17.8777,11.2732,58.8655,348.4537,-90.9674,143.0508,1500,1500,1.0000,0.2248,0.1940,10.0432,17.2486,1.4164,-2.6129,0.1749,0.1285,10.1452,18.5067,2.1168,-2.9652
111.5507,4.7780,0.6067,132.4787,21.7250,12.8410,80.2237,318.7838,-96.5488,137.5339,1500,1500,1.0000,0.0477,0.1126,9.9379,20.7295,1.6683,-2.4526,0.1055,0.1716,9.9441,22.7204,1.5519,-2.7514
111.5697,5.0893,0.6425,132.4385,23.3204,14.4129,82.7540,347.3271,-102.8264,148.6648,1500,1500,1.0000,-0.1056,0.2275,10.0815,23.2792,1.6835,-2.0632,-0.1842,0.4302,9.9872,23.3616,1.7123,-2.2705
111.5885,5.4498,0.7092,132.3980,23.3280,15.7502,71.1875,422.1226,-110.0898,173.2392,1500,1500,1.0000,-0.2253,0.5268,9.9666,23.4166,2.0118,-2.0709,-0.2369,0.5787,9.7861,23.2395,2.0710,-2.4537
111.6081,5.8078,0.7602,132.3629,21.5914,16.6263,44.6200,539.8425,-117.3083,209.8101,1500,1500,1.0000,-0.0960,0.6393,9.6721,21.8517,2.3553,-1.9029,-0.1243,0.7247,9.5634,21.3311,2.9642,-2.0720
111.6280,6.1639,0.8130,132.3363,19.1677,17.0075,19.1807,654.0906,-124.4915,245.3911,1500,1500,1.0000,-0.0601,0.8740,9.5716,19.6074,3.5690,-1.5823,-0.0980,0.8324,9.4437,18.7281,3.0787,-1.7132
111.6476,6.4382,0.9178,132.3130,16.1868,16.8844,-6.2844,759.0058,-130.0426,277.5429,1500,1500,1.0000,-0.3929,0.8716,9.7104,17.1112,2.6072,-1.3228,-0.5768,0.8995,9.5035,15.2624,1.8344,-1.4613
111.6667,6.6320,1.0637,132.2950,12.3166,16.1993,-35.7822,866.2632,-133.9844,309.5459,1500,1500,1.0000,-0.7376,0.8979,9.5189,13.1418,0.9049,-1.0785,-0.6750,0.9474,9.4700,11.4914,0.2695,-0.8965
111.6856,6.7659,1.1306,132.2780,8.5609,15.0535,-60.6929,953.4140,-136.7293,335.3206,1500,1500,1.0000,-0.5102,1.0057,9.6554,9.3631,-0.4233,-0.9411,-0.4667,1.0240,9.2569,7.7586,-0.4557,-0.7438
111.7049,6.8589,1.1782,132.2657,5.1143,13.5626,-77.2669,1011.8530,-138.6582,352.6479,1500,1500,1.0000,-0.4096,1.1206,9.5500,6.2334,-0.6676,-0.7884,-0.3805,1.1389,9.4102,3.9952,0.1245,-0.4766
111.7245,6.8545,1.2590,132.2614,0.1143,11.5454,-102.7426,1084.7234,-138.6399,373.0425,1500,1500,1.0000,-0.4527,1.1517,9.7200,1.3097,0.5080,-0.6052,-0.3542,1.1748,9.4533,-1.0811,1.6817,-0.1560
111.7442,6.7845,1.3401,132.2609,-4.2598,9.1746,-120.3200,1127.2841,-137.3069,384.2930,1500,1500,1.0000,-0.4408,1.2211,9.5931,-3.3926,1.4851,-0.3915,-0.3590,1.2251,9.3719,-5.1269,1.3687,-0.0644
111.7634,6.6507,1.4327,132.2611,-7.6987,6.6436,-132.0236,1145.5901,-134.6974,388.1139,1500,1500,1.0000,-0.6251,1.2211,9.6673,-6.7590,0.4164,-0.2999,-0.4380,1.2059,9.5107,-8.6384,0.0405,0.1952
111.7822,6.4756,1.4500,132.2581,-11.4735,0.8913,-32.8471,839.8076,-131.2602,300.7762,1500,1500,1.0000,-0.4360,1.3385,9.7535,-10.3697,-1.0569,-0.4068,-0.4643,1.0958,9.5131,-12.5773,-1.5091,0.2181
111.8014,6.1905,1.4215,132.2510,-15.0117,0.0000,-0.0000,712.3951,-125.6204,262.2808,1500,1500,1.0000,-0.3570,1.1254,9.6961,-14.1941,-3.0264,-0.3686,-0.5026,1.1269,9.5251,-15.8292,-2.6618,0.2257
111.8211,5.8533,1.3691,132.2285,-17.9201,0.0000,-0.0000,673.5857,-118.9351,248.0716,1500,1500,1.0000,-0.2325,1.1302,9.7224,-17.2476,-3.0187,-0.1701,-0.0741,1.0982,9.4437,-18.5926,-2.2725,-1.4690
111.8404,5.4832,1.3334,132.2223,-19.8475,-2.1891,-68.6935,828.8200,-111.5868,287.8630,1500,1500,1.0000,-0.2971,1.0679,9.7847,-19.2705,-2.7516,-0.5365,-0.0669,0.9785,9.8627,-20.4246,-2.3565,0.3402
111.8593,5.0944,1.2544,132.2151,-20.6223,-6.8994,-128.2650,955.6387,-103.8617,319.5097,1500,1500,1.0000,-0.0649,0.9817,10.1510,-20.2476,-2.6218,-0.5442,-0.0669,0.9210,9.9991,-20.9971,-1.9900,0.1646
111.8785,4.6693,1.2082,132.2241,-21.1720,-9.0403,-111.6228,858.7866,-95.4065,288.1635,1500,1500,1.0000,-0.1750,0.7950,9.7847,-20.4918,-2.1103,1.3642,-0.3470,0.5978,9.4748,-21.8521,-1.7916,0.1265
111.8981,4.1914,1.1210,132.2174,-21.7521,-10.9471,-97.0226,761.7423,-85.8909,256.2333,1500,1500,1.0000,0.1195,0.6202,10.3090,-20.9956,-2.3241,-0.6129,-0.1914,0.5068,9.7525,-22.5086,0.4222,0.1188
111.9179,3.7193,1.1062,132.2282,-21.1720,-12.4808,-77.8062,652.0677,-76.4858,220.8219,1500,1500,1.0000,-0.1750,0.5029,10.2874,-21.1331,-0.7363,1.3642,-0.1603,0.4542,9.6975,-21.2109,-0.1503,0.1265
111.9372,3.2800,1.1218,132.2216,-20.4239,-13.6723,-61.5125,554.5967,-67.7341,189.1541,1500,1500,1.0000,-0.2636,0.4550,10.0121,-20.2934,-0.2248,-0.7503,-0.1842,0.4470,9.6616,-20.5544,0.1779,0.1188
111.9561,2.8998,1.0692,132.2139,-18.6033,-14.4119,-39.1993,446.5783,-60.1583,155.1211,1500,1500,1.0000,-0.0481,0.4191,9.5668,-18.7743,-1.0035,-0.7732,-0.3494,0.3608,9.9848,-18.4323,-1.3717,0.0883
111.9752,2.5519,1.0478,132.2051,-16.8208,-14.7733,-18.8964,348.0684,-53.2253,124.0718,1500,1500,1.0000,-0.2516,0.3832,9.8804,-16.8277,-2.1867,-0.6968,-0.2656,0.3512,10.1739,-16.8139,-1.7000,-0.0262
111.9949,2.2036,1.0262,132.1966,-15.0727,-14.8182,-2.2875,260.1581,-46.2819,95.9852,1500,1500,1.0000,-0.2325,0.2060,9.7176,-15.5682,-2.0722,-0.5900,-0.1722,0.0376,9.9872,-14.5773,-1.4939,-0.0491
112.0145,1.8718,0.9947,132.2147,-13.2636,-14.5850,11.8673,181.2088,-39.6642,70.5705,1500,1500,1.0000,-0.1846,0.0647,9.8852,-13.3163,-2.1332,-0.4678,-0.1962,0.0902,9.7837,-13.2109,-1.2801,2.2562
112.0342,1.5801,0.9826,132.2126,-12.1300,-14.2167,18.6827,128.0122,-33.8456,52.7662,1500,1500,1.0000,-0.1630,0.0911,10.0504,-12.3621,-0.8966,-0.3075,-0.1603,0.1166,9.8842,-11.8979,-0.1656,0.1875
112.0533,1.3395,0.9549,132.2201,-10.0078,-13.5854,33.1295,48.9385,-29.0482,28.2269,1500,1500,1.0000,-0.0792,0.0432,9.9451,-10.1102,-0.6981,0.1047,-0.1028,0.1573,9.9896,-9.9055,-0.1656,0.7295
112.0723,1.1458,0.9242,132.2348,-8.5422,-12.8289,39.7882,14.3814,-25.1853,16.6194,1500,1500,1.0000,-0.0912,0.0887,9.8421,-8.4842,-0.6294,0.2803,0.0863,0.0591,9.8675,-8.6002,-0.7687,1.2333
112.0918,0.9702,0.8596,132.2574,-7.2674,-11.9947,42.7564,-9.5823,-21.6827,8.1583,1500,1500,1.0000,-0.0050,0.0384,9.8685,-8.0949,-1.6065,0.7077,-0.0046,-0.0151,9.7166,-6.4399,-1.4099,1.6226
112.1114,0.7599,0.7898,132.2962,-9.1223,-11.5638,21.9481,20.1890,-15.2050,13.2554,1500,1500,1.0000,0.0022,0.0336,9.9092,-8.8201,-1.8813,1.5245,0.1606,-0.1133,9.9058,-9.4246,-1.6313,2.4242
112.1311,0.5311,0.6759,132.3470,-9.5346,-11.2594,15.5044,13.7182,-10.6276,9.1549,1500,1500,1.0000,0.3230,-0.0526,9.9092,-9.2399,-2.0416,2.1734,0.3928,-0.0031,9.8818,-9.8292,0.7733,2.9585
112.1501,0.3019,0.5781,132.4096,-10.4239,-11.1341,6.5826,13.1525,-6.0413,6.7034,1500,1500,1.0000,0.2488,-0.0478,10.1222,-9.8735,-1.2859,2.8223,0.1965,0.0543,10.1212,-10.9742,-0.6923,3.6913
112.1688,0.0707,0.5142,132.4789,-11.5002,-11.1890,-2.9298,13.8150,-1.4155,4.5760,1500,1500,1.0000,0.2081,-0.0191,10.0696,-11.1483,-0.6600,3.2955,0.0792,-0.0438,10.1380,-11.8521,0.6741,4.0272
112.1882,-0.1892,0.4802,132.5654,-12.1796,-11.3376,-7.6628,0.2523,3.7850,-1.8219,1500,1500,1.0000,0.1985,-0.0957,10.1031,-11.8735,0.9584,3.9215,0.1701,-0.1109,9.7238,-12.4857,1.9642,4.9051
112.2079,-0.4408,0.4953,132.6667,-12.4582,-11.5057,-8.5413,-26.1259,8.8208,-11.7257,1500,1500,1.0000,0.0046,-0.0645,9.8421,-12.4537,1.3782,4.5856,0.1917,-0.0989,9.7382,-12.4628,2.1321,5.6303
112.2276,-0.7049,0.5122,132.7742,-12.6720,-11.6806,-8.9034,-55.4683,14.1047,-22.5835,1500,1500,1.0000,0.0429,-0.1460,9.8804,-12.5834,1.8439,5.1963,-0.0501,-0.1588,9.6400,-12.7605,2.6283,5.7600
112.2467,-0.9243,0.5431,132.8896,-12.4697,-11.7990,-6.1985,-88.5116,18.4961,-34.0313,1500,1500,1.0000,-0.0936,-0.0382,9.5788,-12.4231,1.6912,5.6390,-0.1196,-0.1851,9.5562,-12.5162,1.2390,6.4089
112.2654,-1.1443,0.5772,133.0107,-12.4849,-11.9019,-5.5012,-115.8315,22.8976,-43.8816,1500,1500,1.0000,-0.2468,-0.0957,9.6027,-12.3163,-0.1561,6.1658,-0.2321,-0.2473,9.6592,-12.6536,-0.1274,6.7295
112.2847,-0.5579,0.8371,133.1417,-9.6185,-11.5594,17.6691,-115.0894,11.1760,-37.8130,1500,1500,1.0000,-1.2285,2.9210,8.3697,3.8669,1.7675,7.3566,-0.0477,5.2090,6.8244,-23.1040,-3.9290,5.4318
112.3045,-2.3292,0.3051,133.2826,-1.2369,-10.0110,78.3891,-493.7774,46.6064,-161.5609,1500,1500,1.0000,1.3357,-4.8027,4.2588,-14.5605,0.7904,11.3871,-0.8642,-0.1564,12.5274,12.0868,-2.4862,6.0501
112.3241,-2.9818,-0.1116,133.4316,-14.7483,-10.7216,-36.2008,-238.8554,59.6882,-96.7236,1500,1500,1.0000,2.2144,-2.4420,11.4702,-24.6292,0.3858,6.9215,0.2156,-2.0621,8.4740,-4.8674,-0.3259,8.3555
112.3434,-2.6347,0.0618,133.5568,-16.1758,-11.5397,-42.5072,-180.7517,52.7727,-76.9968,1500,1500,1.0000,-0.6395,1.8077,6.6866,-6.8888,-4.8966,4.5780,-0.1627,-1.0350,13.2098,-25.4628,0.2084,7.9967
112.3622,-2.6713,0.0406,133.6895,-1.6872,-10.0619,78.4521,-533.3361,53.5332,-176.1007,1500,1500,1.0000,-0.1008,-0.4811,9.2077,-2.5300,-2.5760,6.4100,0.1127,1.1581,11.2441,-0.8445,-2.4939,7.3555
112.3815,-2.6257,0.1507,133.8232,-0.9086,-8.6889,71.3579,-507.6492,52.6460,-168.4647,1500,1500,1.0000,-0.5006,-0.2561,11.3553,-4.4384,1.3935,7.1123,0.2803,0.1812,9.8675,2.6212,-0.0358,6.8898
112.4010,-2.5216,0.2026,133.9574,0.5380,-7.3048,70.6671,-493.6812,50.5893,-163.5254,1500,1500,1.0000,-0.1750,-0.0382,10.7974,2.5845,1.6835,7.3490,0.0241,0.5954,8.0670,-1.5086,0.1626,6.5310
112.4208,-2.4665,0.3679,134.1079,-0.9315,-6.3488,48.4212,-423.2746,49.5124,-143.2731,1500,1500,1.0000,-0.7329,-0.1148,10.3832,-0.1254,-1.3546,7.7383,0.5700,-0.0845,8.3543,-1.7376,2.2924,7.5768
112.4400,-2.3323,0.4610,134.2551,-3.4888,-5.9074,22.2851,-332.5585,46.8514,-116.2157,1500,1500,0.9972,-0.3234,0.5172,9.9355,-0.8582,1.8057,7.7383,-0.4667,-0.1157,8.7446,-6.1193,1.2161,7.6150
112.4587,-2.2636,0.4478,134.3992,0.5189,-3.5673,37.1942,-367.5913,45.5001,-87.1076,1500,1500,0.6931,-0.0146,-0.1196,9.1071,1.1189,-0.9424,7.5551,0.5508,-0.1085,10.5594,-0.0811,0.4680,7.7829
112.4779,-2.1838,0.3617,134.5484,-1.7750,-2.1875,12.1228,-286.2094,43.9271,-64.9710,1500,1500,0.6363,0.3086,0.1102,10.0624,-2.3392,-1.8661,7.4711,-0.2728,0.2291,10.4253,-1.2109,0.5672,7.9051
112.4976,-2.1644,0.2638,134.7063,-0.0727,-0.6942,6.1141,-266.6663,43.5597,-60.0078,1500,1500,0.6222,0.4499,-0.3135,10.0289,-0.5605,-0.4615,7.9749,-0.0741,0.4446,9.7765,0.4151,1.1779,8.1188
112.5172,-2.0825,0.1779,134.8798,-1.3552,-0.2071,1.1309,-242.8956,41.9435,-49.9876,1500,1500,0.5618,0.3086,0.0959,9.7344,-2.3621,-0.2325,8.6467,-0.1986,-0.1923,9.1444,-0.3483,-1.0282,8.9509
112.5366,-2.0281,0.2237,135.0503,-0.1681,0.0000,0.0000,-233.3750,40.8751,-44.6995,1500,1500,0.5211,-0.1104,-0.0933,9.6147,1.4089,0.4393,8.8604,0.0480,0.1597,10.0351,-1.7452,1.6588,8.7753
112.5554,-2.0346,0.1934,135.2189,-0.5956,0.0000,0.0000,-234.1243,41.0257,-45.2680,1500,1500,0.5260,0.0740,-0.3207,9.4734,-0.8888,-0.3470,8.7230,0.1294,-0.2809,10.0207,-0.3025,-0.7610,9.1265
112.5746,-2.0308,0.1449,135.3914,-3.0956,0.0000,-0.0000,-233.6788,40.9686,-44.9382,1500,1500,0.5231,0.0405,-0.0669,9.3489,-3.2934,-2.3546,8.7688,0.1294,-0.0462,9.8100,-2.8979,-1.6084,9.0883
112.5942,-2.0544,0.0581,135.5810,-0.3590,0.0000,0.0000,-236.3966,41.4615,-47.0020,1500,1500,0.5407,0.2607,-0.4428,10.0624,-0.5987,-1.7974,9.3871,0.2372,-0.0319,9.7525,-0.1193,-1.2801,9.8287
112.6138,-1.9709,0.0470,135.7748,-0.0689,0.0000,0.0000,-226.7870,39.8110,-39.8808,1500,1500,0.4782,0.0620,0.0121,10.0720,-1.2323,0.2332,9.6925,-0.1746,-0.1252,9.3288,1.0945,-0.4710,10.0119
112.6333,-1.8553,0.0349,135.9629,2.5761,0.0000,0.0000,-213.4863,37.5178,-30.8026,1500,1500,0.3922,0.0644,-0.0478,9.7655,3.1570,-0.3699,9.7765,0.1175,0.1477,9.5993,1.9952,0.1397,9.6226
112.6520,-1.7365,0.0325,136.1492,3.4883,0.0000,0.0000,-199.8215,35.1602,-22.5713,1500,1500,0.3070,0.0070,-0.0765,9.9762,3.4318,0.3782,9.7994,0.2492,-0.0558,9.7454,3.5448,-0.7610,10.0425
112.6711,-1.6306,0.0101,136.3210,2.5112,0.0000,0.0000,-187.6291,33.0574,-16.2670,1500,1500,0.2355,-0.0146,-0.0382,9.9810,2.7677,-1.8661,9.8452,-0.1339,0.1262,9.5778,2.2548,-1.3335,8.2486
112.6906,-1.3113,-0.0151,136.4694,11.4654,0.0000,0.0000,-150.8956,26.6860,-3.6223,1500,1500,0.0652,-0.0218,0.0049,9.9714,7.3937,-1.7516,11.2955,-0.9168,5.2809,9.6639,15.5372,-2.0816,4.4165
112.7103,-1.2870,-0.1197,136.6637,1.7021,0.0000,0.0000,-148.0999,26.2130,-3.0499,1500,1500,0.0559,0.6941,-0.2513,9.4567,-6.8124,0.7217,8.4558,-0.2225,-1.6527,9.6951,10.2166,4.4298,11.3020
112.7299,-0.9909,-0.0238,136.8335,-0.6491,0.0000,-0.0000,-114.0240,20.3002,-0.0000,1500,1500,0.0000,-0.4767,1.2259,10.3665,-3.8811,-0.3165,7.7001,0.5843,-0.4245,9.6520,2.5830,-0.7534,9.6455
112.7488,-0.6041,-0.0745,136.9976,2.9540,0.0000,0.0000,-57.9302,12.0886,-0.0000,1500,1500,0.0000,0.3374,1.3504,9.6937,8.0731,-0.0798,8.6238,-0.9575,0.6553,10.3918,-2.1651,1.6435,8.8440
112.7677,-0.4443,0.0555,137.1779,7.5189,0.0000,0.0000,-42.6010,8.8897,-0.0000,1500,1500,0.0000,-0.5724,-0.0238,8.8246,7.0731,-1.5378,9.6390,0.2946,0.2626,10.5666,7.9647,0.3611,9.4852
112.7862,-0.3183,-0.0854,137.3563,3.8319,0.0000,0.0000,-30.5200,6.3688,-0.0000,1500,1500,0.0000,0.4475,0.1797,9.2555,2.2563,-1.3546,9.4100,-0.4212,-0.3958,10.4828,5.4074,-3.1198,9.8745
112.8047,-0.1510,-0.0524,137.5283,3.9769,0.0000,0.0000,-14.4826,3.0221,-0.0000,1500,1500,0.0000,-0.0768,0.4047,10.4718,4.4853,-0.8279,9.0436,-0.0310,0.4230,10.0734,3.4685,2.3229,9.5768
112.8232,0.0783,-0.0774,137.6979,4.3891,0.0058,0.0238,7.4488,-1.5663,0.0000,1500,1500,0.0000,0.3086,0.6753,9.8613,4.9967,1.9278,8.9444,-0.5361,0.1956,9.9584,3.7815,1.8878,9.4471
112.8417,0.1387,0.0063,137.8702,1.6830,0.0000,-0.0000,13.2974,-2.7748,0.0000,1500,1500,0.0000,-0.3043,0.1533,10.2180,1.4547,0.4698,9.2650,-0.4500,0.3153,9.6376,1.9113,1.4374,9.4242
112.8602,0.1620,0.0625,138.0432,0.9349,0.0000,-0.0000,15.5354,-3.2419,0.0000,1500,1500,0.0000,-0.2492,0.0480,9.7128,-0.1178,0.0729,9.6009,-0.1387,0.2459,9.9153,1.9876,0.2542,9.1035
112.8787,0.2405,0.1396,138.2174,1.2555,0.0000,-0.0000,23.0574,-4.8115,0.0000,1500,1500,0.0000,-0.4432,0.2802,9.6865,1.4013,-0.8508,9.3108,-0.1100,0.2052,9.8866,1.1097,-0.8297,9.5158
112.8972,0.3165,0.1368,138.3876,2.5418,0.0000,0.0000,30.3478,-6.3328,0.0000,1500,1500,0.0000,-0.0936,0.1725,9.6745,2.4624,-0.4539,9.0207,-0.0765,0.1046,9.7118,2.6212,-1.4328,9.3784
112.9156,0.4018,0.1345,138.5660,3.6944,0.0000,0.0000,38.5294,-8.0401,0.0000,1500,1500,0.0000,-0.1463,0.1318,9.7176,4.1189,-2.1256,9.5245,-0.1507,0.0735,9.9106,3.2700,-0.9061,9.8364
112.9341,0.4441,0.1663,138.7507,3.7441,0.0000,0.0000,42.5864,-8.8867,0.0000,1500,1500,0.0000,-0.2181,-0.0598,10.1438,3.7982,-0.7058,10.1429,-0.0789,-0.0343,9.9010,3.6899,-0.0129,9.9203
112.9526,0.4896,0.1783,138.9361,3.0456,0.0000,0.0000,46.9508,-9.7974,0.0000,1500,1500,0.0000,-0.0960,0.0264,9.9570,3.1647,-0.2630,9.9902,-0.2057,-0.1037,9.9297,2.9265,0.1245,10.0654
112.9710,0.5026,0.2221,139.1214,3.4464,0.0000,0.0000,48.1979,-10.0577,0.0000,1500,1500,0.0000,-0.1942,-0.1651,10.4072,3.9891,0.2942,9.9978,-0.2010,-0.0965,9.8794,2.9036,1.0710,10.1188
112.9895,0.5100,0.2572,139.3131,3.1486,0.0000,0.0000,48.9025,-10.2047,0.0000,1500,1500,0.0000,-0.0768,-0.1555,10.0672,3.0502,1.1721,10.2574,-0.1387,-0.2258,9.8507,3.2471,1.9336,10.5310
113.0079,0.5151,0.3194,139.5121,2.9616,0.0000,0.0000,49.3899,-10.3064,0.0000,1500,1500,0.0000,-0.2253,-0.1531,10.0073,3.2486,1.3858,10.7230,-0.1674,-0.0223,9.6209,2.6746,1.4451,10.8593
113.0263,0.5409,0.3633,139.7177,3.8357,0.0063,0.0148,51.8307,-10.8232,0.0000,1500,1500,0.0000,-0.2133,-0.1268,9.8421,3.5769,0.5919,11.1123,-0.3302,-0.0893,9.9297,4.0945,0.6359,11.2562
113.0448,0.5472,0.4048,139.9253,3.1563,0.0083,0.0017,52.4707,-10.9502,0.0000,1500,1500,0.0000,-0.1894,-0.1603,9.9954,3.3097,0.6912,11.2192,-0.3757,-0.0247,9.9536,3.0029,1.0481,11.3249
113.0633,0.5500,0.4748,140.1378,3.1486,0.0099,0.0015,52.7347,-11.0052,0.0000,1500,1500,0.0000,-0.4120,-0.1747,10.0073,3.5005,0.1034,11.4406,-0.3111,-0.1588,9.6711,2.7968,-0.0969,11.5387
113.0818,0.5479,0.5223,140.3539,2.2593,0.0000,-0.0000,52.5353,-10.9628,0.0000,1500,1500,0.0000,-0.3498,-0.1196,10.0815,2.4776,-0.8661,11.5856,-0.3015,-0.1995,9.9489,2.0410,0.2008,11.8364
113.1002,0.5174,0.5857,140.5750,1.2402,0.0000,-0.0000,49.6119,-10.3528,0.0000,1500,1500,0.0000,-0.3450,-0.1723,10.1701,1.3326,0.1950,11.9749,-0.2680,-0.0845,10.0590,1.1479,1.2771,12.1112
113.1187,0.4949,0.6461,140.8007,0.7517,0.0000,-0.0000,47.4560,-9.9029,0.0000,1500,1500,0.0000,-0.3665,-0.0933,9.8302,0.6456,0.3095,12.1505,-0.4763,-0.0199,9.8387,0.8578,0.2084,12.3784
113.1372,0.4948,0.7027,141.0265,1.5456,0.0000,-0.0000,47.4452,-9.9006,0.0000,1500,1500,0.0000,-0.2947,-0.0622,9.8924,1.4013,0.2484,12.3413,-0.2991,0.0017,10.1883,1.6899,1.8649,12.1188
113.1556,0.5343,0.7853,141.2561,1.8509,0.0000,-0.0000,51.2370,-10.6919,0.0000,1500,1500,0.0000,-0.3234,0.1007,9.9403,1.5769,2.0042,12.5093,-0.2417,-0.0367,9.7980,2.1250,2.5748,12.3784
113.1741,0.5594,0.8393,141.4897,2.1105,0.0000,-0.0000,53.6415,-11.1936,0.0000,1500,1500,0.0000,-0.2205,0.0121,9.7057,1.9891,1.9202,12.5551,-0.3877,-0.0103,9.7549,2.2319,2.0176,12.7219
113.1926,0.5772,0.9130,141.7260,2.9006,0.0000,0.0000,55.3505,-11.5503,0.0000,1500,1500,0.0000,-0.4479,-0.0885,9.8709,2.7830,0.6225,12.8070,-0.3757,-0.0343,9.8794,3.0181,0.6054,12.8211
113.2111,0.5923,1.0069,141.9635,1.4196,0.0000,-0.0000,56.8003,-11.8528,0.0000,1500,1500,0.0000,-0.4982,0.0312,9.8996,1.8669,-0.0416,12.8223,-0.4380,-0.1037,10.0039,0.9723,2.6435,12.8669
113.2295,0.6316,1.0548,142.2053,0.9082,0.0000,-0.0000,60.5618,-12.6377,0.0000,1500,1500,0.0000,-0.4240,0.1844,9.8278,1.0120,-0.0569,13.0742,-0.4284,0.2530,9.5873,0.8044,-0.3488,13.1265
113.2479,0.6858,1.1096,142.4451,0.9960,0.0000,-0.0000,65.7617,-13.7228,0.0000,1500,1500,0.0000,-0.4719,0.2491,9.6602,1.0578,-0.7516,12.9139,-0.4380,0.3129,9.6783,0.9342,0.0710,13.0806
113.2664,0.7436,1.1721,142.6880,1.2059,0.0000,-0.0000,71.3052,-14.8796,0.0000,1500,1500,0.0000,-0.3929,0.2635,9.9020,1.1036,0.7523,12.9749,-0.3709,0.2219,9.8411,1.3082,1.7123,13.2257
113.2849,0.7802,1.1940,142.9297,0.5532,0.0000,-0.0000,74.8101,-15.6110,0.0000,1500,1500,0.0000,-0.2444,0.2252,9.8206,0.7906,0.8515,13.0742,-0.2895,0.2770,9.6376,0.3158,0.8268,13.0577
113.3033,0.8539,1.2046,143.1731,0.1143,0.0000,-0.0000,98.2591,-17.0868,0.0000,1500,1500,0.0000,-0.2995,0.4430,9.8158,0.3326,-0.5378,13.0742,-0.4164,0.4829,9.8962,-0.1040,-0.2038,13.2410
113.3217,0.9038,1.2232,143.4155,-0.6834,0.0000,-0.0000,104.0046,-18.0859,0.0000,1500,1500,0.0000,-0.3570,0.4191,9.9594,-0.4613,-0.7592,12.9139,-0.2034,0.4158,9.7669,-0.9055,-0.1274,13.2791
113.3402,0.9054,1.2099,143.6549,-2.2827,0.0000,-0.0000,104.1824,-18.1168,0.0000,1500,1500,0.0000,-0.2109,0.3353,9.9020,-1.7743,-0.9271,12.8757,-0.1914,0.3560,9.8675,-2.7910,-0.0511,12.9661
113.3587,0.8931,1.1920,143.8941,-4.4964,0.0000,-0.0000,102.7646,-17.8703,0.0000,1500,1500,0.0000,-0.0840,0.4574,9.8637,-4.1941,0.2103,12.8757,0.0217,0.6433,9.6185,-4.7987,1.2237,12.9127
113.3772,0.8590,1.1230,144.1348,-7.0651,0.0000,-0.0000,98.8396,-17.1878,0.0000,1500,1500,0.0000,0.1722,0.5867,9.9714,-6.4537,0.5538,12.6619,0.1223,0.5427,9.8579,-7.6765,1.1092,13.1188
113.3956,0.8078,1.0781,144.3724,-7.7903,0.0000,-0.0000,92.9556,-16.1646,0.0000,1500,1500,0.0000,0.0453,0.5627,9.9786,-7.4155,0.1797,12.7306,0.0720,0.6218,10.0566,-8.1651,0.8802,12.9051
113.4140,0.7352,1.0447,144.6112,-8.7254,-0.0400,-0.6636,72.0956,-14.7122,0.0000,1500,1500,0.0000,-0.0912,0.5412,10.0768,-8.7056,-0.7745,12.8375,-0.1243,0.5475,9.8866,-8.7452,-0.2496,12.9814
113.4325,0.6693,1.0528,144.8472,-8.8056,-1.1185,-12.5963,94.4132,-13.3931,0.0000,1500,1500,0.0000,-0.2037,0.5675,9.9547,-8.8506,-0.4386,12.6467,-0.1842,0.3584,10.0135,-8.7605,1.2008,12.7066
113.4513,0.5652,1.0669,145.0849,-9.7559,-3.3972,-31.6342,130.1181,-11.3093,2.0184,1500,1500,0.0480,-0.1463,0.4454,9.6386,-9.4689,1.5003,12.4635,0.1270,0.5380,10.1045,-10.0429,1.1321,12.6608
113.4699,0.5107,1.0967,145.3163,-10.5727,-5.6335,-44.8661,156.6515,-10.2194,46.9579,1500,1500,0.9589,-0.1104,0.7064,9.3944,-10.6445,2.1874,12.0742,0.1582,0.4925,9.7190,-10.5010,2.9947,12.5234
113.4884,0.3559,1.1004,145.5350,-9.4659,-6.3058,-30.0885,106.3428,-7.1222,33.3371,1500,1500,1.0000,-0.0553,0.1701,9.8876,-9.8277,2.0958,11.6467,-0.1243,-0.0774,9.8818,-9.1040,1.5672,11.9051
113.5068,0.2684,1.0629,145.7510,-7.9468,-6.5520,-13.3608,57.8041,-5.3709,18.8706,1500,1500,1.0000,0.0022,0.3209,9.9523,-8.1865,0.1797,11.6772,-0.2417,0.3009,9.7693,-7.7071,0.2313,11.6684
113.5254,0.2338,1.0449,145.9653,-6.0536,-6.4772,4.0342,12.7382,-4.6786,5.9060,1500,1500,1.0000,-0.2420,0.3880,9.6458,-6.6216,-1.4997,11.3719,-0.1842,0.1166,9.4940,-5.4857,-1.8297,11.6455
113.5440,0.1882,0.9565,146.1764,-5.3552,-6.3089,9.0217,-3.6056,-3.7658,0.8733,1500,1500,1.0000,0.1410,0.2611,9.5931,-4.3773,-1.8737,11.1429,0.0385,0.2602,9.9704,-6.3330,0.1092,11.4318
113.5627,0.1468,0.8586,146.3869,-3.7292,-5.9102,20.7230,-35.6562,-2.9379,-8.4923,1500,1500,0.9974,0.3517,0.1461,9.6745,-3.8201,0.5156,11.2421,0.3545,0.0639,9.6783,-3.6384,1.2466,11.3097
113.5812,0.1553,0.8033,146.5921,-2.7292,-4.9499,23.5416,-41.6077,-3.1076,-7.2513,1500,1500,0.7182,0.1745,0.2850,9.6745,-2.9040,0.7675,11.0436,0.3162,0.1118,9.8148,-2.5544,0.9642,11.0501
113.5997,0.1619,0.7495,146.7930,-1.6414,-3.3260,20.9933,-34.8635,-3.2387,-0.2676,1500,1500,0.0329,0.1913,0.1892,9.9547,-1.7743,0.3477,10.7765,-0.0286,0.1477,10.0255,-1.5086,1.4985,10.8593
113.6182,0.1768,0.7752,146.9911,-0.6223,-1.5628,12.7265,-13.5876,-3.5383,-0.0000,1500,1500,0.0000,-0.1511,0.1414,9.8302,-0.7743,1.0271,10.7535,-0.1866,0.0400,9.7765,-0.4704,1.2848,10.6303
113.6367,0.2269,0.7762,147.1861,0.7059,-0.2531,2.9090,14.7774,-4.5406,0.0000,1500,1500,0.0000,-0.0697,0.1868,9.5788,-0.0033,0.5996,10.4406,0.0792,0.3368,9.6999,1.4151,1.1168,10.6684
113.6552,0.2762,0.7591,147.3861,-0.4620,-0.0015,0.0125,26.4554,-5.5268,0.0000,1500,1500,0.0000,0.0716,0.2898,9.8038,-0.5376,1.3782,10.6772,-0.0262,0.4709,9.4293,-0.3865,1.6206,10.7753
113.6737,0.3278,0.7463,147.5797,-0.5613,0.0000,0.0000,31.4365,-6.5600,0.0000,1500,1500,0.0000,0.0022,0.3233,9.8972,-0.5834,0.6988,10.3413,-0.2967,0.4446,9.8244,-0.5391,0.9794,10.5081
113.6922,0.3653,0.7957,147.7723,-0.8475,0.0000,0.0000,35.0274,-7.3093,0.0000,1500,1500,0.0000,-0.3761,0.2874,9.8900,-0.5376,-0.0416,10.3032,-0.4835,0.4925,9.6544,-1.1574,-0.2648,10.5539
113.7106,0.3858,0.8338,147.9660,-2.0689,0.0000,0.0000,36.9989,-7.7207,0.0000,1500,1500,0.0000,-0.3737,0.3185,9.7871,-1.4613,-1.0416,10.3795,-0.4284,0.3081,9.6328,-2.6765,-0.2419,10.5310
113.7291,0.3682,0.8697,148.1611,-3.5269,0.0000,-0.0000,35.3077,-7.3678,0.0000,1500,1500,0.0000,-0.3234,0.2635,9.5812,-3.2628,-0.4615,10.3871,-0.2752,0.3488,9.5323,-3.7910,0.1550,10.6761
113.7476,0.3460,0.8842,148.3566,-4.4162,0.0000,-0.0000,33.1770,-6.9232,0.0000,1500,1500,0.0000,-0.1798,0.3209,9.7081,-4.2170,0.1645,10.3261,-0.1315,0.2554,9.5754,-4.6155,0.8420,10.8058
113.7661,0.3351,0.9152,148.5558,-5.0994,-0.0231,-0.1358,32.4596,-6.7055,0.0000,1500,1500,0.0000,-0.2157,0.4334,9.8565,-4.9117,0.7752,10.5016,-0.3302,0.3799,9.6759,-5.2872,1.1932,10.8593
113.7846,0.3035,0.9561,148.7513,-5.9315,-0.3351,-2.1196,34.1896,-6.0730,0.0000,1500,1500,0.0000,-0.3594,0.3975,9.7152,-5.5605,-0.3317,10.3566,-0.3805,0.4135,9.5945,-6.3025,0.0939,10.7142
113.8031,0.2542,1.0102,148.9453,-6.8170,-1.1523,-7.5008,42.3792,-5.0869,0.0000,1500,1500,0.0000,-0.4767,0.3808,9.5405,-6.6827,-0.9958,10.3719,-0.4452,0.3680,9.5706,-6.9513,-0.5931,10.5387
113.8216,0.1752,1.0558,149.1410,-7.1262,-2.2938,-12.6076,47.0568,-3.5054,0.0000,1500,1500,0.0000,-0.4527,0.2706,9.7296,-7.0796,-1.2096,10.3108,-0.4021,0.2483,9.6639,-7.1727,-0.3030,10.7371
113.8401,0.0803,1.0626,149.3336,-6.9697,-3.3591,-13.7272,40.6453,-1.6068,0.4820,1500,1500,0.0396,-0.2516,0.1653,9.7081,-6.8964,-0.7210,10.2803,-0.1148,0.2530,9.5107,-7.0429,-0.0893,10.5845
113.8585,0.0037,1.0638,149.5266,-6.9277,-4.2607,-13.6369,33.0801,-0.0734,3.5466,1500,1500,0.3814,-0.2756,0.2323,9.7511,-6.8811,-1.0798,10.1734,-0.3111,0.2554,9.6376,-6.9742,-0.9900,10.6990
113.8771,-0.0618,1.0950,149.7189,-5.4239,-4.3606,-1.5734,-2.1545,1.2376,-0.5261,1500,1500,0.4305,-0.4479,0.1485,9.7224,-6.4155,-1.9271,10.0894,-0.6487,0.2578,9.7477,-4.4323,-1.0435,10.5997
113.8956,-0.0768,1.1410,149.9119,-5.6720,-4.5482,-3.1157,0.1085,1.5378,-0.3871,1500,1500,0.5241,-0.5940,0.3951,9.8493,-5.8811,-1.5302,10.1887,-0.5505,0.2530,9.8196,-5.4628,-3.0511,10.5768
113.9140,-0.1166,1.1686,150.1016,-3.9010,-3.9508,8.7944,-32.2875,2.3332,-2.4260,1500,1500,0.2377,-0.4503,0.1198,9.7631,-4.1941,-1.7210,10.0818,-0.4763,0.1453,9.6735,-3.6078,-1.2877,10.4547
113.9325,-0.1172,1.1640,150.2931,-2.1567,-2.6574,13.5570,-43.7737,2.3448,-0.0000,1500,1500,0.0000,-0.2660,0.1414,9.7057,-2.4766,-1.5455,10.2345,-0.2704,0.3249,9.8842,-1.8368,-0.5091,10.3707
113.9510,-0.0630,1.1657,150.4850,-0.2292,-1.0014,9.0197,-27.6901,1.2610,-0.0000,1500,1500,0.0000,-0.2277,0.2443,10.0385,-0.5453,-0.6905,10.2650,-0.2800,0.0663,10.1763,0.0868,0.3611,10.4165
113.9695,-0.0128,1.1944,150.6769,1.3815,-0.0322,0.4413,-2.2842,0.2557,-0.0000,1500,1500,0.0000,-0.3450,0.0887,9.9379,1.0502,-0.2401,10.4100,-0.4476,0.1262,9.9345,1.7128,0.0176,10.3326
113.9880,0.0611,1.2670,150.8699,1.9540,0.0000,0.0000,5.8545,-1.2217,0.0000,1500,1500,0.0000,-0.5461,0.1581,9.9954,1.8593,-0.3317,10.3490,-0.4021,0.1046,9.9560,2.0487,0.5825,10.4547
114.0064,0.1412,1.3133,151.0591,2.1792,0.0000,0.0000,13.5374,-2.8249,0.0000,1500,1500,0.0000,-0.3474,0.1773,9.8254,2.0578,0.6988,10.2116,-0.2153,0.1645,9.8603,2.3006,1.4374,10.1723
114.0259,0.2319,1.3413,151.2595,2.1944,0.0000,0.0000,22.2402,-4.6410,0.0000,1500,1500,0.0000,-0.2732,0.2156,9.9020,2.9280,0.7370,10.2574,-0.0932,0.0447,9.7525,1.4609,1.2542,10.2562
114.0446,0.3373,1.3318,151.4544,4.0799,0.0000,0.0000,32.3437,-6.7493,0.0000,1500,1500,0.0000,-0.0864,0.1557,9.9020,3.8517,0.8973,10.3642,-0.0956,0.1142,9.7789,4.3082,1.5977,10.3860
114.0631,0.4266,1.3729,151.6485,4.6906,0.0000,0.0000,40.9101,-8.5369,0.0000,1500,1500,0.0000,-0.2588,0.0480,9.7488,4.6150,1.6606,10.3337,-0.3231,0.0783,9.5682,4.7662,2.1626,10.6379
114.0816,0.5466,1.4332,151.8464,5.1639,0.0000,0.0000,52.4093,-10.9365,0.0000,1500,1500,0.0000,-0.3282,0.1629,9.7176,5.1799,2.0118,10.6619,-0.3614,0.1980,9.6879,5.1479,2.4680,10.7066
114.1001,0.6247,1.4752,152.0354,3.0647,0.0000,0.0000,59.9042,-12.5005,0.0000,1500,1500,0.0000,-0.2085,0.2228,9.4710,1.4318,1.7294,8.1505,0.3425,-2.2393,10.4660,4.6975,4.2084,12.6379
114.1187,0.8683,1.4075,152.2512,0.2021,0.0000,-0.0000,99.9094,-17.3738,0.0000,1500,1500,0.0000,0.0644,0.8452,7.1439,3.9815,-0.1867,12.0360,-0.0334,1.1724,12.0174,-3.5773,1.1855,10.3631
114.1372,0.8710,1.3179,152.4709,5.5647,0.0000,0.0000,100.2204,-17.4279,0.0000,1500,1500,0.0000,0.2512,-0.3686,10.0097,6.3479,1.2255,12.5016,-1.0006,0.3847,9.3838,4.7815,0.1168,11.4089
114.1556,0.9222,1.4314,152.6849,3.8929,0.0000,0.0000,106.1111,-18.4522,0.0000,1500,1500,0.0000,-0.8167,0.0480,9.0305,1.6837,-2.9806,11.3871,-0.3566,-0.5323,10.5259,6.1021,0.7504,11.9890
114.1742,1.0564,1.5473,152.8964,3.6372,0.0000,0.0000,121.5612,-21.1389,0.1045,1500,1500,0.0023,-0.8957,0.4837,10.5221,4.0273,-0.2783,11.1887,-0.2871,-0.0247,9.6304,3.2471,-0.3259,11.4700
114.1927,1.0958,1.5300,153.1075,2.9273,0.0000,0.0000,126.0966,-21.9382,0.3086,1500,1500,0.0067,-0.2875,0.0815,9.4447,3.9738,-2.7210,11.4100,-0.4787,0.0136,9.8100,1.8807,0.5138,11.4929
114.2112,1.0697,1.5407,153.3183,0.8166,0.0000,-0.0000,123.0857,-21.4256,0.1606,1500,1500,0.0036,-0.2325,-0.0406,10.3401,1.6456,1.4393,11.4940,-0.1938,0.0735,9.3503,-0.0124,1.1016,11.4242
114.2297,1.0157,1.4533,153.5276,2.5151,0.0000,0.0000,116.8812,-20.3573,0.0079,1500,1500,0.0002,0.1961,-0.3016,9.6027,2.0120,0.7141,11.2574,-0.4164,-0.0510,10.4684,3.0181,0.8649,11.6226
114.2484,1.0664,1.5418,153.7396,3.6601,0.0000,0.0000,122.7045,-21.3801,0.1455,1500,1500,0.0032,-0.6084,0.0839,10.2300,2.3784,0.3782,11.3795,-0.5960,-0.0534,9.6280,4.9418,1.8420,11.3631
114.2668,1.1555,1.6159,153.9515,5.6525,0.0000,0.0000,132.9587,-23.1739,0.8390,1500,1500,0.0172,-0.5748,0.0815,9.5309,5.8669,-0.8890,11.5322,-0.5266,0.0304,10.0327,5.4380,2.0329,11.4471
114.2854,1.2481,1.6604,154.1623,6.9196,0.3153,2.8491,135.4153,-25.0395,2.1362,1500,1500,0.0424,-0.2899,0.0097,9.7081,6.9127,1.8973,11.3719,-0.2081,-0.1803,9.7454,6.9265,3.1397,11.4165
114.3039,1.3332,1.7249,154.3699,7.0380,1.1926,8.2672,129.5968,-26.7537,3.6753,1500,1500,0.0740,-0.3905,-0.0238,9.7272,7.1952,2.3095,11.3337,0.0049,-0.0893,9.7956,6.8807,2.8344,11.1112
114.3223,1.3777,1.7166,154.5737,6.4235,2.0505,8.8506,133.0394,-27.6578,4.7767,1500,1500,0.0935,-0.2085,-0.1388,10.0768,6.7448,1.0881,10.6925,-0.1603,-0.6759,9.6089,6.1021,0.6665,11.7295
114.3409,1.5410,1.8370,154.7765,10.3471,4.6089,41.5153,57.7614,-30.9402,17.5423,1500,1500,0.5544,-0.8789,0.0528,9.9187,12.2181,-0.0951,11.3871,-0.3901,0.3273,9.8627,8.4761,0.5061,10.4929
114.3596,1.6215,1.7657,154.9882,12.1372,6.3379,54.8142,28.7238,-32.5664,24.3259,1500,1500,1.0000,0.0189,-0.4333,9.7272,10.9356,0.5156,11.9291,-0.1291,0.0854,9.6663,13.3387,0.1397,11.1799
114.3781,1.7947,1.6973,155.1990,11.1983,7.0670,39.3988,93.0436,-36.0471,44.0758,1500,1500,1.0000,0.0788,0.1030,9.7535,10.0044,0.3782,11.4100,0.1462,0.0088,9.6065,12.3922,1.9871,11.4776
114.3965,2.0397,1.6328,155.4072,12.3662,7.8619,43.1009,110.5745,-40.9676,51.4447,1500,1500,1.0000,0.1961,0.3592,9.9642,13.1570,2.5309,11.3871,0.4096,0.2794,9.5538,11.5754,2.5901,10.9967
114.4150,2.2250,1.5445,155.6179,11.9464,8.4745,33.1131,160.6702,-44.6972,67.3362,1500,1500,1.0000,0.2583,0.1533,10.0624,12.3173,2.2408,11.5093,-0.0238,0.4111,9.5634,11.5754,1.2237,11.2868
114.4336,2.3608,1.5042,155.8257,8.4425,8.4697,-0.2588,272.4027,-47.4359,99.9907,1500,1500,1.0000,-0.0840,0.2587,10.1606,9.1265,0.3095,11.3184,-0.2034,0.4781,9.6185,7.7586,0.4603,11.1494
114.4520,2.4789,1.4929,156.0145,6.3166,8.1468,-17.4647,335.5521,-49.8238,118.8665,1500,1500,1.0000,-0.2205,0.3784,9.6745,6.6532,-0.1561,9.1963,-0.1315,0.4637,9.5825,5.9800,0.6970,11.4471
114.4705,2.5330,1.3946,156.2265,3.8548,7.5030,-34.8736,391.9130,-50.9307,135.2010,1500,1500,1.0000,0.2536,0.3329,10.0696,3.3479,0.4774,11.2421,0.1749,0.3392,9.8220,4.3616,1.6741,11.7753
114.4890,2.6854,1.3375,156.4403,2.6448,6.7742,-39.3414,422.3158,-54.0053,145.2511,1500,1500,1.0000,0.1075,0.8572,9.5452,4.0731,1.1568,11.3795,-0.0645,0.8396,9.7573,1.2166,1.8039,11.3555
114.5075,2.7041,1.3171,156.6544,-1.6949,5.1021,-63.7046,494.6362,-54.4068,155.8959,1500,1500,0.9408,-0.0792,0.6561,9.7895,-0.3697,0.9736,11.4329,-0.1986,0.7846,9.8244,-3.0200,1.3764,11.5463
114.5260,2.6036,1.3678,156.8637,-7.5117,0.3160,-9.4125,326.7101,-52.4228,105.6551,1500,1500,0.8977,-0.4767,0.6274,10.0768,-6.4995,0.4011,11.2039,-0.3686,0.6289,9.8675,-8.5239,0.6817,11.4089
114.5445,2.3920,1.4154,157.0714,-12.1872,0.0000,-0.0000,275.2502,-48.2143,78.8121,1500,1500,0.7790,-0.4599,0.4981,9.9642,-11.3163,0.1874,10.9673,-0.6439,0.4254,9.6544,-13.0582,0.7733,11.4089
