timestamp,roll_deg,pitch_deg,yaw_deg,omega_raw,omega_filtered,alpha,tau_ff,tau_pid,tau_total,pwm_left,pwm_right,deadzone_factor,accel1_x,accel1_y,accel1_z,gyro1_x,gyro1_y,gyro1_z,accel2_x,accel2_y,accel2_z,gyro2_x,gyro2_y,gyro2_z
0.0101,0.2209,-0.0166,0.0233,13.6183,0.0000,0.0000,21.1820,-4.4202,0.0000,1500,1500,0.0000,0.1670,0.7192,9.8889,13.4781,0.3058,2.4895,0.1584,0.7798,9.8153,13.7585,0.2738,2.1492
0.0291,0.6283,-0.0453,0.0865,13.9198,0.7075,17.2725,18.7924,-12.5719,0.0000,1500,1500,0.0000,0.1694,0.6785,9.8506,13.7453,0.5271,4.3903,0.1249,0.6601,9.7052,14.0944,0.3806,2.2484
0.0480,1.0075,-0.0609,0.1293,14.2557,4.8095,74.2490,-97.9016,-20.1606,-11.3102,1493,1506,0.6526,0.1406,0.6163,9.8506,14.1194,0.9165,2.3674,0.1512,0.6601,9.7627,14.3921,0.5944,2.1797
0.0668,1.3732,-0.0413,0.1665,14.9008,6.8158,75.7253,-60.0721,-27.4884,-3.0760,1498,1501,1.0000,-0.0126,0.5588,9.8482,14.6384,0.7714,2.1384,0.0818,0.6912,9.7603,15.1631,0.9150,1.7828
0.0855,1.7354,-0.0427,0.1989,16.2061,8.2243,75.1878,-16.8448,-34.7499,12.6584,1506,1493,1.0000,0.0880,0.5037,9.8315,15.7606,0.9699,1.9704,0.0602,0.5499,9.8082,16.6516,0.8463,1.4545
0.1042,2.1173,-0.0326,0.2228,17.1908,9.5693,71.9371,36.4555,-42.4077,31.4114,1517,1482,1.0000,0.0640,0.5756,9.8147,16.9514,1.1760,1.4437,0.0219,0.5308,9.5568,17.4303,1.3043,1.0347
0.1224,2.5060,-0.0232,0.2398,18.0115,10.8356,69.5693,88.0098,-50.2078,49.7467,1527,1472,1.0000,0.0975,0.6474,9.7692,17.6461,1.6111,1.2223,-0.0595,0.6457,9.7363,18.3768,1.5791,0.5309
0.1406,2.9210,0.0120,0.2499,18.5382,11.9910,63.6236,152.8863,-58.5365,72.0764,1539,1460,1.0000,-0.0174,0.7958,9.7716,18.1194,1.8325,0.7490,-0.1026,0.8708,9.8369,18.9570,1.5562,0.2103
0.1587,3.3579,0.0591,0.2492,18.9466,13.0343,57.5116,220.7615,-67.3074,95.4669,1552,1447,1.0000,-0.1108,0.9347,9.7214,18.6003,1.5424,0.1307,-0.1385,0.9210,9.7100,19.2929,1.0753,-0.3623
0.1769,3.8031,0.0907,0.2435,19.5191,14.0071,53.5525,283.3986,-76.2498,117.4765,1564,1435,1.0000,-0.0796,0.9993,9.7022,19.1575,1.0386,-0.1746,-0.0260,0.7870,9.6525,19.8806,0.7852,-0.5913
0.1950,4.2434,0.0769,0.2254,20.0496,14.9134,50.0125,344.2712,-85.0994,138.9456,1576,1423,1.0000,0.1215,1.0065,9.6926,19.6461,0.5500,-0.8464,0.1488,1.0144,9.6190,20.4532,1.0066,-1.2630
0.2131,4.6576,0.0408,0.2022,18.8397,15.5024,32.5131,442.3291,-93.4286,170.5665,1593,1406,1.0000,0.2747,1.0520,9.6352,17.9056,1.0920,-1.2510,0.1512,1.2945,9.7244,19.7738,1.4494,-1.5073
0.2313,5.0875,-0.0045,0.1742,18.6107,15.9686,25.6459,511.5808,-102.0772,194.2812,1606,1393,1.0000,0.2939,1.2292,9.7621,18.5621,1.0997,-1.5716,0.1392,1.2634,9.8608,18.6593,0.5715,-1.6447
0.2495,5.4842,-0.0614,0.1424,16.5038,16.0489,4.4197,618.3712,-110.0665,228.1772,1625,1374,1.0000,0.2986,1.3202,9.7261,16.8293,0.2829,-1.7013,0.4457,1.6034,9.8872,16.1784,0.1364,-1.8203
0.2676,5.8296,-0.1686,0.1118,13.2824,15.6339,-22.8927,736.7824,-117.0325,264.8154,1645,1354,1.0000,0.5620,1.4231,9.6998,14.0430,0.2447,-1.7395,0.3906,1.7351,10.0715,12.5219,0.3730,-1.6676
0.2858,6.1976,-0.2283,0.0816,9.5382,14.7196,-50.3595,858.2471,-124.4554,302.5369,1666,1333,1.0000,0.4567,1.9283,9.7166,10.2644,1.1836,-1.8464,0.2829,1.8308,10.0069,8.8119,1.6784,-1.7058
0.3039,6.4113,-0.2000,0.0529,5.9198,13.3996,-72.8203,947.5294,-128.7932,329.7048,1681,1318,1.0000,0.1430,1.5285,9.5083,6.3407,2.7485,-1.9380,0.1680,1.6058,10.0356,5.4990,2.4875,-1.7745
0.3220,6.5480,-0.1935,0.0157,3.0458,11.8465,-85.7507,1000.5036,-131.5928,345.9374,1690,1309,1.0000,0.1526,1.4782,9.7022,4.0506,2.0462,-1.9609,-0.1074,1.5076,10.0715,2.0410,0.8310,-2.4615
0.3402,6.6250,-0.0515,-0.0208,-0.5916,9.9808,-102.6202,1057.9450,-133.1981,362.8236,1699,1300,1.0000,-0.4005,1.5332,9.7214,-0.1249,2.7943,-1.8845,-0.2008,1.5579,10.0045,-1.0583,2.3272,-2.7287
0.3583,6.6377,0.1011,-0.0586,-3.8053,7.9129,-113.9930,1092.1681,-133.5197,372.5669,1704,1295,1.0000,-0.4148,1.4902,9.4987,-3.2852,3.1302,-2.4036,-0.4306,1.2682,9.9853,-4.3255,3.0829,-2.5073
0.3764,6.5845,0.1707,-0.1117,-6.7443,5.5687,-118.3640,1098.6287,-132.5208,373.8765,1705,1294,1.0000,-0.1203,1.4518,9.6136,-5.4684,1.8706,-2.9990,-0.4090,1.1150,10.0500,-8.0201,2.5562,-3.4310
0.3946,6.4930,0.3740,-0.1665,-9.7557,0.1601,-6.0227,764.5509,-130.7552,279.4519,1653,1346,1.0000,-0.6950,1.5045,9.4963,-8.2852,2.7256,-3.0601,-0.3157,1.2084,10.2104,-11.2262,3.2585,-3.7134
0.4127,6.3769,0.5872,-0.2274,-12.5458,0.0000,-0.0000,733.8497,-128.4983,269.7270,1648,1351,1.0000,-0.8530,1.6434,9.6663,-11.4303,1.8935,-3.1441,-0.5096,1.1772,10.0117,-13.6613,2.6326,-4.1867
0.4309,6.1271,0.7296,-0.2951,-14.8664,0.0000,-0.0000,705.0998,-123.5638,259.2099,1642,1357,1.0000,-0.6207,1.1621,9.4795,-14.0028,1.0157,-3.7242,-0.1912,0.9689,10.1673,-15.7300,1.5333,-4.0493
0.4491,5.8462,0.7929,-0.3693,-16.7634,-0.4892,-16.8548,721.3032,-118.0029,260.9663,1643,1356,1.0000,-0.3286,1.1598,9.6878,-15.7432,0.7561,-4.0754,-0.0403,1.0623,10.2894,-17.7835,0.7089,-4.3088
0.4672,5.4833,0.8809,-0.4465,-16.3511,-5.2945,-99.3649,917.1691,-110.8004,312.2076,1671,1328,1.0000,-0.4412,0.6905,9.7549,-16.4990,0.9928,-4.2662,-0.1385,0.6385,9.8345,-16.2033,0.8768,-4.3546
0.4853,5.1368,0.8942,-0.5373,-14.4962,-6.9219,-73.7385,803.4926,-103.9229,276.9394,1652,1347,1.0000,-0.1563,0.5564,10.0039,-14.3463,-0.0301,-5.2357,-0.2654,0.8109,9.8105,-14.6461,0.5028,-4.7363
0.5034,4.9186,0.9604,-0.6287,-15.5687,-8.2189,-71.5426,772.0474,-99.6065,265.9766,1646,1353,1.0000,-0.4484,1.1669,9.5897,-14.8654,0.3974,-5.2433,-0.1289,1.3113,10.2822,-16.2720,-0.8636,-4.9348
0.5215,4.7171,0.9483,-0.7227,-18.7595,-9.8000,-87.3577,794.4063,-95.6239,270.2457,1648,1351,1.0000,-0.2520,1.5213,9.8315,-17.6669,-2.0148,-5.6555,-0.1912,1.4286,10.1481,-19.8522,-2.1232,-4.6752
0.5397,4.4652,0.8768,-0.8121,-20.8473,-11.4571,-91.3609,776.9427,-90.6301,262.8590,1644,1355,1.0000,0.0401,1.3776,9.5202,-20.2623,-2.1675,-5.1746,0.0722,1.4933,10.0260,-21.4323,-1.7415,-4.6371
0.5579,4.1931,0.8118,-0.8970,-20.7519,-12.8513,-76.3857,702.5016,-85.2303,239.3156,1631,1368,1.0000,0.0927,1.2555,9.6495,-20.3997,-1.3584,-4.5868,0.3906,1.3903,9.9494,-21.1041,-0.6346,-4.7897
0.5763,3.9016,0.6885,-0.9803,-20.6145,-14.0158,-63.5248,631.9169,-79.4395,216.6565,1619,1380,1.0000,0.4926,1.1334,9.8051,-19.4532,-0.4118,-4.9227,0.2398,1.0791,10.1218,-21.7758,0.8616,-4.3928
0.5944,3.5716,0.6336,-1.0620,-22.5420,-15.2947,-70.5835,614.2716,-72.8755,208.4338,1614,1385,1.0000,0.1957,1.0472,9.7644,-22.3692,-0.7629,-4.7242,-0.0763,0.8061,9.6884,-22.7148,1.3196,-4.4691
0.6125,3.1973,0.7376,-1.1417,-21.8473,-16.2776,-54.2653,524.2033,-65.4217,179.4878,1598,1401,1.0000,-0.5274,0.7408,9.9967,-22.0639,1.5195,-4.4342,-0.3013,0.3249,9.8345,-21.6308,0.0600,-4.4691
0.6306,2.7988,0.7763,-1.2252,-18.6908,-16.6396,-19.9759,379.5909,-57.4795,135.0252,1574,1425,1.0000,-0.4819,0.2931,10.3941,-19.4990,-1.4500,-4.3807,-0.4809,-0.0510,9.2503,-17.8827,-2.3980,-4.5378
0.6488,2.4159,0.7551,-1.3102,-15.3130,-16.4406,10.9545,246.4471,-49.8452,93.9278,1551,1448,1.0000,-0.2951,-0.0086,9.9943,-15.8654,-3.6026,-4.3044,-0.1098,-0.0558,9.5951,-14.7606,-2.7033,-4.6142
0.6669,2.1264,0.6772,-1.3934,-13.2023,-15.9549,26.8185,167.4435,-44.0762,68.9223,1537,1462,1.0000,0.0257,0.1853,10.1379,-13.1402,-3.0454,-4.2357,-0.0619,0.2339,9.7698,-13.2644,-2.3216,-4.6829
0.6850,1.8808,0.7092,-1.4688,-12.5458,-15.4435,28.2753,134.9848,-39.1828,57.3871,1531,1468,1.0000,-0.4843,0.2811,9.7764,-12.3616,-2.3355,-4.0448,-0.4043,0.1645,9.6166,-12.7300,-2.9934,-4.0722
0.7031,1.6001,0.6474,-1.5451,-10.9771,-14.7735,36.9554,77.6937,-33.5862,38.5473,1521,1478,1.0000,-0.2233,-0.0637,9.8722,-11.5600,-4.8087,-4.1441,-0.2558,0.1310,9.6166,-10.3942,-4.6041,-3.8737
0.7212,1.3499,0.5042,-1.6160,-7.8321,-13.7323,57.5063,-8.5753,-28.5945,11.8962,1506,1493,1.0000,0.1765,-0.2456,9.9751,-8.6822,-4.8393,-4.0296,0.1632,0.0496,9.6645,-6.9819,-4.5201,-3.4462
0.7393,1.2229,0.3615,-1.6805,-4.1908,-12.3011,79.0959,-72.5667,-26.0671,-7.2851,1495,1504,1.0000,0.3441,-0.0182,10.0541,-4.5753,-3.6332,-3.6708,0.3427,0.4278,9.6190,-3.8064,-2.4209,-3.2783
0.7574,1.1968,0.2884,-1.7560,-2.8588,-10.8848,78.1945,-72.9021,-25.5579,-7.6336,1495,1504,1.0000,0.2220,0.3290,9.9273,-3.0486,-0.9080,-3.3120,0.2182,0.7271,9.7962,-2.6690,-0.7720,-5.0111
0.7755,1.2612,0.2900,-1.8091,-2.2901,-9.5955,71.2453,-60.0570,-26.8587,-3.3866,1498,1501,1.0000,-0.0796,0.7001,9.7309,-2.5753,-0.3202,-3.1594,-0.4043,0.8205,9.6262,-2.0048,-0.5125,-2.7592
0.7937,1.2917,0.2996,-1.8615,-0.3893,-8.2146,75.8401,-69.7899,-27.4801,-5.8011,1496,1503,1.0000,-0.2616,0.3960,9.8411,-1.0333,-1.6026,-2.9303,-0.3779,0.3417,9.5927,0.2547,-2.4514,-2.7516
0.8121,1.3606,0.3309,-1.9120,3.1985,-6.5027,93.0598,-111.4523,-28.8720,-16.7706,1490,1509,1.0000,-0.3789,0.2715,9.7261,2.5163,-2.2744,-2.6861,-0.3085,0.0520,9.4179,3.8806,-2.1461,-2.7210
0.8303,1.4726,0.2768,-1.9596,5.3740,-2.8788,59.8437,-2.8965,-31.1277,2.0821,1501,1498,0.1411,0.0329,0.3050,9.9608,5.0583,-2.3278,-2.3349,0.0722,0.4111,9.8105,5.6898,-1.6652,-2.8126
0.8484,1.6362,0.2203,-2.0086,5.7634,-0.0224,0.6168,186.5062,-34.4167,16.6090,1509,1490,0.2392,0.0999,0.5325,9.8075,5.6842,-1.1294,-2.4800,-0.0858,0.5739,9.7172,5.8425,-1.9094,-2.8813
0.8665,1.8293,0.2249,-2.0592,5.6832,0.0000,0.0000,210.4951,-38.2956,29.1423,1516,1483,0.3732,-0.2616,0.6977,9.6567,5.7682,-2.3507,-2.7471,-0.2127,0.6505,9.7148,5.5982,-2.6117,-2.7363
0.8846,2.0141,0.2013,-2.1158,4.6947,0.0000,0.0000,231.7649,-42.0126,43.8599,1524,1475,0.5106,-0.1802,0.7671,9.5490,4.9361,-2.7782,-2.8464,0.0075,0.8133,9.7914,4.4532,-3.3674,-3.2554
0.9027,2.1600,0.1431,-2.1718,3.6641,0.0000,0.0000,248.5530,-44.9520,56.9905,1531,1468,0.6190,0.0401,0.7216,9.7429,3.7835,-2.8087,-3.0143,0.1249,0.6026,9.9710,3.5448,-2.0697,-3.0340
0.9209,2.2509,0.0536,-2.2252,3.8931,0.0000,0.0000,259.0093,-46.7918,65.6286,1536,1463,0.6842,0.2962,0.4726,9.9105,3.6155,-1.6103,-2.8387,0.2709,0.3584,9.8704,4.1707,-1.0774,-2.9424
0.9390,2.3224,-0.0127,-2.2779,5.2672,0.0000,0.0000,267.2345,-48.2446,72.5678,1539,1460,0.7334,0.3322,0.2715,9.8123,4.7148,-0.2133,-3.0983,0.2134,0.3177,9.6693,5.8196,0.5715,-2.7363
0.9571,2.4668,-0.0077,-2.3330,6.0076,0.0000,0.0000,283.8592,-51.1587,86.6417,1547,1452,0.8247,0.0065,0.5636,9.8004,6.2415,0.4584,-3.1059,-0.0020,0.7271,9.8273,5.7738,-0.0697,-2.9958
0.9752,2.6304,0.0723,-2.3687,4.9351,0.0000,0.0000,302.6807,-54.4562,101.9190,1556,1443,0.9102,-0.3957,0.7767,9.8195,5.1117,0.2218,-2.8082,-0.2462,0.7008,9.7722,4.7585,-0.7415,-1.1256
0.9933,2.7686,0.0641,-2.4205,4.4695,0.0000,0.0000,318.5889,-57.2488,113.4635,1562,1437,0.9629,-0.0629,0.7144,9.6950,4.4552,-1.4042,-2.7929,-0.0092,0.7439,9.8153,4.4837,-0.9400,-2.8355
1.0114,2.8586,0.0239,-2.4696,5.0916,0.0009,0.0058,328.9302,-59.0776,119.9022,1565,1434,0.9857,0.1933,0.4654,9.8674,4.9285,-0.4194,-2.6479,0.2326,0.5643,9.7579,5.2547,0.4570,-2.7897
1.0296,2.9533,-0.0001,-2.5145,5.2137,0.1314,0.7041,337.8092,-60.9998,124.8849,1568,1431,0.9984,0.2292,0.4822,9.7740,5.2110,0.9852,-2.6861,0.0051,0.7056,9.7842,5.2165,1.4799,-2.3699
1.0478,3.0640,0.0473,-2.5596,4.0076,0.2140,0.3328,351.6157,-63.2441,130.0745,1571,1428,1.0000,-0.1826,0.6785,9.7549,4.3789,0.7103,-2.5945,-0.2223,0.8396,9.8249,3.6364,-0.0545,-2.4233
1.0659,3.1688,0.0927,-2.6028,2.6794,0.1179,-0.2268,365.2922,-65.3727,134.9682,1574,1425,1.0000,-0.2832,0.7767,9.5897,2.9896,-0.7019,-2.4342,-0.1840,0.7199,9.7124,2.3692,-1.0468,-2.2630
1.0840,3.2268,0.0968,-2.6434,1.7595,0.0104,-0.0439,371.4427,-66.5654,137.2867,1575,1424,1.0000,-0.0964,0.6642,9.7525,1.9056,-1.1446,-2.4189,0.0435,0.6385,9.9781,1.6135,-0.4819,-1.9806
1.1021,3.2591,0.1114,-2.6831,1.4008,0.0000,-0.0000,375.0242,-67.2424,138.6280,1576,1423,1.0000,-0.0246,0.5923,9.9081,1.4552,0.2142,-2.2357,0.1273,0.5715,9.9159,1.3463,1.0371,-2.2248
1.1202,3.2669,0.1141,-2.7184,0.5649,0.0000,-0.0000,375.9282,-67.4322,138.9760,1576,1423,1.0000,0.1550,0.5420,9.7501,0.5850,1.7714,-2.1823,0.0099,0.6673,9.8991,0.5448,2.3119,-1.9653
1.1383,3.2527,0.1876,-2.7550,-0.0763,0.0000,-0.0000,374.2934,-67.1806,138.3925,1576,1423,1.0000,-0.1610,0.4990,9.8171,0.0201,2.4584,-2.1365,-0.2319,0.5571,9.9949,-0.1728,2.1058,-2.1638
1.1569,3.2414,0.2582,-2.7946,-0.9084,0.0000,-0.0000,372.9964,-66.9876,137.9328,1575,1424,1.0000,-0.2568,0.5875,9.8458,-0.6745,1.2981,-2.0906,-0.2606,0.5308,9.8919,-1.1423,0.8234,-2.3012
1.1751,3.2095,0.3239,-2.8345,-1.2176,0.0000,-0.0000,369.3236,-66.3814,136.6013,1575,1424,1.0000,-0.2664,0.5205,9.9727,-1.2852,0.8935,-2.3349,-0.1194,0.4470,9.7722,-1.1499,1.0524,-2.1485
1.1933,3.1599,0.3390,-2.8760,-1.3435,0.0000,-0.0000,363.6100,-65.4200,134.5208,1573,1426,1.0000,-0.0198,0.4343,9.8243,-1.2929,0.8630,-2.2128,0.0075,0.3752,9.8704,-1.3942,1.3959,-2.4691
1.2115,3.1203,0.3932,-2.9145,-1.1107,0.0000,-0.0000,359.0595,-64.6603,132.8668,1573,1426,1.0000,-0.1682,0.4511,9.7429,-1.2165,1.6416,-2.2204,-0.0284,0.2938,9.7986,-1.0048,1.5639,-2.1943
1.2296,3.0531,0.4277,-2.9538,-1.0878,0.0000,-0.0000,351.3211,-63.3459,130.0429,1571,1428,1.0000,-0.0796,0.3098,9.8411,-0.8577,1.7561,-2.1135,-0.2103,0.4207,9.7411,-1.3178,1.4723,-2.3623
1.2478,3.0482,0.4406,-2.9966,-0.9618,0.0000,-0.0000,350.7588,-63.2787,129.8518,1571,1428,1.0000,-0.0342,0.5899,9.8291,-1.0181,1.1684,-2.4800,-0.0092,0.3632,9.7435,-0.9056,0.9226,-2.3546
1.2659,3.0014,0.4530,-3.0448,-0.9351,0.0000,-0.0000,345.3793,-62.3737,127.8931,1570,1429,1.0000,0.0616,0.3840,9.8004,-0.9188,3.0615,-2.7166,0.1392,0.3129,9.8345,-0.9514,1.2585,-2.8203
1.2840,2.9507,0.4546,-3.0939,-1.3740,0.0000,-0.0000,339.5401,-61.3884,125.5399,1569,1430,0.9982,0.0951,0.3936,9.7908,-1.3081,1.7561,-2.8006,0.1775,0.3656,9.9734,-1.4400,2.2127,-2.8050
1.3023,2.8960,0.4908,-3.1448,-1.3779,0.0000,-0.0000,333.2424,-60.3228,122.5019,1567,1432,0.9922,-0.0413,0.3745,9.9895,-1.3539,2.4279,-2.8845,-0.1744,0.4063,9.7722,-1.4018,2.0600,-2.9119
1.3204,2.8313,0.5889,-3.1979,-1.2977,0.0000,-0.0000,325.8014,-59.0579,118.3211,1565,1434,0.9799,-0.2879,0.2978,9.8028,-1.2242,3.0615,-3.1517,-0.3037,0.5811,9.7698,-1.3713,2.7013,-2.9653
1.3385,2.7551,0.6112,-3.2558,-2.5954,0.0000,-0.0000,317.0274,-57.5605,112.6906,1561,1438,0.9587,-0.1682,0.3409,9.7022,-3.6593,0.1684,-3.0830,-0.1050,0.5835,9.8967,-1.5316,0.4035,-3.3165
1.3566,2.7385,0.6032,-3.3162,-1.5954,0.0000,-0.0000,315.1240,-57.2571,111.3931,1561,1438,0.9532,0.0161,0.5373,9.8243,-1.6211,0.6111,-3.3349,-0.0140,0.4087,9.9255,-1.5697,0.9913,-3.4233
1.3748,2.6940,0.6214,-3.3744,-1.2099,0.0000,-0.0000,309.9957,-56.3928,107.7412,1559,1440,0.9369,-0.0868,0.3697,9.8937,-1.5448,1.0310,-3.2891,-0.0667,0.2914,9.8441,-0.8751,1.0906,-3.2172
1.3929,2.6523,0.6170,-3.4403,-0.3855,0.0000,0.0000,305.2021,-55.5861,104.1713,1557,1442,0.9198,-0.0820,0.3050,9.9416,-0.4761,0.7638,-3.5334,-0.1098,0.2914,9.8369,-0.2949,-1.0010,-3.6981
1.4110,2.6323,0.6037,-3.5051,0.2901,0.0000,0.0000,302.9049,-55.2132,102.4195,1556,1443,0.9110,0.0089,0.3385,9.8578,0.2186,0.4050,-3.5258,0.0315,0.4135,9.8824,0.3616,0.4799,-3.6371
1.4291,2.6249,0.5948,-3.5669,-0.1221,0.0000,0.0000,302.0501,-55.0909,101.7678,1555,1444,0.9077,0.0161,0.4271,9.7453,0.1881,0.7332,-3.4342,0.1632,0.3991,9.7698,-0.4323,0.8387,-3.4615
1.4473,2.6233,0.5655,-3.6333,-0.4237,0.0000,0.0000,301.8704,-55.0859,101.6398,1555,1444,0.9070,0.1215,0.4798,9.7285,-0.4379,0.9088,-3.6937,0.0051,0.3895,9.8465,-0.4094,0.7013,-3.7134
1.4654,2.6103,0.5629,-3.6983,-0.0496,0.0000,0.0000,300.3650,-54.8504,100.4728,1555,1444,0.9009,0.0065,0.3984,9.9775,-0.1097,0.8172,-3.6326,-0.0499,0.5523,9.8872,0.0104,0.9608,-3.6142
1.4835,2.5985,0.5743,-3.7629,-1.0878,0.0000,-0.0000,299.0139,-54.6415,99.4173,1554,1445,0.8953,-0.0749,0.4870,9.8243,-1.6669,0.6035,-3.7013,0.0195,0.5691,9.7220,-0.5087,0.8768,-3.5149
1.5017,2.6323,0.5772,-3.8264,-1.0038,0.0000,-0.0000,302.8967,-55.3427,102.4727,1556,1443,0.9110,-0.0988,0.6881,9.7118,-0.6974,0.1684,-3.5105,-0.2271,0.6625,9.9757,-1.3102,-0.2606,-3.5455
1.5198,2.6358,0.5512,-3.8927,-2.6679,0.0000,-0.0000,303.3048,-55.4400,102.8003,1556,1443,0.9126,0.0137,0.6881,9.6399,-2.2929,-0.4652,-3.6479,0.0147,0.6960,9.8177,-3.0430,-0.1003,-3.7058
1.5379,2.5793,0.5408,-3.9684,-3.3969,0.0000,-0.0000,296.8050,-54.3361,97.6899,1553,1446,0.8859,-0.0054,0.4774,9.7716,-3.2547,0.1760,-5.3349,-0.0068,0.4470,9.7028,-3.5392,0.3730,-3.0722
1.5560,2.5111,0.5306,-4.0418,-3.9122,0.0000,-0.0000,288.9545,-52.9968,91.2896,1550,1449,0.8500,-0.0030,0.4654,9.9871,-3.7738,0.1760,-3.1594,0.0243,0.4805,9.8728,-4.0506,0.4494,-4.9806
1.5741,2.4531,0.5555,-4.0948,-4.0611,0.0000,-0.0000,282.2833,-51.8618,85.7177,1547,1452,0.8166,-0.2017,0.5061,9.8195,-3.8425,0.0615,-3.0143,-0.1648,0.5452,9.9829,-4.2797,-0.1308,-2.8661
1.5922,2.4269,0.5338,-4.1466,-5.0802,0.0000,-0.0000,279.2588,-51.3604,83.1704,1545,1454,0.8007,-0.0270,0.7264,9.6759,-4.6516,-0.4423,-2.9074,-0.0332,0.6433,9.8082,-5.5087,-0.6117,-2.8355
1.6104,2.3496,0.4891,-4.1957,-6.6145,-0.0186,-0.2004,270.9444,-49.8386,75.7397,1541,1458,0.7515,0.0856,0.6163,9.6950,-6.3234,-0.6713,-2.8693,0.0794,0.4662,9.9494,-6.9056,-0.3216,-2.5531
1.6286,2.2569,0.4515,-4.2382,-7.0802,-0.5507,-4.8106,273.5573,-48.0076,69.2571,1538,1461,0.6884,0.0856,0.5732,9.7333,-6.9875,-0.4118,-2.4647,0.1320,0.4039,9.8919,-7.1728,0.0677,-2.2401
1.6467,2.1158,0.4487,-4.2785,-7.1450,-1.5738,-10.4812,273.6464,-45.2058,58.1879,1532,1467,0.5864,-0.0413,0.3361,9.8602,-6.9799,0.0462,-2.4113,-0.0571,0.3249,9.8632,-7.3102,0.3272,-2.0340
1.6648,1.9910,0.4545,-4.3143,-7.4084,-2.8611,-15.9114,274.9238,-42.7296,48.5045,1526,1473,0.4932,-0.1299,0.4128,9.8961,-7.1936,-0.2744,-2.0754,-0.0763,0.3824,9.8584,-7.6232,-0.4132,-1.8584
1.6830,1.8364,0.4376,-4.3480,-7.7939,-4.2216,-20.6948,270.9178,-39.6574,36.2085,1519,1480,0.3784,-0.0533,0.2787,9.7070,-7.6211,-0.4423,-2.0067,-0.0763,0.3273,9.9542,-7.9667,-0.9858,-1.6447
1.7012,1.6571,0.4113,-4.3812,-8.4084,-5.4618,-25.7845,264.9357,-36.0865,84.3850,1546,1453,0.9150,-0.0174,0.1877,9.7381,-8.1020,-1.0301,-1.9532,-0.0068,0.1693,9.7363,-8.7148,-0.6270,-1.6371
1.7193,1.4578,0.3579,-4.4120,-8.4275,-6.0765,-22.8769,233.6350,-32.1163,81.4759,1544,1455,1.0000,0.1502,0.0656,9.7070,-8.3921,-0.6255,-1.7700,0.0937,0.0304,9.6262,-8.4629,-0.1842,-1.5836
1.7374,1.2490,0.3376,-4.4382,-7.9618,-6.3593,-15.6089,188.6756,-27.9526,66.8055,1536,1463,1.0000,0.0449,-0.0565,9.7980,-7.9494,-0.0988,-1.6097,-0.0020,0.0352,9.6980,-7.9743,0.2509,-1.2401
1.7556,1.0621,0.3592,-4.4681,-7.5496,-6.5378,-9.8499,125.4840,-24.2248,47.2479,1525,1474,1.0000,-0.1706,-0.0230,9.7166,-7.4532,-0.0301,-1.7929,0.0219,0.0472,9.8345,-7.6461,-0.2224,-1.4691
1.7737,0.9053,0.3629,-4.4941,-7.9962,-6.7566,-12.0896,115.8255,-21.0983,42.9803,1523,1476,1.0000,-0.1610,0.1231,9.8219,-7.8883,-0.9232,-1.6174,-0.1601,0.2459,9.7914,-8.1041,-1.0316,-1.2096
1.7918,0.7259,0.3353,-4.5187,-8.6641,-7.0427,-15.7955,107.5208,-14.5262,37.3689,1520,1479,1.0000,-0.0342,0.0488,9.7740,-8.5600,-1.4423,-1.4952,0.1680,0.0879,9.7938,-8.7682,-0.8942,-1.1790
1.8099,0.5095,0.3015,-4.5436,-9.0840,-7.3489,-16.9077,89.4311,-10.1943,30.1379,1516,1483,1.0000,0.0880,-0.1211,9.6854,-8.7890,-0.6408,-1.5105,0.1560,0.0543,9.8393,-9.3789,0.2738,-1.2325
1.8284,0.3267,0.2905,-4.5720,-9.1832,-7.6241,-14.8665,67.0044,-6.5367,22.0296,1512,1487,1.0000,0.0329,0.0297,9.7956,-8.9035,0.1836,-1.5181,0.0004,0.0520,9.9207,-9.4629,0.5486,-1.5531
1.8468,0.1546,0.2972,-4.6039,-9.7710,-7.9461,-17.4979,56.8246,-3.0945,17.4581,1509,1490,1.0000,-0.0772,0.0967,9.8794,-9.5295,0.3287,-1.6632,-0.0547,-0.0079,9.9135,-10.0125,-0.2071,-1.7974
1.8651,-0.0253,0.2800,-4.6361,-10.5420,-8.3355,-21.2268,48.5189,0.5061,13.3322,1507,1492,1.0000,0.0089,0.0919,9.7764,-10.1707,-0.2973,-1.7471,-0.1170,0.0520,9.7770,-10.9132,-0.2377,-1.7745
1.8835,-0.2207,0.2622,-4.6665,-11.1107,-8.7518,-22.6846,33.2768,4.4169,7.1091,1503,1496,1.0000,0.0209,0.0369,9.7166,-10.8959,-0.5721,-1.7090,0.0028,0.0065,9.9805,-11.3255,0.2127,-1.6218
1.9018,-0.4497,0.2613,-4.6961,-11.3244,-9.1377,-21.0391,8.8510,8.9977,-2.0206,1498,1501,1.0000,0.0089,-0.1331,9.8387,-11.3081,0.2371,-1.7319,0.0482,-0.3048,9.8417,-11.3407,0.9379,-1.4844
1.9202,-0.6718,0.2681,-4.7293,-11.5000,-9.4920,-19.3073,-21.6942,13.4420,-12.7954,1492,1507,1.0000,0.0113,-0.1259,9.6902,-11.2852,0.8477,-1.9151,0.0004,-0.1132,9.8393,-11.7148,1.2280,-1.6905
1.9388,-0.9028,0.3032,-4.7653,-12.0458,-9.8751,-20.5964,-44.5704,18.0657,-21.5125,1488,1511,1.0000,-0.1156,-0.1475,9.8291,-11.8425,1.0768,-2.1135,-0.0763,-0.0989,9.7986,-12.2491,1.1516,-1.7363
1.9572,-1.1353,0.3267,-4.7987,-12.2328,-10.2287,-19.2091,-75.3187,22.7178,-32.4482,1482,1517,1.0000,-0.0916,-0.1882,9.8387,-12.1402,0.9394,-1.9609,-0.0906,-0.1827,9.8177,-12.3255,0.7623,-1.6371
1.9756,-1.3643,0.3429,-4.8351,-12.0725,-10.5053,-15.0572,-113.6227,27.3107,-45.4697,1474,1525,1.0000,-0.0916,-0.2289,9.7908,-11.6745,0.4279,-2.2815,-0.0571,-0.1228,9.7124,-12.4705,0.6097,-1.6523
1.9939,-1.5841,0.3514,-4.8686,-13.2290,-10.9139,-22.2560,-118.1876,31.7234,-48.9542,1473,1526,1.0000,-0.0413,-0.1283,9.7956,-12.8119,0.5882,-2.0677,-0.0212,-0.0007,10.0164,-13.6461,0.8616,-1.5607
2.0123,-1.7762,0.3458,-4.9046,-13.9046,-11.3625,-24.3822,-134.1689,35.5831,-55.3588,1469,1530,1.0000,0.0209,0.0273,9.8291,-14.3997,0.7638,-2.1365,0.1608,0.0304,9.8536,-13.4094,0.7013,-1.7745
2.0307,-2.0177,0.3332,-4.9337,-16.5573,-12.1417,-42.4606,-109.8857,40.4320,-50.9840,1471,1528,1.0000,0.0425,-0.0134,9.7261,-16.1020,0.5195,-1.8540,0.1296,-0.0031,9.9398,-17.0125,0.6555,-1.3088
2.0491,-2.2821,0.3791,-4.9582,-16.7366,-12.8309,-37.4085,-154.8709,45.7446,-66.2361,1463,1536,1.0000,-0.1778,-0.1451,9.7477,-15.4226,0.9088,-1.5868,-0.1146,-0.0965,9.9470,-18.0506,1.3730,-0.9882
2.0675,-2.5678,0.4147,-4.9789,-18.2901,-13.6498,-44.5138,-167.2768,51.4830,-72.5790,1460,1539,1.0000,-0.1299,-0.1499,9.6926,-18.2471,1.6187,-1.2433,-0.0475,-0.2593,10.0021,-18.3331,0.8005,-0.9271
2.0858,-2.8650,0.3511,-4.9920,-18.0191,-14.3052,-35.7113,-226.8293,57.4558,-92.2401,1449,1550,1.0000,0.2292,-0.2911,10.0996,-17.9723,-0.4423,-1.0448,0.2446,-0.3072,9.7076,-18.0659,0.5028,-0.4081
2.1042,-3.1855,0.2978,-4.9974,-18.0840,-14.8720,-30.8841,-277.6185,63.8986,-109.6825,1439,1560,1.0000,0.3346,-0.4300,9.6016,-18.0410,1.2752,-0.5716,0.2134,-0.3694,9.7100,-18.1270,2.3119,0.1721
2.1226,-3.4893,0.3237,-4.9956,-17.4618,-15.2605,-21.1075,-340.7301,70.0085,-130.4087,1428,1571,1.0000,0.0281,-0.4611,9.7884,-17.4608,2.2676,-0.0296,-0.0284,-0.5442,9.6717,-17.4629,2.3501,0.5003
2.1410,-3.8075,0.3712,-4.9892,-16.5038,-15.4470,-10.1439,-408.9247,76.4108,-152.7043,1416,1583,1.0000,-0.1706,-0.6670,9.8435,-16.8119,1.5577,0.0697,-0.1529,-0.6974,9.3868,-16.1957,0.8616,0.8439
2.1594,-4.1112,0.3804,-4.9576,-14.6374,-15.3255,6.6122,-492.1285,82.5253,-179.0586,1401,1598,1.0000,-0.0365,-0.8059,9.6926,-14.9035,0.7714,2.4208,0.0028,-0.8507,9.6023,-14.3713,0.6097,1.1034
2.1777,-4.4047,0.3429,-4.9405,-12.2366,-14.8622,25.2419,-579.5615,88.4398,-206.4971,1386,1613,1.0000,0.1670,-1.0429,9.9512,-12.6211,0.4203,0.6727,0.0746,-1.0254,9.4442,-11.8522,0.6555,1.3324
2.1960,-4.6485,0.3457,-4.9229,-10.8473,-14.2600,32.8356,-629.4886,93.3622,-222.9379,1377,1622,1.0000,0.0305,-0.9543,9.6783,-10.9875,1.0081,0.8483,0.0219,-0.9273,9.6046,-10.7071,1.2280,1.2866
2.2144,-4.8506,0.3568,-4.9026,-10.3588,-13.6748,31.9092,-650.0845,97.4536,-230.7505,1373,1626,1.0000,-0.0030,-0.8514,9.7525,-10.3158,1.1149,1.0697,-0.0523,-0.8100,9.7363,-10.4018,1.1898,1.3553
2.2327,-5.0230,0.4053,-4.8775,-8.7939,-12.9427,39.9085,-692.9598,100.9512,-244.5043,1365,1634,1.0000,-0.2688,-0.8849,9.7812,-9.1097,-0.7477,1.3903,-0.3372,-0.7477,9.5328,-8.4781,0.9150,1.3782
2.2511,-5.1589,0.4996,-4.8543,-6.6183,-11.9940,51.7174,-742.6086,103.7205,-259.7907,1357,1642,1.0000,-0.4771,-0.9304,9.7740,-7.2013,0.3668,1.3750,-0.1241,-0.8004,9.5687,-6.0354,0.3425,1.2561
2.2695,-5.2106,0.5320,-4.8259,-4.4504,-10.8625,61.4900,-776.7099,104.8077,-269.8826,1351,1648,1.0000,-0.1563,-0.7460,9.8291,-4.7967,0.7561,1.5506,-0.0643,-0.7908,9.5975,-4.1041,0.8845,1.6606
2.2878,-5.2119,0.5697,-4.7928,-3.0611,-9.6923,63.7257,-783.2937,104.8850,-271.7647,1350,1649,1.0000,-0.1994,-0.6239,9.6543,-3.1860,0.6416,1.8635,-0.0763,-0.8387,9.6310,-2.9361,0.5944,1.8133
2.3062,-5.1626,0.5928,-4.7590,-1.2824,-8.4308,68.7634,-792.1325,103.9514,-273.7728,1349,1650,1.0000,-0.1419,-0.5593,9.8889,-1.3158,0.6951,2.0315,-0.1553,-0.5466,9.6741,-1.2491,0.4875,1.7065
2.3245,-5.1154,0.6362,-4.7193,1.0229,-7.0127,77.2776,-811.2114,103.0568,-278.6676,1346,1653,1.0000,-0.2065,-0.7532,9.7501,0.4629,0.7180,2.3750,-0.2606,-0.6136,9.6525,1.5829,1.1211,2.1034
2.3429,-5.0628,0.7051,-4.6605,3.0420,-5.1037,76.1470,-801.9023,102.0556,-275.5604,1348,1651,1.0000,-0.3646,-0.8945,9.7046,2.1423,0.8172,4.3521,-0.2822,-0.6567,9.6310,3.9417,0.1516,2.2408
2.3614,-5.0020,0.7286,-4.6111,5.6489,-0.7199,17.0193,-624.6240,100.8907,-225.3401,1376,1623,1.0000,-0.2903,-1.0597,9.6088,4.8980,-0.6255,2.6803,-0.1984,-0.8746,9.5759,6.3997,-1.2911,2.5767
2.3798,-4.8207,0.6917,-4.5596,8.3779,0.0000,0.0000,-554.7465,97.3135,-203.9858,1387,1612,1.0000,-0.0413,-0.7365,9.8961,7.7911,-1.0148,2.6040,-0.2151,-1.0063,9.5855,8.9646,-1.5735,2.7446
2.3981,-4.6792,0.6598,-4.5079,10.3664,0.0000,0.0000,-538.4598,94.5300,-198.0337,1391,1608,1.0000,-0.0270,-1.0477,9.7046,9.7682,-1.0072,2.9857,-0.0140,-1.1547,9.5687,10.9646,-0.7873,2.5996
2.4165,-4.4921,0.6312,-4.4369,12.7099,0.0000,0.0000,-516.9219,90.8319,-190.1541,1395,1604,1.0000,-0.0485,-1.0285,9.8195,12.2491,-0.8011,2.9399,0.0961,-0.8171,9.6837,13.1707,-1.3369,4.6835
2.4348,-4.2462,0.6087,-4.3809,14.5687,0.5117,14.4371,-530.2067,85.9573,-191.4365,1394,1605,1.0000,-0.0605,-0.8610,9.5873,13.3255,-0.8927,3.0849,-0.2582,-0.6950,9.5855,15.8119,-1.0163,2.9126
2.4533,-4.0532,0.5748,-4.3150,14.3664,4.5711,74.7551,-681.7036,82.1364,-231.9452,1372,1627,1.0000,-0.0246,-1.0501,9.6376,13.7453,-1.2057,3.5658,-0.0786,-1.1164,9.6693,14.9875,-1.1461,3.5080
2.4717,-3.8626,0.6082,-4.2494,16.8359,7.0310,94.1339,-715.5813,78.3632,-239.5444,1368,1631,1.0000,-0.3191,-1.2368,9.6591,16.1728,-0.4500,3.7719,-0.1505,-1.3702,9.5352,17.4990,-1.5201,3.3782
2.4900,-3.6089,0.5588,-4.1790,20.3359,9.0268,108.6226,-728.1169,73.3259,-240.5357,1367,1632,1.0000,-0.0318,-1.2488,9.9680,19.3713,-1.9919,3.7872,-0.0164,-1.3271,9.6430,21.3005,-2.1613,3.7599
2.5084,-3.2862,0.5411,-4.1104,24.0840,11.2853,123.1385,-732.7868,66.9048,-238.6327,1368,1631,1.0000,-0.1275,-1.1890,9.7836,22.5239,-1.6637,3.9094,-0.1768,-0.8315,9.4730,25.6440,-1.4590,3.5309
2.5267,-2.9710,0.5685,-4.0396,23.4733,13.1135,99.6437,-628.8529,60.6310,-206.3943,1386,1613,1.0000,-0.3286,-1.1076,9.7261,21.8827,-1.3202,4.0468,-0.1696,-0.8914,9.7148,25.0639,-1.5506,3.6301
2.5451,-2.5679,0.5632,-3.9669,27.5649,15.2812,118.1547,-635.7747,52.5942,-204.3140,1387,1612,1.0000,-0.2736,-1.0238,10.0254,26.7835,-2.2897,4.0468,-0.2295,-0.6759,9.6884,28.3463,-2.5659,3.7446
2.5634,-2.0978,0.4883,-3.8916,30.0382,17.4948,120.7582,-589.1752,43.2128,-186.5754,1397,1602,1.0000,0.0161,-0.8298,9.8985,29.0125,-3.0912,4.3063,-0.0619,-0.7286,9.5807,31.0639,-2.7949,3.7675
2.5817,-1.5693,0.3854,-3.8199,32.0878,19.6837,119.3967,-437.0385,32.6598,-138.7007,1423,1576,1.0000,0.2555,-0.6574,9.9584,31.5774,-2.1599,4.1002,0.1225,-0.4029,9.8177,32.5982,-1.5277,3.6912
2.6001,-0.9515,0.3540,-3.7458,32.8130,21.6531,107.4010,-349.0069,20.3133,-107.8786,1440,1559,1.0000,-0.0078,-0.2025,10.0901,32.6155,-1.0377,4.2834,0.0770,-0.1563,9.8010,33.0104,-1.1232,3.7370
2.6184,-0.3354,0.3414,-3.6734,32.5115,23.2819,88.7608,-294.2292,6.7121,-85.7402,1452,1547,1.0000,-0.0916,-0.0733,9.8315,32.3942,-0.9080,4.2834,-0.2558,-0.1324,10.1026,32.6287,-1.2987,3.5690
2.6369,0.2829,0.3449,-3.6022,32.2901,24.6331,73.2715,-178.4659,-5.6613,-47.1398,1474,1525,1.0000,-0.3191,0.0441,9.9273,32.2186,-2.3431,4.1536,-0.1074,0.2100,10.1002,32.3616,-3.1384,3.5003
2.6552,0.9069,0.2631,-3.5319,31.0420,25.5944,52.2912,-46.2473,-18.1462,-3.8761,1497,1502,1.0000,0.0664,0.2931,9.8602,31.3331,-2.7935,4.0544,0.1895,0.4518,10.0404,30.7509,-3.0010,3.6301
2.6736,1.5192,0.1457,-3.4671,28.7710,26.0709,25.9885,99.9694,-30.3997,43.1913,1523,1476,1.0000,0.3369,0.5492,9.7884,28.8980,-2.0606,3.7109,0.1967,0.6050,9.8896,28.6440,-1.7033,3.4316
2.6920,2.0327,0.0257,-3.4074,26.6145,26.1525,4.4170,221.1853,-40.6901,82.2770,1545,1454,1.0000,0.3729,0.3577,9.6639,26.6155,-1.7171,3.4895,0.2494,0.3632,9.9781,26.6135,-1.6957,3.1187
2.7106,2.4669,-0.0599,-3.3514,25.0076,25.9807,-9.2749,310.5790,-49.3982,111.6612,1561,1438,1.0000,0.2747,0.2093,9.6663,24.8598,-1.3278,3.2147,0.1799,0.3297,9.9710,25.1555,-1.1003,2.9584
2.7289,2.8910,-0.1288,-3.3046,23.5611,25.6178,-19.7350,389.5024,-57.9082,138.0148,1575,1424,1.0000,0.2172,0.3745,9.6112,23.7911,-0.7171,2.8559,0.1751,0.2746,9.9614,23.3310,-1.5965,2.3553
2.7473,3.2690,-0.1839,-3.2608,22.4198,25.1381,-26.1461,451.4703,-65.5019,159.1626,1587,1412,1.0000,0.2196,0.3385,9.6998,22.1804,-0.6866,2.3826,0.0435,0.2507,9.8943,22.6593,-0.4590,2.4622
2.7657,3.6278,-0.2067,-3.2204,21.9771,24.6639,-25.8320,491.8600,-72.7149,174.0783,1595,1404,1.0000,0.1263,0.3505,9.7190,21.8598,0.4355,2.2910,-0.1122,0.3081,9.8872,22.0944,-0.5201,2.1187
2.7840,3.9682,-0.2922,-3.1869,22.8053,24.3852,-15.2039,500.4178,-79.5615,179.8977,1598,1401,1.0000,0.3130,0.2500,9.7357,22.1423,-1.8698,1.8177,-0.1313,0.5476,9.4059,23.4684,-0.8713,2.0118
2.8023,4.4052,-0.2831,-3.1528,19.9466,23.7194,-36.2900,611.4348,-88.3452,215.3743,1618,1381,1.0000,-0.0677,0.9682,9.3910,21.1423,0.2752,2.1460,0.1680,1.2203,9.8943,18.7509,-1.6957,1.7065
2.8207,4.7949,-0.2412,-3.1161,16.0573,22.5700,-62.5920,732.0311,-96.1868,253.0621,1639,1360,1.0000,-0.3382,1.1933,9.6902,16.7835,-1.8469,2.5353,0.1081,0.9809,9.9279,15.3310,-2.1003,1.7981
2.8391,5.0734,-0.2607,-3.0749,13.1489,21.1569,-76.9869,805.5441,-101.8082,276.4564,1652,1347,1.0000,0.0089,0.9754,9.5226,13.7529,-1.2439,2.6651,0.1009,0.6792,9.7483,12.5448,-1.1766,2.0652
2.8574,5.2125,-0.3340,-3.0317,11.8855,19.7662,-75.8188,818.1859,-104.6418,281.4129,1654,1345,1.0000,0.3561,0.4990,9.8387,11.6995,-0.8087,2.6193,0.5007,0.7175,10.1098,12.0715,0.5410,2.1034
2.8757,5.3510,-0.3279,-2.9821,9.9275,18.2904,-80.4215,847.3879,-107.4664,291.0018,1660,1339,1.0000,0.1909,0.6642,9.4388,10.6232,2.0386,2.6498,-0.1577,0.7175,9.5472,9.2318,2.2280,2.3553
2.8941,5.4735,-0.2334,-2.9300,7.3855,16.6546,-89.1852,886.7214,-109.9704,303.2672,1666,1333,1.0000,-0.3478,0.8557,9.8028,7.5697,1.0844,2.8941,-0.4402,1.0168,10.1290,7.2013,0.3196,2.6606
2.9124,5.5340,-0.1703,-2.8779,4.9771,14.9030,-95.4461,911.7230,-111.2369,310.9009,1670,1329,1.0000,-0.4029,0.7863,9.6878,5.6995,-1.1523,3.1765,-0.2558,0.7582,9.6813,4.2547,-1.7644,2.7904
2.9308,5.6106,-0.1742,-2.8222,2.9122,13.1044,-97.9747,927.8128,-112.8236,316.1994,1673,1326,1.0000,-0.0102,1.0424,9.6160,3.5545,-0.9996,2.8941,0.1656,0.8971,9.9949,2.2700,0.3348,3.2790
2.9491,5.5999,-0.1419,-2.7563,0.2634,11.1782,-104.9873,946.7801,-112.6660,321.4314,1676,1323,1.0000,0.0544,0.8892,9.7692,1.1041,2.3363,3.2681,0.0339,0.8492,10.0476,-0.5774,2.4265,3.4698
2.9675,5.5519,-0.1111,-2.6859,-2.2252,9.1677,-109.5284,954.3381,-111.7622,323.0958,1677,1322,1.0000,0.0472,0.9179,9.6591,-1.7203,2.3134,3.3979,-0.2175,0.7822,9.9781,-2.7300,2.1898,3.8744
2.9859,5.4521,-0.0742,-2.6124,-3.6718,7.2418,-104.8955,929.5018,-109.8194,315.1702,1673,1326,1.0000,-0.1347,0.7982,9.7190,-4.0410,0.7180,3.6956,-0.2391,0.5978,9.6238,-3.3026,0.4035,4.2332
3.0042,5.2869,-0.0700,-2.5394,-3.8321,5.2842,-85.7211,855.2704,-106.5689,292.7602,1661,1338,1.0000,-0.0222,0.4846,9.8099,-3.5753,0.2981,3.9170,-0.1481,0.8492,9.9374,-4.0888,0.0219,4.0347
3.0226,5.2070,-0.0725,-2.4580,-4.7824,1.0911,-22.9228,665.2153,-105.0230,238.7718,1631,1368,1.0000,0.0377,0.9491,9.8506,-3.7203,0.0768,4.6574,0.1440,0.9689,9.8800,-5.8445,1.0906,4.1263
3.0410,5.1087,-0.0346,-2.3732,-6.8855,0.0000,-0.0000,587.8824,-103.1077,216.1609,1618,1381,1.0000,0.0233,1.0137,9.6495,-6.2776,2.2829,4.6193,-0.1553,0.8708,9.6813,-7.4934,2.8234,4.1721
3.0594,4.9547,0.1100,-2.2729,-8.2824,0.0000,-0.0000,570.1662,-100.0785,209.6858,1615,1384,1.0000,-0.5298,0.8701,9.7190,-8.5753,1.5348,6.2910,-0.4545,0.3943,9.4610,-7.9896,2.6326,4.2713
3.0777,4.7314,0.1564,-2.1929,-6.6107,0.0000,-0.0000,544.4654,-95.6595,200.2801,1610,1389,1.0000,-0.3334,0.3912,10.1930,-6.6058,-0.5263,4.6193,-0.2031,0.1669,9.7986,-6.6155,-0.6957,4.2561
3.0961,4.6114,0.1799,-2.1132,-4.5000,0.0000,-0.0000,530.6479,-93.3044,195.2336,1607,1392,1.0000,-0.3191,0.6594,10.1619,-4.4761,-2.6866,4.9017,-0.1050,0.5978,9.9662,-4.5239,-0.4361,4.0576
3.1144,4.5498,0.1943,-2.0337,-4.3321,0.0000,-0.0000,523.5670,-92.1193,192.6584,1605,1394,1.0000,-0.1084,0.9036,10.1188,-4.3081,-0.0225,4.4819,0.0195,0.7846,9.7722,-4.3560,0.6326,4.1568
3.1328,4.5046,0.2190,-1.9748,-4.6870,0.0000,-0.0000,518.3648,-91.2603,190.7723,1604,1395,1.0000,-0.1658,0.9467,9.5418,-4.4226,0.1149,2.5353,-0.0379,0.8396,9.6453,-4.9514,-0.0545,3.9278
3.1512,4.3562,0.2044,-1.9001,-4.5458,0.0000,-0.0000,501.2890,-88.3363,184.5291,1601,1398,1.0000,0.0185,0.4535,9.3933,-4.7738,-0.0377,3.9170,-0.0763,0.3153,9.6693,-4.3178,0.3730,4.2332
3.1696,4.1816,0.1417,-1.8367,-3.0038,0.0000,-0.0000,481.1926,-84.8856,177.1767,1597,1402,1.0000,0.2436,0.1949,9.9703,-3.4913,0.1836,3.4971,0.0530,0.2291,9.8560,-2.5163,-0.1690,3.4316
3.1880,4.0647,0.1523,-1.7749,-0.6450,0.0000,0.0000,467.7388,-82.5881,172.2609,1594,1405,1.0000,-0.0749,0.2236,9.7309,-1.2165,0.0920,3.3750,-0.0954,0.3417,9.6597,-0.0735,0.3348,3.3629
3.2065,4.0419,0.1452,-1.7204,0.9809,0.0000,0.0000,465.1176,-82.1730,171.3194,1594,1405,1.0000,0.0233,0.5133,9.8913,0.8293,0.3592,2.9857,-0.1122,0.3776,9.7028,1.1326,0.3730,2.9049
3.2248,4.0205,0.1842,-1.6749,2.2481,0.0000,0.0000,462.6513,-81.7846,170.4347,1593,1406,1.0000,-0.1730,0.3984,9.7956,0.3407,0.7180,2.5506,-0.2726,0.7415,9.8536,4.1555,0.3501,2.3400
3.2433,4.0120,0.2080,-1.6388,2.4695,0.0000,0.0000,461.6755,-81.6551,170.0967,1593,1406,1.0000,-0.1563,0.4223,9.5609,2.2186,-0.0759,2.1918,-0.2271,0.6649,9.6358,2.7203,-0.1079,1.7446
3.2617,4.0015,0.1983,-1.6115,3.9122,0.0000,0.0000,460.4641,-81.4846,169.6723,1593,1406,1.0000,-0.0701,0.3074,9.9823,3.3102,-0.6561,1.7261,-0.0451,0.4159,9.7004,4.5142,-0.9705,1.3858
3.2800,3.9988,0.1509,-1.5971,5.9656,0.0000,0.0000,460.1560,-81.4710,169.5792,1593,1406,1.0000,0.1478,0.1614,9.8219,5.5545,-0.5568,1.0620,0.0578,0.2483,9.9973,6.3768,-0.2835,0.5919
3.2984,4.0498,0.1256,-1.5854,6.9275,0.0000,0.0000,466.0214,-82.5309,171.7515,1594,1405,1.0000,0.1454,0.3290,9.9201,6.6690,0.3821,0.5277,0.0219,0.5499,9.8441,7.1860,0.8845,0.6912
3.3168,4.1957,0.1498,-1.5834,7.2634,0.0000,0.0000,482.8105,-85.4906,177.9323,1597,1402,1.0000,-0.1227,0.7647,9.9440,7.2720,0.5348,0.4208,-0.0930,0.6768,9.8034,7.2547,-0.2224,-0.2554
3.3352,4.3190,0.1548,-1.5877,7.2939,0.1457,1.6242,492.3241,-88.0001,181.8508,1600,1399,1.0000,-0.0605,0.6642,9.7261,7.1194,-0.1294,-0.0830,-0.1122,0.6912,9.8465,7.4684,-0.2071,-0.3775
3.3535,4.4038,0.1142,-1.5984,7.4924,1.0235,8.6122,481.9546,-89.7396,179.8171,1598,1401,1.0000,0.1670,0.4918,9.8602,7.4018,-0.2820,-0.4800,0.0746,0.7223,9.8991,7.5829,0.2432,-0.6676
3.3720,4.5224,0.1293,-1.6125,8.3244,2.6524,20.0957,462.5382,-92.1580,175.5897,1596,1403,1.0000,-0.0533,0.6019,9.9919,8.0965,0.5195,-0.7777,-0.0236,0.6840,9.6932,8.5524,0.2356,-0.8126
3.3904,4.7116,0.1495,-1.6257,8.8893,4.5134,29.6344,456.8430,-95.9895,175.9108,1596,1403,1.0000,0.0233,0.9227,10.1068,8.7453,0.4508,-0.7090,-0.1912,1.0384,9.9135,9.0333,2.6631,-0.9882
3.4087,4.8868,0.1743,-1.6436,8.3282,5.6128,24.3679,492.1634,-99.5406,187.5760,1603,1396,1.0000,-0.1227,0.9131,9.8506,8.4476,0.0081,-0.7777,-0.0858,1.1030,10.0212,8.2089,0.3119,-1.2401
3.4271,5.1004,0.2086,-1.6613,7.6336,6.0216,15.4589,542.4093,-103.8645,203.8069,1612,1387,1.0000,-0.1946,1.1909,9.8602,7.7300,-0.0225,-0.8311,-0.1074,1.1126,10.0021,7.5371,-0.1766,-1.1332
3.4455,5.2405,0.1755,-1.6808,6.8740,6.1495,6.9589,583.0151,-106.7193,216.6038,1619,1380,1.0000,0.0927,0.9108,9.5466,6.6308,-0.5950,-0.9761,0.0746,1.2131,9.6477,7.1173,-0.1384,-1.0951
3.4639,5.4082,0.1144,-1.6974,7.1336,6.2971,8.0327,599.2232,-110.1273,222.8462,1622,1377,1.0000,0.2364,1.0807,9.9033,7.0888,0.3668,-0.9074,0.2565,1.1653,9.7722,7.1784,-1.1079,-0.8355
3.4825,5.5162,0.1136,-1.7096,6.7786,6.3693,3.8864,623.5869,-112.3412,230.7750,1626,1373,1.0000,0.0951,0.8509,9.9081,6.8064,1.6264,-0.6097,0.1368,0.9785,9.9135,6.7509,0.7852,-0.9577
3.5010,5.6580,0.1510,-1.7233,5.6336,6.2590,-5.9711,668.2984,-115.2341,244.7406,1634,1365,1.0000,-0.1347,1.1286,9.8674,5.8980,0.7180,-0.5868,-0.0188,1.2012,9.9781,5.3692,0.5715,-1.0569
3.5193,5.8155,0.1551,-1.7388,3.5763,5.8177,-21.7448,731.8572,-118.4428,264.1414,1645,1354,1.0000,-0.0222,1.3609,9.4532,3.8751,0.1684,-0.6937,0.1560,1.0671,9.9374,3.2776,0.2585,-1.0798
3.5379,5.8960,0.1317,-1.7524,2.6107,4.7582,-23.2735,745.5294,-120.1126,268.8045,1647,1352,1.0000,0.1167,1.1621,9.8937,2.7835,0.2447,-0.7624,0.0985,0.9977,9.9327,2.4379,0.3730,-0.7897
3.5562,5.9151,0.1090,-1.7706,2.0573,3.3261,-18.4682,733.8800,-120.5522,265.7625,1646,1353,1.0000,0.1382,0.9299,9.8411,2.1957,0.3439,-1.1059,0.1416,0.8181,9.9925,1.9188,0.7242,-0.9806
3.5746,5.9562,0.1250,-1.7906,0.5153,1.5241,-12.8533,722.4475,-121.4352,263.0029,1644,1355,1.0000,-0.0126,1.1645,9.8123,1.1117,0.7485,-1.2815,0.0818,1.1988,10.1888,-0.0812,0.9532,-1.0874
3.5930,5.9318,0.1224,-1.8122,-2.5840,0.0402,-0.6991,684.6301,-121.0056,252.1992,1638,1361,1.0000,0.0832,1.1190,9.7237,-2.0868,0.4737,-1.1899,0.1177,1.2227,10.0164,-3.0812,1.4875,-1.3852
3.6113,5.8379,0.1754,-1.8317,-4.7672,0.0000,-0.0000,671.8097,-119.1861,247.6998,1636,1363,1.0000,-0.1419,0.9874,9.8339,-4.3845,1.4966,-1.2510,0.1225,1.1724,9.9686,-5.1499,1.3654,-1.1790
3.6297,5.6901,0.2215,-1.8524,-5.1527,0.0000,-0.0000,654.7954,-116.2864,241.4859,1632,1367,1.0000,-0.1275,0.7791,10.1308,-5.1784,1.3439,-1.1288,0.1751,0.7750,10.0883,-5.1270,1.3959,-1.3928
3.6482,5.5497,0.2033,-1.8766,-4.6641,0.0000,-0.0000,638.6427,-113.5350,235.5875,1629,1370,1.0000,0.2101,0.7408,10.0518,-4.5753,1.4203,-1.5029,-0.0858,0.7247,9.6214,-4.7529,1.8845,-1.4386
3.6665,5.4230,0.2427,-1.9020,-5.8893,0.0000,-0.0000,624.0644,-111.0559,230.2660,1626,1373,1.0000,-0.0701,0.8557,9.7716,-5.2929,1.7027,-1.6861,0.0195,1.1030,9.7172,-6.4858,1.5257,-1.3928
3.6849,5.3259,0.2890,-1.9300,-8.6450,0.0000,-0.0000,612.8843,-109.1663,226.1908,1624,1375,1.0000,-0.1156,1.2268,9.8219,-7.8272,0.5882,-1.8845,-0.0403,0.9067,9.8034,-9.4629,2.5868,-1.4615
3.7033,5.1658,0.2093,-1.9611,-9.2328,-0.0049,-0.0937,594.7225,-106.0150,219.5298,1620,1379,1.0000,0.2316,0.9898,10.0901,-9.1707,-2.6942,-1.9380,0.0458,0.8181,9.8273,-9.2949,0.1211,-1.2172
3.7216,4.9007,0.2092,-1.9875,-7.7366,-0.6168,-6.2374,581.9065,-100.7620,213.3148,1617,1382,1.0000,0.0209,0.3122,9.9632,-8.0868,0.1378,-1.7319,0.2398,0.5619,9.7627,-7.3865,1.0600,-1.1867
3.7410,4.7065,0.1951,-2.0167,-7.1985,-1.6821,-10.4530,571.7006,-96.9255,208.5389,1614,1385,1.0000,0.1909,0.5851,9.8004,-5.6822,1.6798,-1.8769,0.1560,0.8995,9.8824,-8.7148,1.8845,-1.4310
3.7597,4.5600,0.1824,-2.0460,-9.8855,-4.0687,-35.5335,627.0733,-94.0413,222.6012,1622,1377,1.0000,0.1382,0.9467,9.4077,-9.2547,1.3821,-2.0296,0.0147,0.9498,9.7890,-10.5163,1.0677,-1.2935
3.7782,4.4317,0.2202,-2.0755,-11.0344,-6.0106,-48.0974,648.4879,-91.5189,227.3360,1625,1374,1.0000,-0.1610,1.1574,9.9416,-11.1784,0.5958,-2.0677,-0.0260,0.8133,9.9255,-10.8903,0.3501,-1.2172
3.7965,4.2332,0.1681,-2.1062,-10.3779,-6.6657,-35.6478,589.7962,-87.5925,208.9392,1614,1385,1.0000,0.2292,0.7408,10.0230,-10.4150,-0.1446,-2.0830,0.1344,0.7080,9.7890,-10.3407,0.2967,-1.2706
3.8149,4.0473,0.1212,-2.1384,-11.1450,-7.3376,-36.5656,571.0395,-83.9139,201.8480,1611,1388,1.0000,0.3034,0.8102,9.8171,-10.5829,0.7638,-1.9609,0.0722,1.0240,10.0715,-11.7071,1.5257,-1.7287
3.8333,3.8406,0.1465,-2.1677,-13.7595,-8.3009,-52.4595,593.0339,-79.8195,205.9592,1613,1386,1.0000,0.0496,0.9108,9.8411,-12.8654,1.4279,-1.6708,-0.0954,0.9091,10.0979,-14.6537,2.7242,-1.8279
3.8516,3.6220,0.1690,-2.2032,-16.6336,-9.5508,-68.0920,612.8953,-75.4830,209.3522,1615,1384,1.0000,-0.0988,1.0616,9.7644,-16.0715,0.1684,-2.0525,-0.1409,0.9833,9.9015,-17.1957,0.2967,-1.8661
3.8700,3.3374,0.2264,-2.2380,-17.4389,-10.7340,-64.4843,569.7526,-69.8242,194.4428,1606,1393,1.0000,-0.3023,0.7887,9.8482,-17.1784,-0.3278,-2.0219,-0.0667,0.8468,9.9087,-17.6995,0.1593,-1.7516
3.8883,3.0165,0.2176,-2.2765,-17.6794,-11.7758,-56.7796,510.6384,-63.4369,174.6972,1596,1403,1.0000,0.0257,0.6043,10.1212,-17.2700,0.0233,-1.9761,0.0985,0.7008,9.9686,-18.0888,0.3272,-2.2706
3.9067,2.7014,0.2047,-2.3160,-19.0725,-12.8703,-59.6572,482.6595,-57.1609,163.7251,1590,1409,1.0000,0.0377,0.6618,9.6352,-18.4455,-0.0759,-2.2357,0.1680,0.8756,9.7986,-19.6995,0.3196,-2.0951
3.9250,2.3700,0.1944,-2.3584,-20.8092,-14.0612,-64.9663,459.8147,-50.5566,154.0264,1584,1415,1.0000,0.0664,0.6929,9.7860,-20.1631,-0.0072,-2.5792,-0.0739,0.7343,9.9231,-21.4552,1.0448,-2.0951
3.9434,1.9902,0.2303,-2.4018,-22.0840,-15.2646,-65.4307,417.4517,-42.9813,138.3771,1576,1423,1.0000,-0.2161,0.5277,9.7836,-21.8272,0.1302,-2.5487,-0.2798,0.5236,9.8082,-22.3407,-0.7415,-2.1332
3.9618,1.5666,0.2262,-2.4476,-22.3397,-16.3258,-57.6852,288.6681,-34.5251,98.0896,1553,1446,1.0000,-0.1347,0.2835,9.7932,-22.3463,-1.3278,-2.8158,-0.2055,0.2459,9.8297,-22.3331,-1.5201,-2.0264
3.9802,1.1450,0.1648,-2.4930,-22.2328,-17.2119,-48.2204,225.5247,-26.1046,76.1992,1541,1458,1.0000,0.1694,0.2069,10.0685,-21.7738,-1.2668,-2.7166,0.2901,0.4183,9.8872,-22.6919,-0.6652,-2.1561
3.9985,0.7567,0.0980,-2.5380,-22.8130,-18.0521,-45.7661,182.3973,-18.3457,60.2441,1533,1466,1.0000,0.3298,0.3385,9.7884,-22.5600,0.2981,-2.8082,0.1775,0.2507,9.7675,-23.0659,0.6860,-2.1103
4.0171,0.3578,0.1080,-2.5779,-23.2023,-18.8246,-41.7149,134.4234,-7.1591,41.2181,1522,1477,1.0000,-0.0270,0.2715,9.6639,-23.1478,0.6722,-2.4723,-0.0451,0.0950,9.6932,-23.2568,0.0906,-1.8126
4.0391,-0.1395,0.1604,-2.6280,-23.1565,-19.4744,-29.4049,68.6373,2.7908,17.8230,1509,1490,1.0000,-0.2496,0.1183,9.9416,-23.1936,-0.2210,-2.6937,-0.2391,0.1741,9.6406,-23.1194,-0.3598,-1.7668
4.0576,-0.5461,0.1761,-2.6602,-22.6527,-19.9511,-25.8558,11.6306,10.9266,-2.2067,1498,1501,1.0000,-0.1610,0.0249,9.5801,-22.6135,-0.6942,-2.1441,-0.1050,0.1405,9.6262,-22.6919,-0.7568,-1.3088
4.0760,-0.9520,0.1479,-2.6887,-22.0191,-20.2613,-16.8186,-61.1111,19.0500,-26.6361,1485,1514,1.0000,0.0736,-0.0924,9.5921,-22.1173,-0.3813,-1.8616,0.0411,0.0304,9.6477,-21.9209,-0.1613,-1.2096
4.0944,-1.3454,0.0842,-2.7139,-21.1679,-20.3973,-7.3942,-133.5152,26.9208,-50.8447,1472,1527,1.0000,0.2627,-0.1762,9.4843,-21.1097,0.0386,-1.5792,0.1703,-0.1587,9.4394,-21.2262,-0.0087,-1.1561
4.1128,-1.7214,0.0374,-2.7320,-20.3092,-20.3841,0.7197,-200.1552,34.4589,-73.2729,1459,1540,1.0000,0.1909,-0.2361,9.4771,-20.2394,-0.2439,-1.2739,0.1249,-0.2425,9.5352,-20.3789,0.1516,-0.6829
4.1312,-2.0951,0.0377,-2.7451,-19.2328,-20.2114,9.4010,-268.1540,41.9529,-96.0596,1447,1552,1.0000,0.0281,-0.3797,9.5585,-19.3234,0.2371,-0.7853,0.0602,-0.3670,9.6334,-19.1423,0.7089,-0.6065
4.1495,-2.4510,0.0632,-2.7531,-18.3817,-19.9369,14.9445,-325.0759,49.0958,-115.5692,1436,1563,1.0000,-0.0892,-0.4372,9.5969,-18.3921,0.6798,-0.5716,-0.0834,-0.3287,9.8297,-18.3713,0.1287,-0.2401
4.1679,-2.7881,0.0843,-2.7551,-17.5115,-19.5731,19.8249,-377.9215,55.8654,-133.7507,1426,1573,1.0000,-0.1515,-0.4875,9.6280,-17.4913,-0.4652,-0.2662,-0.0739,-0.3359,9.6046,-17.5316,-0.5430,0.0271
4.1862,-3.1252,0.0370,-2.7558,-16.6947,-19.1413,23.5121,-427.3329,62.6387,-150.9726,1416,1583,1.0000,0.1215,-0.6072,9.6232,-16.8119,-1.1065,-0.0372,0.1416,-0.6543,9.5807,-16.5774,-0.7797,-0.1485
4.2046,-3.4292,0.0063,-2.7548,-16.4313,-18.7348,22.1106,-458.2810,68.7532,-162.6953,1410,1589,1.0000,0.1334,-0.5377,9.7549,-16.2852,0.4126,-0.0906,0.2182,-0.7740,9.8010,-16.5774,-0.4972,0.2026
4.2230,-3.6930,0.0292,-2.7488,-15.3282,-18.2239,27.8210,-505.0883,74.0668,-178.4581,1401,1598,1.0000,0.0042,-0.4779,9.5657,-15.7814,0.8096,0.3139,0.0387,-1.0470,9.1234,-14.8751,1.8387,0.5156
4.2413,-3.9590,0.0890,-2.7425,-13.5687,-17.5256,38.0512,-565.1629,79.4264,-197.9588,1391,1608,1.0000,-0.0820,-0.7029,9.7668,-14.1173,2.5271,0.2452,-0.2391,-0.9177,9.6789,-13.0201,2.0295,0.7752
4.2597,-4.1745,0.1224,-2.7316,-11.4466,-16.6137,49.6428,-623.3472,83.7782,-216.4263,1380,1619,1.0000,-0.0988,-0.6934,9.6998,-11.6440,1.1531,0.5048,-0.1194,-0.7549,9.4107,-11.2491,0.3806,0.8133
4.2785,-4.3420,0.1643,-2.7136,-10.4962,-15.6961,48.7372,-640.0159,87.1717,-222.7903,1377,1622,1.0000,-0.1826,-0.5713,9.6399,-9.6593,0.0920,0.8712,-0.0068,-0.5801,9.4586,-11.3331,0.4646,1.0958
4.2970,-4.4847,0.1676,-2.6919,-7.9084,-14.5279,63.4137,-698.7047,90.0703,-240.6724,1367,1632,1.0000,0.0640,-0.7173,9.7070,-8.2318,0.7180,1.1384,-0.1002,-0.9225,9.2862,-7.5850,1.5791,1.4087
4.3153,-4.5037,0.2545,-2.6665,-6.9237,-13.3873,62.0510,-696.9713,90.4961,-240.4000,1367,1632,1.0000,-0.2616,-0.2576,9.7621,-6.7051,2.0615,1.4666,-0.2415,-0.5370,9.6932,-7.1423,1.6936,1.5767
4.3337,-4.5977,0.3285,-2.6364,-5.3130,-12.1762,65.9456,-719.0000,92.4210,-247.5305,1363,1636,1.0000,-0.3406,-0.7724,10.0709,-5.7432,0.8172,1.7261,-0.3492,-0.8698,9.4754,-4.8827,0.2356,1.6377
4.3521,-4.6561,0.4143,-2.6009,-3.5496,-10.8822,70.4228,-738.6196,93.6364,-253.6317,1360,1639,1.0000,-0.4771,-0.7604,9.8722,-3.8348,-0.3126,1.8101,-0.2415,-0.8243,9.5855,-3.2644,-0.2758,2.0347
4.3704,-4.6702,0.4190,-2.5588,-2.1908,-9.5785,71.0126,-741.9351,93.9641,-254.7239,1359,1640,1.0000,-0.1587,-0.6670,9.6471,-2.3234,-0.8774,2.2147,-0.0595,-0.6208,9.6837,-2.0583,-1.0392,2.2026
4.3889,-4.6641,0.3931,-2.5118,-2.3779,-8.4984,58.6438,-705.6099,93.8885,-244.5151,1365,1634,1.0000,0.1167,-0.5569,9.7070,-2.1173,0.4126,2.6803,0.0243,-0.9297,9.6166,-2.6384,0.7471,2.4927
4.4072,-4.6422,0.3874,-2.4600,-1.7481,-7.4858,55.1769,-693.1058,93.4971,-240.8182,1367,1632,1.0000,0.0449,-0.5449,9.9273,-2.0562,0.6722,2.9628,-0.0332,-1.0159,9.7722,-1.4400,0.8310,2.7752
4.4256,-4.6513,0.4393,-2.4050,0.1527,-6.3401,62.3797,-714.8995,93.7260,-247.0349,1364,1635,1.0000,-0.1850,-0.8610,9.9081,-0.4913,1.0844,3.1765,-0.2343,-0.8100,9.6046,0.7967,1.3348,3.0347
4.4439,-4.6166,0.5066,-2.3444,0.9847,-4.4053,50.3233,-676.1812,93.0778,-235.8696,1370,1629,1.0000,-0.3334,-0.7149,9.7190,0.9743,0.5348,3.1994,-0.3276,-0.7549,9.8177,0.9952,0.1822,3.4851
4.4623,-4.5802,0.5539,-2.2824,0.3969,-1.9687,20.6228,-586.4619,92.3969,-210.4078,1384,1615,1.0000,-0.2903,-0.6622,9.9105,0.7071,0.2218,3.2223,-0.2702,-0.8674,9.7722,0.0868,-0.2987,3.5309
4.4807,-4.5518,0.5580,-2.2150,1.6794,-0.2431,3.4629,-533.7622,91.8725,-195.3897,1392,1607,1.0000,-0.0772,-0.8059,9.9512,1.3484,-0.0377,3.6116,-0.0547,-1.0087,9.6549,2.0104,0.3654,3.7828
4.4990,-4.5188,0.5672,-2.1435,3.0305,0.0000,0.0000,-519.9926,91.2579,-191.2269,1394,1605,1.0000,-0.0533,-0.9017,9.9488,2.7911,0.4050,4.0391,-0.1002,-0.9297,9.7531,3.2700,0.9761,3.8973
4.5173,-4.5047,0.6564,-2.0720,3.3359,0.0000,0.0000,-518.3700,91.0210,-190.6541,1395,1604,1.0000,-0.3837,-0.9735,9.5346,2.9819,1.0768,4.0391,-0.3971,-0.8985,9.8393,3.6898,1.1364,4.0118
4.5357,-4.5126,0.7315,-2.0012,3.5840,0.0000,0.0000,-519.2776,91.2238,-191.0096,1394,1605,1.0000,-0.4460,-1.1243,9.7884,3.5774,0.5653,3.8712,-0.3444,-1.0087,9.9446,3.5906,-0.7491,3.9507
4.5540,-4.5044,0.7075,-1.9309,4.2939,0.0000,0.0000,-518.3428,91.1064,-190.6892,1395,1604,1.0000,-0.1132,-1.1028,9.7501,3.9667,-1.2210,3.9704,-0.1696,-1.0949,9.5903,4.6211,-1.7720,3.5690
4.5724,-4.4983,0.6424,-1.8612,5.7519,0.0000,0.0000,-517.6333,91.0281,-190.4514,1395,1604,1.0000,0.1023,-1.2321,9.7357,5.2415,-1.5950,3.7872,0.0171,-1.3606,9.7411,6.2623,-0.8942,3.7599
4.5908,-4.4725,0.6328,-1.7964,7.1947,0.0000,0.0000,-514.6706,90.5579,-189.3867,1395,1604,1.0000,-0.0222,-1.3063,10.0087,7.2797,-0.0759,3.6956,-0.1601,-1.1284,9.9159,7.1097,0.4875,3.5461
4.6091,-4.3888,0.7042,-1.7347,7.4924,0.0000,0.0000,-505.0370,88.9276,-185.8742,1397,1602,1.0000,-0.4005,-1.0166,9.6998,7.5239,0.2294,3.5582,-0.2798,-0.8315,9.8632,7.4608,0.2127,3.2713
4.6275,-4.3237,0.7129,-1.6746,7.6756,0.1458,1.7834,-502.6771,87.6681,-184.5837,1398,1601,1.0000,-0.2688,-1.1291,9.9344,7.4781,-1.1446,3.3674,-0.2295,-0.9823,9.7363,7.8730,-1.7720,3.0576
4.6459,-4.2376,0.6383,-1.6182,8.3779,1.3079,12.8890,-524.7564,85.9892,-189.9264,1395,1604,1.0000,0.1047,-1.0788,9.9344,8.1804,-2.0301,3.0849,0.0387,-1.0590,9.8632,8.5753,-1.2606,2.8820
4.6643,-4.0939,0.5660,-1.5671,9.6069,3.5504,32.1405,-563.6657,83.1565,-199.4046,1390,1609,1.0000,0.2723,-0.8921,9.9392,9.3102,-0.0377,2.8941,0.0482,-0.9656,9.8345,9.9035,0.4646,2.7675
4.6827,-3.9506,0.6060,-1.5167,10.4962,5.6922,44.5687,-582.9679,80.3300,-203.3960,1388,1611,1.0000,-0.2113,-0.9328,9.7142,10.2110,0.8706,2.9857,-0.3205,-0.7046,9.8728,10.7814,0.3348,2.6454
4.7010,-3.7630,0.6925,-1.4689,10.9580,6.5571,42.3167,-554.8943,76.6159,-193.6783,1393,1606,1.0000,-0.5968,-0.7341,9.6471,10.7224,-0.9767,2.8712,-0.5144,-0.5681,9.8010,11.1936,-1.6041,2.1492
4.7195,-3.5850,0.7222,-1.4211,11.0840,7.2362,36.8259,-518.5966,73.0917,-181.7529,1400,1599,1.0000,-0.4579,-0.7772,9.8794,10.8674,-2.4576,2.5200,-0.1601,-0.7166,9.7818,11.3005,-2.3064,2.3858
4.7379,-3.4092,0.6833,-1.3713,12.3359,8.0011,41.5745,-512.0359,69.6088,-178.1744,1402,1597,1.0000,-0.0868,-0.8705,9.9344,12.6461,-1.8087,2.8483,0.0913,-0.7453,9.5663,12.0257,-1.7644,2.4087
4.7565,-3.1613,0.6406,-1.3223,15.0687,9.0613,56.9799,-527.8786,64.6828,-180.1474,1400,1599,1.0000,0.0377,-0.7389,9.8123,14.5163,-0.8087,2.8635,-0.1170,-0.6065,9.7794,15.6211,-0.5277,2.3706
4.7749,-2.8343,0.6325,-1.2707,15.3779,10.0087,51.4376,-474.2841,58.1707,-161.8849,1410,1589,1.0000,-0.1395,-0.3414,9.7932,15.4171,-0.5721,2.8101,-0.1529,-0.2928,9.9973,15.3387,-1.3064,2.6454
4.7933,-2.5091,0.6507,-1.2222,13.8664,10.5874,31.4966,-379.4292,51.6913,-132.0858,1427,1572,1.0000,-0.3693,-0.1595,9.6136,14.4476,-1.8011,2.6880,-0.3300,-0.1348,10.1074,13.2852,-2.7339,2.2561
4.8117,-2.2502,0.6064,-1.1678,12.2023,10.8296,13.1754,-296.8760,46.5366,-106.3936,1441,1558,1.0000,-0.1371,-0.2720,9.6830,12.3026,-3.0835,2.9017,-0.0619,-0.1085,9.9303,12.1020,-2.5506,2.7370
4.8300,-2.0102,0.5222,-1.1098,11.4427,10.9216,5.0059,-245.7334,41.7572,-89.6840,1450,1549,1.0000,0.1598,-0.2480,9.7429,11.2873,-1.9385,3.1078,0.2087,-0.2066,9.8728,11.5982,-1.2071,3.0652
4.8484,-1.7792,0.4891,-1.0511,11.5153,11.0106,4.8448,-218.6860,37.1546,-79.8094,1456,1543,1.0000,0.0305,-0.2624,9.9512,11.3942,-0.3355,3.1460,-0.0834,-0.1324,9.9590,11.6364,-0.7415,3.2026
4.8668,-1.4918,0.5074,-0.9850,10.6489,10.9564,-2.9549,-163.1514,31.4216,-61.3932,1466,1533,1.0000,-0.2903,0.1207,9.7525,10.9209,-0.9767,3.5964,-0.2199,0.0448,9.9638,10.3768,-2.1003,3.4087
4.8851,-1.2468,0.4856,-0.9159,8.6641,10.6125,-18.7430,-74.5780,26.5348,-34.1492,1481,1518,1.0000,-0.2017,0.1398,9.6902,9.0812,-2.4652,3.8025,-0.2247,0.1429,9.9422,8.2471,-2.8407,3.5003
4.9035,-1.0743,0.4454,-0.8406,7.0000,10.0707,-29.5194,-32.1705,23.0949,-20.5552,1488,1511,1.0000,-0.0796,-0.0110,9.6926,7.1575,-2.4500,4.1078,0.0315,-0.0271,9.9949,6.8425,-1.9629,3.9660
4.9218,-0.9517,0.3905,-0.7573,7.1336,9.6301,-24.0067,-33.6425,20.6520,-19.7459,1489,1510,1.0000,0.0520,-0.2265,9.9296,7.0430,-1.5645,4.5735,0.0004,-0.2976,9.8177,7.2242,-1.6041,4.4545
4.9402,-0.8373,0.3829,-0.6698,7.3206,9.2837,-18.8552,-35.0340,16.7538,-18.1864,1489,1510,1.0000,-0.1539,-0.2576,9.7716,7.2568,-1.2210,4.8559,-0.0379,-0.2737,9.7124,7.3845,-1.7720,4.6225
4.9586,-0.7223,0.3699,-0.5757,6.7939,8.9102,-20.3314,-20.4634,14.4526,-12.9560,1492,1507,1.0000,-0.1634,-0.1906,9.6615,6.8445,-1.8851,5.0773,-0.0667,-0.1276,9.7890,6.7432,-1.9705,5.1187
4.9769,-0.6425,0.3417,-0.4790,5.6947,8.4279,-26.3137,1.5386,12.8573,-5.9978,1496,1503,1.0000,-0.1060,-0.2385,9.6256,5.8445,-1.9385,5.4361,-0.0284,-0.2186,9.7818,5.5448,-2.2835,5.0652
4.9953,-0.6097,0.3158,-0.3800,5.5038,7.9893,-23.8966,-1.1139,12.2003,-6.4120,1496,1503,1.0000,-0.0916,-0.4276,9.7501,5.4934,-1.7553,5.3597,-0.0188,-0.4628,9.7004,5.5142,-1.9400,5.4393
5.0136,-0.6010,0.2639,-0.2804,6.0115,7.6926,-16.1669,-18.8337,12.0268,-11.2868,1493,1506,1.0000,0.0496,-0.5760,9.7477,5.6155,-1.6332,5.4132,-0.0332,-0.5466,9.4251,6.4074,-1.7644,5.4698
5.0320,-0.5931,0.2256,-0.1792,7.2939,7.6328,-3.2560,-49.0573,11.8677,-19.6699,1489,1510,1.0000,-0.0006,-0.6934,9.8123,6.9361,-1.7706,5.5582,0.0123,-0.6041,9.4921,7.6516,-1.4514,5.4851
5.0504,-0.5536,0.1802,-0.0775,8.0763,7.6993,3.6171,-61.7675,11.0778,-22.8338,1487,1512,1.0000,0.0233,-0.6000,9.6232,7.9590,-1.7095,5.6040,0.0770,-0.5825,9.6286,8.1936,-1.8636,5.4545
5.0687,-0.4776,0.1296,0.0263,8.4427,7.8108,6.0773,-60.3861,9.5574,-21.6868,1488,1511,1.0000,0.0903,-0.4587,9.6471,8.3789,-1.4500,5.7109,0.1009,-0.3598,9.6453,8.5066,-1.2758,5.5996
5.0871,-0.3961,0.1016,0.1296,8.8740,7.9703,8.6825,-58.8245,7.9268,-20.4343,1488,1511,1.0000,0.0975,-0.4611,9.7716,8.5774,-0.9767,5.6345,0.0650,-0.3766,9.6023,9.1707,0.7623,5.6377
5.1056,-0.2947,0.0465,0.2350,10.1527,8.2977,17.6760,-70.6821,5.8971,-22.7395,1487,1512,1.0000,0.1550,-0.4611,9.6902,9.8064,-1.0606,5.7338,0.1296,-0.4772,9.6070,10.4990,-0.8865,5.6530
5.1243,-0.1439,0.0185,0.3397,11.3282,8.7523,24.3000,-72.1184,2.8794,-21.6329,1488,1511,1.0000,0.0616,-0.3294,9.7740,10.9514,-0.6179,5.6956,0.0506,-0.2114,9.6860,11.7051,-0.7873,5.4774
5.1430,0.0310,-0.0102,0.4441,11.4733,9.1604,21.8213,-49.4005,-0.6199,-13.5222,1492,1507,1.0000,0.0664,-0.2049,9.6304,11.3942,-0.8164,5.8025,-0.0547,-0.0725,9.6621,11.5524,-0.6423,5.3400
5.1618,0.2234,0.0037,0.5443,10.9542,9.4295,14.3480,-13.0156,-4.4697,-1.4095,1499,1500,1.0000,-0.1108,-0.0541,9.6088,11.0125,-0.4423,5.4208,-0.0188,-0.0175,9.5424,10.8959,-0.6881,5.2408
5.1805,0.4197,-0.0214,0.6418,10.8893,9.6485,11.6974,14.6022,-8.3976,8.2874,1504,1495,1.0000,0.0544,0.0034,9.7668,10.8522,-0.7019,5.3292,-0.0834,0.0352,9.6837,10.9265,-0.6728,5.0805
5.1992,0.6201,-0.0358,0.7379,10.1183,9.7189,3.7722,60.4905,-12.4082,23.1414,1512,1487,1.0000,0.0544,0.1255,9.6663,10.0583,-0.2057,5.2834,0.0530,-0.0079,9.7651,10.1784,-0.0087,4.9889
5.2175,0.7726,-0.0503,0.8303,9.3282,9.6603,-3.1886,98.0884,-15.4602,35.1949,1519,1480,1.0000,0.1047,0.0129,9.6974,9.4552,0.3516,5.2071,-0.0284,0.2387,9.7962,9.2013,0.4875,4.8210
5.2359,0.9392,-0.0178,0.9203,8.4695,9.4817,-9.7232,136.0779,-18.7938,47.4987,1526,1473,1.0000,-0.0988,0.1805,9.5921,8.4323,0.4966,4.9170,-0.1720,0.1525,9.7770,8.5066,0.6173,4.8515
5.2543,1.1289,0.0100,1.0129,9.0229,9.4129,-3.7455,140.6943,-22.5903,50.6895,1527,1472,1.0000,-0.1203,0.2787,9.7692,8.0125,0.4203,5.2223,-0.0212,0.1334,9.7220,10.0333,-0.0697,4.8362
5.2727,1.2626,0.0247,1.1040,7.9160,9.1884,-12.2265,180.5031,-25.2766,63.1792,1534,1465,1.0000,-0.0533,0.1350,9.6519,7.8522,0.2829,4.9933,0.0171,0.2219,9.6501,7.9799,0.3425,4.9049
5.2910,1.3992,0.0393,1.1789,7.5763,8.9466,-13.1775,198.9571,-28.0220,69.7190,1538,1461,1.0000,-0.0294,0.2021,9.7309,7.6384,0.6340,5.1994,-0.0643,0.2339,9.7842,7.5142,0.5410,2.8286
5.3094,1.5239,0.0713,1.2731,7.2099,8.6861,-14.1680,216.1603,-30.5315,75.7906,1541,1458,1.0000,-0.1036,0.2021,9.7381,6.9667,0.7561,5.1231,-0.2606,0.2028,9.6597,7.4532,0.6402,5.0881
5.3278,1.6526,0.1186,1.3695,7.2137,8.4652,-12.0163,224.7735,-33.1221,79.4976,1543,1456,1.0000,-0.2305,0.2404,9.6687,7.1575,0.2752,5.2300,-0.1960,0.1717,9.8201,7.2700,0.0066,5.2484
5.3461,1.7801,0.1248,1.4645,6.9695,8.2408,-12.2265,240.0477,-35.6894,85.0580,1546,1453,1.0000,-0.1132,0.2787,9.7716,6.9361,-0.3126,5.3979,-0.0906,0.3081,9.8369,7.0028,-0.8942,4.9660
5.3645,1.9089,0.0895,1.5642,6.6031,7.9952,-13.3861,258.2120,-38.2851,91.4419,1550,1449,1.0000,0.1191,0.3409,9.7716,6.5163,-0.0988,5.5658,0.1177,0.2363,9.7555,6.6898,-0.1003,5.3019
5.3828,2.0290,0.1072,1.6697,6.4809,7.7680,-12.3649,269.0898,-40.7072,95.6987,1552,1447,1.0000,-0.0365,0.3218,9.5777,6.3713,0.8630,5.7414,-0.0164,0.4254,9.7914,6.5906,0.9684,5.6835
5.4012,2.1828,0.1649,1.7788,6.8702,7.6334,-7.3407,272.3141,-43.8043,98.1501,1553,1446,1.0000,-0.2329,0.4678,9.6998,8.0201,0.9928,6.1307,-0.1960,0.3584,9.9614,5.7203,0.6860,5.6759
5.4196,2.3180,0.1633,1.8907,4.7786,7.2052,-23.3096,333.8589,-46.5309,116.7460,1564,1435,1.0000,-0.0389,0.5827,9.6016,5.0354,0.1989,6.1002,0.0051,0.4590,9.8225,4.5219,-0.1461,6.0729
5.4379,2.4101,0.1545,2.0089,3.6679,6.6746,-28.8982,360.5544,-48.3973,125.1539,1568,1431,1.0000,-0.0198,0.5133,9.8004,3.6613,-0.0301,6.5200,0.0315,0.3967,9.9638,3.6745,-0.1690,6.3553
5.4563,2.5051,0.1766,2.1303,3.8817,6.2556,-22.8381,354.0353,-50.3228,124.2913,1568,1431,1.0000,-0.1299,0.5277,9.7932,3.6613,0.3134,6.6574,0.1703,0.2746,9.5975,4.1020,0.3959,6.5538
5.4746,2.5744,0.1836,2.2581,4.5687,6.0026,-13.7890,335.9545,-51.7355,119.9350,1565,1434,1.0000,-0.0605,0.3601,9.8123,4.3636,0.5882,6.9094,0.0291,0.3847,9.7818,4.7738,0.1135,7.0042
5.4930,2.6928,0.1778,2.3935,4.7481,5.7504,-10.1403,339.0649,-54.1294,119.6103,1565,1434,0.9804,-0.0413,0.5875,9.8099,4.8140,-0.0835,7.2605,-0.0044,0.4494,9.7722,4.6822,-0.0697,7.5232
5.5214,2.7439,0.1720,2.4734,4.2748,5.2905,-21.7666,378.4293,-55.1789,127.5405,1570,1429,0.9550,0.0209,0.5349,9.8387,4.1957,0.3745,7.8941,0.0866,0.3249,9.8824,4.3539,0.4723,7.9736
5.5397,2.8006,0.1502,2.6204,5.1298,5.1302,-3.4486,332.1945,-56.3402,117.8096,1564,1435,0.9721,0.1071,0.2978,9.8770,4.8293,0.8783,8.1307,0.1751,0.1980,9.7507,5.4303,0.7242,7.8362
5.5581,2.8737,0.1521,2.7707,6.9466,5.5993,11.3876,297.8783,-57.8310,111.0333,1561,1438,0.9885,0.0042,0.2284,9.9296,6.4705,1.0539,8.2910,0.1129,0.1788,9.6046,7.4226,0.7089,7.9584
5.5766,2.9772,0.1392,2.9412,8.5191,6.1484,22.7187,277.1617,-59.9319,107.5713,1559,1440,1.0000,0.1047,0.2428,9.7405,8.1575,1.1302,10.2681,0.1081,0.2004,9.7052,8.8806,1.5181,8.0500
5.5949,3.1268,0.1684,3.0944,9.7710,6.6918,29.5961,274.5728,-62.9557,108.3582,1559,1440,1.0000,-0.0581,0.3697,9.7190,9.3560,1.8859,8.3368,-0.0284,0.2435,9.6118,10.1860,1.3806,8.2026
5.6133,3.2727,0.1942,3.2253,10.9695,7.3335,34.9987,275.7980,-65.9055,110.1762,1560,1439,1.0000,-0.0916,0.2763,9.7884,10.6155,1.2676,6.3674,-0.1002,0.2674,9.7746,11.3234,0.8768,7.8973
5.6319,3.4528,0.2216,3.3702,13.3588,8.2373,48.5844,257.3931,-69.5414,106.8408,1558,1441,1.0000,-0.1634,0.2452,9.9320,13.9056,0.7409,7.9323,-0.2415,0.1932,9.7172,12.8119,0.0829,7.6301
5.6503,3.6369,0.2482,3.5081,14.2099,9.1332,48.6197,278.4857,-73.2612,114.6066,1563,1436,1.0000,-0.2137,0.2284,9.9440,13.6995,0.1913,7.6345,-0.1960,0.4326,9.9662,14.7203,-0.3980,7.3935
5.6687,3.8613,0.2510,3.6371,15.2901,10.0567,50.2842,299.5116,-77.7871,122.7568,1567,1432,1.0000,-0.1395,0.3577,9.9225,15.0048,-0.4271,7.3063,-0.0356,0.5691,9.8321,15.5753,-0.5048,6.8439
5.6871,4.1573,0.2318,3.7623,15.9504,10.9408,47.9061,340.4231,-83.7485,137.1927,1575,1424,1.0000,-0.0294,0.6665,9.8554,15.7377,-0.1294,7.0773,0.0985,0.8923,9.9997,16.1631,-0.5812,6.5767
5.7055,4.4530,0.1817,3.8794,15.8511,11.6773,40.1042,396.9202,-89.7066,155.9909,1585,1414,1.0000,0.1502,0.7360,9.8698,15.7606,-0.0148,6.5429,0.0794,0.8061,9.9949,15.9417,-0.0774,6.2637
5.7238,4.7405,0.1521,3.9915,15.8550,12.3040,34.1118,447.2718,-95.5051,172.9887,1595,1404,1.0000,0.1119,0.7479,9.9201,15.8369,0.6264,6.4208,0.1105,1.0503,10.0763,15.8730,0.4646,5.7446
5.7422,5.0501,0.1216,4.0992,15.4924,12.7822,26.0790,506.0377,-101.7477,192.5644,1605,1394,1.0000,0.1215,0.9443,9.9464,15.4476,0.5042,6.1155,0.1296,1.0048,9.9350,15.5371,0.6020,5.5843
5.7605,5.3809,0.1198,4.2058,14.8817,13.0971,17.1536,569.8168,-108.4180,213.7577,1617,1382,1.0000,0.1023,1.1574,9.9608,15.0659,1.0462,5.9552,0.1177,1.0360,10.0667,14.6974,2.7089,5.3477
5.7789,5.6772,0.0975,4.3051,14.1870,13.2606,8.9099,627.6495,-114.3988,232.9413,1628,1371,1.0000,0.0736,1.1047,9.9129,14.1575,0.5653,5.7338,0.1488,1.0767,9.8919,14.2165,0.2738,5.0500
5.7972,5.8894,0.0860,4.3942,13.0802,13.2336,-1.4769,681.9883,-118.7020,250.3077,1637,1362,1.0000,-0.0030,0.8413,9.8195,13.2415,0.1226,5.2071,0.1081,1.0575,9.8465,12.9188,-0.0087,4.5461
5.8165,6.0878,0.0841,4.4833,12.0954,13.0628,-8.8682,726.1172,-122.7321,264.6789,1645,1354,1.0000,-0.0270,0.8701,9.9656,12.1270,0.2600,4.7719,-0.1050,0.9139,10.0907,12.0639,0.2203,4.4927
5.8349,6.2486,0.0715,4.5811,11.0344,12.7586,-16.4906,766.5700,-126.0093,277.6442,1652,1347,1.0000,-0.0102,0.8509,9.8482,11.1270,0.0844,6.3139,-0.0092,0.7247,9.9949,10.9417,-0.1919,4.3248
