timestamp,roll_deg,pitch_deg,yaw_deg,omega_raw,omega_filtered,alpha,tau_ff,tau_pid,tau_total,pwm_left,pwm_right,deadzone_factor,accel1_x,accel1_y,accel1_z,gyro1_x,gyro1_y,gyro1_z,accel2_x,accel2_y,accel2_z,gyro2_x,gyro2_y,gyro2_z
0.0101,0.0108,0.0063,-0.0007,1.0257,0.0000,0.0000,1.0313,-0.2152,0.0000,1500,1500,0.0000,-0.0336,0.0037,9.8049,2.0514,0.4906,-0.1365,0.0000,0.0000,9.8000,0.0000,0.0000,0.0000
0.0293,0.0204,0.0150,-0.0035,1.3348,0.0000,0.0000,1.9580,-0.4086,0.0000,1500,1500,0.0000,-0.0168,-0.0705,9.7618,2.6697,0.5441,-0.2968,0.0000,0.0000,9.8000,0.0000,0.0000,0.0000
0.0485,0.0516,0.0914,-0.0074,1.1516,0.0000,0.0000,4.9444,-1.0318,0.0000,1500,1500,0.0000,-0.3113,0.0444,9.7187,2.3033,0.8342,-0.4037,0.0000,0.0000,9.8000,0.0000,0.0000,0.0000
0.0674,0.0634,0.1539,-0.0098,0.3845,0.0000,-0.0000,6.0807,-1.2689,0.0000,1500,1500,0.0000,-0.3209,0.0301,9.7977,0.7689,-0.3872,-0.2510,0.0000,0.0000,9.8000,0.0000,0.0000,0.0000
0.0865,0.0825,0.1610,-0.0107,-0.2491,0.0000,-0.0000,7.9138,-1.6514,0.0000,1500,1500,0.0000,-0.0671,0.1210,9.8671,-0.4982,-0.1735,-0.1060,0.0000,0.0000,9.8000,0.0000,0.0000,0.0000
0.1054,0.0735,0.1600,-0.0082,-0.1652,0.0000,-0.0000,7.0477,-1.4707,0.0000,1500,1500,0.0000,-0.0000,-0.0130,9.8959,-0.3303,0.5365,0.2605,0.0000,0.0000,9.8000,0.0000,0.0000,0.0000
0.1242,0.1188,0.1999,-0.0051,-0.2873,0.0000,-0.0000,11.3879,-2.3764,0.0000,1500,1500,0.0000,-0.1748,0.2384,9.3955,-0.5746,0.7197,0.3215,0.0000,0.0000,9.8000,0.0000,0.0000,0.0000
0.1425,0.1231,0.2611,-0.0038,-0.4934,0.0000,-0.0000,11.8057,-2.4636,0.0000,1500,1500,0.0000,-0.3472,0.0827,9.5894,-0.9868,-0.6468,0.1307,0.0000,0.0000,9.8000,0.0000,0.0000,0.0000
0.1608,0.1177,0.2753,-0.0012,-1.2300,0.0000,-0.0000,11.2869,-2.3553,0.0000,1500,1500,0.0000,-0.2083,0.1019,9.6971,-2.4601,-2.2193,0.2834,0.0000,0.0000,9.8000,0.0000,0.0000,0.0000
0.1790,0.1029,0.2423,0.0012,-1.8980,0.0000,-0.0000,9.8664,-2.0589,0.0000,1500,1500,0.0000,0.0574,0.1139,9.6852,-3.7960,-1.1887,0.2528,0.0000,0.0000,9.8000,0.0000,0.0000,0.0000
0.1973,0.0320,0.2465,0.0034,-1.8484,0.0000,-0.0000,3.0715,-0.6409,0.0000,1500,1500,0.0000,-0.0719,-0.1567,9.7139,-3.6967,-0.2422,0.2605,0.0000,0.0000,9.8000,0.0000,0.0000,0.0000
0.2156,-0.0683,0.2643,0.0049,-1.4934,0.0000,-0.0000,-6.5465,1.3661,-0.0000,1500,1500,0.0000,-0.1916,-0.3410,9.7043,-2.9868,-1.4865,0.2070,0.0000,0.0000,9.8000,0.0000,0.0000,0.0000
0.2338,-0.1443,0.2718,0.0072,-1.3751,0.0000,-0.0000,-13.8341,2.8868,-0.0000,1500,1500,0.0000,-0.1197,-0.2549,9.7498,-2.7502,-0.8834,0.2757,0.0000,0.0000,9.8000,0.0000,0.0000,0.0000
0.2520,-0.1982,0.2053,0.0106,-1.9896,0.0000,-0.0000,-19.0093,3.9668,-0.0000,1500,1500,0.0000,0.1532,-0.1088,9.6971,-3.9792,-2.6620,0.3673,0.0000,0.0000,9.8000,0.0000,0.0000,0.0000
0.2702,-0.2617,0.1080,0.0152,-2.0697,0.0000,-0.0000,-25.0919,5.2360,-0.0000,1500,1500,0.0000,0.3663,-0.1591,9.8456,-4.1395,-1.5246,0.5047,0.0000,0.0000,9.8000,0.0000,0.0000,0.0000
0.2884,-0.3569,0.0594,0.0183,-1.3178,0.0000,-0.0000,-34.2282,7.1426,-0.0000,1500,1500,0.0000,0.2130,-0.3889,9.8025,-2.6356,-0.0437,0.3521,0.0000,0.0000,9.8000,0.0000,0.0000,0.0000
0.3070,-0.4037,0.0546,0.0227,-0.6766,0.0000,0.0000,-38.7099,8.0778,-0.0000,1500,1500,0.0000,0.0407,-0.2237,9.8671,-1.3532,0.6433,0.4818,0.0000,0.0000,9.8000,0.0000,0.0000,0.0000
0.3264,-0.3984,0.0773,0.0266,-0.7682,0.0000,0.0000,-38.2033,7.9721,-0.0000,1500,1500,0.0000,-0.1078,0.0205,9.8552,-1.5364,0.1013,0.3979,0.0000,0.0000,9.8000,0.0000,0.0000,0.0000
0.3457,-0.4048,0.0637,0.0317,-1.0621,0.0000,-0.0000,-38.8196,8.1007,-0.0000,1500,1500,0.0000,0.0191,-0.0059,9.7690,-2.1242,-0.6544,0.5200,0.0000,0.0000,9.8000,0.0000,0.0000,0.0000
0.3649,-0.4157,0.0540,0.0373,-0.7873,0.0000,0.0000,-39.8610,8.3180,-0.0000,1500,1500,0.0000,0.0167,-0.0513,9.7905,-1.5746,-0.3796,0.5887,0.0000,0.0000,9.8000,0.0000,0.0000,0.0000
0.3834,-0.4328,0.0526,0.0413,-0.2377,0.0000,0.0000,-41.5052,8.6611,-0.0000,1500,1500,0.0000,0.0167,-0.1327,9.8097,-0.4753,0.4448,0.4284,0.0000,0.0000,9.8000,0.0000,0.0000,0.0000
0.4024,-0.4385,0.0750,0.0455,-1.2644,0.0000,-0.0000,-42.0522,8.7752,-0.0000,1500,1500,0.0000,-0.1030,0.0085,9.8288,-2.5288,0.2158,0.4437,0.0000,0.0000,9.8000,0.0000,0.0000,0.0000
0.4220,-0.4539,0.0843,0.0479,-0.6423,0.0000,0.0000,-43.5250,9.0826,-0.0000,1500,1500,0.0000,-0.0982,-0.0897,9.8815,-1.2845,-0.9826,0.2452,0.0000,0.0000,9.8000,0.0000,0.0000,0.0000
0.4413,-0.5173,0.0420,0.0507,-0.3865,0.0000,0.0000,-49.6017,10.3506,-0.0000,1500,1500,0.0000,0.1412,-0.3339,9.8839,-0.7731,-0.8223,0.2834,0.0000,0.0000,9.8000,0.0000,0.0000,0.0000
0.4602,-0.5500,-0.0062,0.0496,-0.0888,0.0000,0.0000,-52.7426,11.0060,-0.0000,1500,1500,0.0000,0.2466,-0.2357,9.8647,-0.1776,0.6662,-0.1060,0.0000,0.0000,9.8000,0.0000,0.0000,0.0000
0.4788,-0.5667,-0.0250,0.0487,0.3272,0.0000,0.0000,-54.3408,11.3395,-0.0000,1500,1500,0.0000,0.1101,-0.2046,9.8887,0.6544,0.4525,-0.0983,0.0000,0.0000,9.8000,0.0000,0.0000,0.0000
0.4978,-0.5645,-0.0767,0.0462,0.3425,0.0000,0.0000,-54.1321,11.2960,-0.0000,1500,1500,0.0000,0.2418,-0.1208,9.9605,0.6850,-0.0742,-0.2586,0.0000,0.0000,9.8000,0.0000,0.0000,0.0000
0.5172,-0.5612,-0.0866,0.0449,0.2700,0.0000,0.0000,-53.8185,11.2306,-0.0000,1500,1500,0.0000,0.0718,-0.1088,9.9318,0.5399,0.2922,-0.1365,0.0000,0.0000,9.8000,0.0000,0.0000,0.0000
0.5367,-0.5730,-0.1274,0.0414,0.6020,0.0000,0.0000,-54.9471,11.4661,-0.0000,1500,1500,0.0000,0.2298,-0.2046,9.8695,1.2040,0.7120,-0.3502,0.0000,0.0000,9.8000,0.0000,0.0000,0.0000
0.5556,-0.5615,-0.1419,0.0388,1.0257,0.0000,0.0000,-53.8464,11.2364,-0.0000,1500,1500,0.0000,0.1747,-0.1375,9.8719,2.0514,1.9334,-0.2586,0.0000,0.0000,9.8000,0.0000,0.0000,0.0000
0.5741,-0.5596,-0.1357,0.0347,1.1822,0.0000,0.0000,-53.6578,11.1970,-0.0000,1500,1500,0.0000,0.0838,-0.1926,9.8336,2.3644,2.0174,-0.4266,0.0000,0.0000,9.8000,0.0000,0.0000,0.0000
0.5933,-0.5103,-0.0881,0.0319,1.2661,0.0000,0.0000,-48.9346,10.2114,-0.0000,1500,1500,0.0000,-0.1341,0.0157,9.6277,2.5323,1.2922,-0.2815,0.0000,0.0000,9.8000,0.0000,0.0000,0.0000
0.6126,-0.4465,-0.0809,0.0277,1.2432,0.0000,0.0000,-42.8111,8.9336,-0.0000,1500,1500,0.0000,-0.0000,0.0899,9.7977,2.4865,0.3914,-0.4266,0.0000,0.0000,9.8000,0.0000,0.0000,0.0000
0.6319,-0.3590,-0.0781,0.0234,0.9608,0.0000,0.0000,-34.4206,7.1827,-0.0000,1500,1500,0.0000,0.0143,0.2312,9.6540,1.9216,0.3074,-0.4266,0.0000,0.0000,9.8000,0.0000,0.0000,0.0000
0.6507,-0.3234,-0.0984,0.0206,0.7929,0.0000,0.0000,-31.0127,6.4716,-0.0000,1500,1500,0.0000,0.1364,0.0325,9.6253,1.5857,0.7120,-0.2968,0.0000,0.0000,9.8000,0.0000,0.0000,0.0000
0.6693,-0.3046,-0.0406,0.0145,0.7661,0.0000,0.0000,-29.2070,6.0948,-0.0000,1500,1500,0.0000,-0.1221,-0.0346,9.7378,1.5323,3.0174,-0.6403,0.0000,0.0000,9.8000,0.0000,0.0000,0.0000
0.6884,-0.2853,-0.0286,0.0103,0.3845,0.0000,-0.0000,-27.3586,5.7091,-0.0000,1500,1500,0.0000,-0.0479,0.0013,9.6540,0.7689,-0.0132,-0.4342,0.0000,0.0000,9.8000,0.0000,0.0000,0.0000
0.7078,-0.2796,0.0035,0.0044,0.1287,0.0000,-0.0000,-26.8108,5.5947,-0.0000,1500,1500,0.0000,-0.1293,-0.0346,9.5679,0.2575,0.1548,-0.6098,0.0000,0.0000,9.8000,0.0000,0.0000,0.0000
0.7272,-0.2841,0.0398,-0.0018,-0.1155,0.0000,-0.0000,-27.2414,5.6846,-0.0000,1500,1500,0.0000,-0.1557,-0.0585,9.7283,-0.2311,0.1700,-0.6403,0.0000,0.0000,9.8000,0.0000,0.0000,0.0000
0.7458,-0.3226,0.0586,-0.0074,-0.3255,0.0000,-0.0000,-30.9373,6.4558,-0.0000,1500,1500,0.0000,-0.1221,-0.1974,9.6038,-0.6509,-0.6773,-0.6021,0.0000,0.0000,9.8000,0.0000,0.0000,0.0000
0.7647,-0.3576,0.0828,-0.0108,-0.2339,0.0000,-0.0000,-34.2914,7.1558,-0.0000,1500,1500,0.0000,-0.1437,-0.1950,9.6732,-0.4677,-0.5323,-0.3502,0.0000,0.0000,9.8000,0.0000,0.0000,0.0000
0.7841,-0.4148,0.1068,-0.0127,-0.0430,0.0000,-0.0000,-39.7734,8.2997,-0.0000,1500,1500,0.0000,-0.1197,-0.3123,9.6708,-0.0860,0.0250,-0.1899,0.0000,0.0000,9.8000,0.0000,0.0000,0.0000
0.8035,-0.4554,0.1580,-0.0121,0.1707,0.0000,-0.0000,-43.6653,9.1118,-0.0000,1500,1500,0.0000,-0.2395,-0.2692,9.7714,0.3415,0.2082,0.0773,0.0000,0.0000,9.8000,0.0000,0.0000,0.0000
0.8226,-0.4751,0.1856,-0.0104,0.0753,0.0000,-0.0000,-45.5553,9.5062,-0.0000,1500,1500,0.0000,-0.1557,-0.1758,9.7929,0.1506,-0.0513,0.1765,0.0000,0.0000,9.8000,0.0000,0.0000,0.0000
0.8413,-0.5070,0.2205,-0.0062,-0.0125,0.0000,-0.0000,-48.6205,10.1459,-0.0000,1500,1500,0.0000,-0.2323,-0.2333,9.8911,-0.0250,-0.8071,0.4589,0.0000,0.0000,9.8000,0.0000,0.0000,0.0000
0.8602,-0.5394,0.2131,-0.0011,0.2585,0.0000,0.0000,-51.7272,10.7942,-0.0000,1500,1500,0.0000,-0.0336,-0.2620,9.8528,0.5170,-0.6697,0.5505,0.0000,0.0000,9.8000,0.0000,0.0000,0.0000
0.8798,-0.5267,0.1974,0.0071,0.4303,0.0000,0.0000,-50.5085,10.5398,-0.0000,1500,1500,0.0000,0.0407,-0.0753,9.8121,0.8605,0.1777,0.8330,0.0000,0.0000,9.8000,0.0000,0.0000,0.0000
0.9019,-0.4887,0.1811,0.0159,0.2700,0.0000,0.0000,-46.8632,9.7792,-0.0000,1500,1500,0.0000,0.0359,0.0348,9.8049,0.5399,0.1242,0.7948,0.0000,0.0000,9.8000,0.0000,0.0000,0.0000
0.9212,-0.4193,0.1846,0.0266,-0.2873,0.0000,-0.0000,-40.2025,8.3893,-0.0000,1500,1500,0.0000,-0.0599,0.2503,9.6636,-0.5746,-0.3185,1.0773,0.0000,0.0000,9.8000,0.0000,0.0000,0.0000
0.9405,-0.3753,0.1805,0.0338,-0.9743,0.0000,-0.0000,-35.9889,7.5100,-0.0000,1500,1500,0.0000,-0.0455,0.2096,9.7594,-1.9486,-0.7307,0.7185,0.0000,0.0000,9.8000,0.0000,0.0000,0.0000
0.9595,-0.3400,0.1656,0.0406,-1.4400,0.0000,-0.0000,-32.5991,6.8026,-0.0000,1500,1500,0.0000,-0.0407,0.2216,9.7714,-2.8799,-1.7918,0.6879,0.0000,0.0000,9.8000,0.0000,0.0000,0.0000
0.9789,-0.3133,0.1185,0.0463,-1.5965,0.0000,-0.0000,-30.0413,6.2689,-0.0000,1500,1500,0.0000,0.1149,0.2000,9.8097,-3.1929,-1.5552,0.5582,0.0000,0.0000,9.8000,0.0000,0.0000,0.0000
0.9984,-0.2842,0.0816,0.0503,-1.6995,0.0000,-0.0000,-27.2476,5.6859,-0.0000,1500,1500,0.0000,0.0933,0.2216,9.6804,-3.3990,-1.1582,0.3902,0.0000,0.0000,9.8000,0.0000,0.0000,0.0000
1.0174,-0.3005,0.0570,0.0536,-1.8216,0.0000,-0.0000,-28.8109,6.0121,-0.0000,1500,1500,0.0000,0.0670,0.0348,9.8288,-3.6433,-0.7231,0.3444,0.0000,0.0000,9.8000,0.0000,0.0000,0.0000
1.0360,-0.3436,0.0442,0.0556,-1.5926,0.0000,-0.0000,-32.9435,6.8745,-0.0000,1500,1500,0.0000,0.0071,-0.1184,9.9366,-3.1853,-0.9979,0.2070,0.0000,0.0000,9.8000,0.0000,0.0000,0.0000
1.0548,-0.3732,0.0227,0.0583,-1.2797,0.0000,-0.0000,-35.7837,7.4672,-0.0000,1500,1500,0.0000,0.0287,-0.0849,9.7450,-2.5593,-1.4406,0.2834,0.0000,0.0000,9.8000,0.0000,0.0000,0.0000
1.0743,-0.4066,0.0034,0.0596,-1.2110,0.0000,-0.0000,-38.9862,8.1354,-0.0000,1500,1500,0.0000,0.0215,-0.1088,9.8001,-2.4219,-1.3948,0.1231,0.0000,0.0000,9.8000,0.0000,0.0000,0.0000
1.0938,-0.4864,0.0006,0.0590,-0.8026,0.0000,0.0000,-46.6377,9.7321,-0.0000,1500,1500,0.0000,0.0550,-0.3578,9.7522,-1.6051,0.9945,-0.0602,0.0000,0.0000,9.8000,0.0000,0.0000,0.0000
1.1127,-0.5222,-0.0232,0.0592,-0.6690,0.0000,0.0000,-50.0763,10.4497,-0.0000,1500,1500,0.0000,0.0838,-0.1926,9.8504,-1.3379,-0.6086,0.0162,0.0000,0.0000,9.8000,0.0000,0.0000,0.0000
1.1313,-0.5551,-0.0151,0.0624,-0.7071,0.0000,0.0000,-53.2242,11.1066,-0.0000,1500,1500,0.0000,-0.0575,-0.1854,9.8815,-1.4143,-0.5246,0.3368,0.0000,0.0000,9.8000,0.0000,0.0000,0.0000
1.1502,-0.5628,-0.0048,0.0657,-0.3636,0.0000,0.0000,-53.9721,11.2626,-0.0000,1500,1500,0.0000,0.0024,-0.1016,9.8623,-0.7273,1.0784,0.3673,0.0000,0.0000,9.8000,0.0000,0.0000,0.0000
1.1696,-0.5627,0.0170,0.0691,-0.3522,0.0000,0.0000,-53.9622,11.2605,-0.0000,1500,1500,0.0000,-0.1245,-0.0681,9.9557,-0.7044,-0.5857,0.3444,0.0000,0.0000,9.8000,0.0000,0.0000,0.0000
1.1890,-0.5432,0.0255,0.0730,-0.5163,0.0000,0.0000,-52.0872,10.8693,-0.0000,1500,1500,0.0000,-0.0886,0.0348,9.7977,-1.0326,-1.0895,0.3826,0.0000,0.0000,9.8000,0.0000,0.0000,0.0000
1.2079,-0.5309,0.0374,0.0756,-0.7224,0.0000,-0.0000,-50.9072,10.6231,-0.0000,1500,1500,0.0000,-0.0814,0.0253,9.8528,-1.4448,-0.4941,0.2757,0.0000,0.0000,9.8000,0.0000,0.0000,0.0000
1.2265,-0.5337,0.0409,0.0802,-0.8713,0.0000,-0.0000,-51.1816,10.6803,-0.0000,1500,1500,0.0000,-0.0767,-0.0298,9.7091,-1.7425,-1.2574,0.4818,0.0000,0.0000,9.8000,0.0000,0.0000,0.0000
1.2457,-0.5415,0.0372,0.0845,-0.9972,0.0000,-0.0000,-51.9250,10.8354,-0.0000,1500,1500,0.0000,-0.0527,-0.0418,9.8839,-1.9944,-1.4177,0.4284,0.0000,0.0000,9.8000,0.0000,0.0000,0.0000
1.2651,-0.5689,0.0247,0.0889,-1.1499,0.0000,-0.0000,-54.5476,11.3827,-0.0000,1500,1500,0.0000,-0.0192,-0.1184,9.9150,-2.2998,-1.5781,0.4437,0.0000,0.0000,9.8000,0.0000,0.0000,0.0000
1.2846,-0.6093,-0.0193,0.0910,-0.8942,0.0000,-0.0000,-58.4269,12.1922,-0.0000,1500,1500,0.0000,0.1197,-0.2070,10.0419,-1.7883,-1.7307,0.1994,0.0000,0.0000,9.8000,0.0000,0.0000,0.0000
1.3035,-0.6143,-0.0818,0.0938,-0.6842,0.0000,0.0000,-58.9070,12.2924,-0.0000,1500,1500,0.0000,0.2585,-0.0705,9.9078,-1.3685,-0.8376,0.2834,0.0000,0.0000,9.8000,0.0000,0.0000,0.0000
1.3220,-0.6758,-0.1231,0.0988,-0.3369,0.0000,0.0000,-64.8023,13.5226,-0.0000,1500,1500,0.0000,0.2083,-0.3722,9.9126,-0.6738,-0.0819,0.5276,0.0000,0.0000,9.8000,0.0000,0.0000,0.0000
1.3411,-0.7256,-0.1355,0.1035,0.1287,0.0000,0.0000,-69.5762,14.5188,-0.0000,1500,1500,0.0000,0.0766,-0.3674,10.0826,0.2575,-0.0971,0.4818,0.0000,0.0000,9.8000,0.0000,0.0000,0.0000
1.3605,-0.7426,-0.1596,0.1119,0.4570,0.0000,0.0000,-71.2075,14.8592,-0.0000,1500,1500,0.0000,0.1436,-0.2501,10.0778,0.9140,0.1548,0.8635,0.0000,0.0000,9.8000,0.0000,0.0000,0.0000
1.3797,-0.7516,-0.2030,0.1200,0.7700,0.0000,0.0000,-72.0671,15.0386,-0.0000,1500,1500,0.0000,0.2681,-0.2381,9.8288,1.5399,0.9716,0.8482,0.0000,0.0000,9.8000,0.0000,0.0000,0.0000
1.3984,-0.7336,-0.2082,0.1297,0.9341,0.0000,0.0000,-70.3460,14.6794,-0.0000,1500,1500,0.0000,0.1340,-0.1304,9.9198,1.8682,1.6510,1.0544,0.0000,0.0000,9.8000,0.0000,0.0000,0.0000
1.4170,-0.7040,-0.1623,0.1400,1.2356,0.0000,0.0000,-67.5056,14.0867,-0.0000,1500,1500,0.0000,-0.0982,-0.0968,9.7929,2.4712,1.8342,1.1307,0.0000,0.0000,9.8000,0.0000,0.0000,0.0000
1.4362,-0.6351,-0.1262,0.1508,1.1669,0.0000,0.0000,-60.9048,12.7093,-0.0000,1500,1500,0.0000,-0.0814,0.0875,9.7235,2.3338,1.2082,1.1536,0.0000,0.0000,9.8000,0.0000,0.0000,0.0000
1.4555,-0.5911,-0.1153,0.1618,1.0829,0.0000,0.0000,-56.6815,11.8280,-0.0000,1500,1500,0.0000,-0.0288,-0.0059,9.5200,2.1659,-0.0590,1.1460,0.0000,0.0000,9.8000,0.0000,0.0000,0.0000
1.4747,-0.5531,-0.1322,0.1742,0.8997,0.0000,0.0000,-53.0336,11.0668,-0.0000,1500,1500,0.0000,0.1101,-0.0082,9.7187,1.7995,0.2998,1.2986,0.0000,0.0000,9.8000,0.0000,0.0000,0.0000
1.4932,-0.5258,-0.1380,0.1836,0.9341,0.0000,0.0000,-50.4179,10.5209,-0.0000,1500,1500,0.0000,0.0862,-0.0489,9.6828,1.8682,0.8418,1.0315,0.0000,0.0000,9.8000,0.0000,0.0000,0.0000
1.5119,-0.5100,-0.1165,0.1939,1.3196,0.0000,0.0000,-48.9087,10.2060,-0.0000,1500,1500,0.0000,0.0574,-0.1351,9.9390,2.6392,3.0403,1.1231,0.0000,0.0000,9.8000,0.0000,0.0000,0.0000
1.5311,-0.4844,-0.1070,0.2026,1.2890,0.0000,0.0000,-46.4519,9.6933,-0.0000,1500,1500,0.0000,0.0048,-0.0849,9.7666,2.5781,0.6204,0.9093,0.0000,0.0000,9.8000,0.0000,0.0000,0.0000
1.5505,-0.4381,-0.1068,0.2118,1.3883,0.0000,0.0000,-42.0057,8.7655,-0.0000,1500,1500,0.0000,0.0359,0.0037,9.8121,2.7766,0.4067,0.9627,0.0000,0.0000,9.8000,0.0000,0.0000,0.0000
1.5695,-0.4218,-0.1227,0.2213,1.3387,0.0000,0.0000,-40.4474,8.4404,-0.0000,1500,1500,0.0000,0.1125,-0.1184,9.7762,2.6773,0.4830,1.0009,0.0000,0.0000,9.8000,0.0000,0.0000,0.0000
1.5880,-0.3899,-0.1258,0.2295,1.6173,0.0000,0.0000,-37.3834,7.8010,-0.0000,1500,1500,0.0000,0.0909,-0.0633,9.7043,3.2346,1.2693,0.8940,0.0000,0.0000,9.8000,0.0000,0.0000,0.0000
1.6068,-0.3227,-0.1187,0.2368,1.9035,0.0000,0.0000,-30.9462,6.4577,-0.0000,1500,1500,0.0000,0.0909,0.0779,9.9078,3.8071,2.3074,0.7948,0.0000,0.0000,9.8000,0.0000,0.0000,0.0000
1.6261,-0.2614,-0.0672,0.2440,1.8654,0.0000,0.0000,-25.0638,5.2302,-0.0000,1500,1500,0.0000,-0.1221,0.0588,9.8432,3.7308,2.0708,0.7643,0.0000,0.0000,9.8000,0.0000,0.0000,0.0000
1.6455,-0.1803,-0.0348,0.2519,1.8043,0.0000,0.0000,-17.2844,3.6068,-0.0000,1500,1500,0.0000,-0.0743,0.1665,10.0204,3.6086,1.4143,0.8330,0.0000,0.0000,9.8000,0.0000,0.0000,0.0000
1.6643,-0.1167,0.0304,0.2594,1.7852,0.0000,0.0000,-11.1939,2.3359,-0.0000,1500,1500,0.0000,-0.1652,0.1067,9.7953,3.5705,2.9868,0.8024,0.0000,0.0000,9.8000,0.0000,0.0000,0.0000
1.6828,-0.0416,0.0489,0.2671,2.5906,0.0000,0.0000,-3.9847,0.8315,-0.0000,1500,1500,0.0000,-0.0407,0.1091,9.7953,5.1811,1.1929,0.8330,0.0000,0.0000,9.8000,0.0000,0.0000,0.0000
1.7017,-0.0002,0.0861,0.2765,1.3654,0.0000,-0.0000,-0.0193,0.0040,-0.0000,1500,1500,0.0000,-0.1221,0.0636,9.7714,2.7308,1.3074,0.9856,0.0000,0.0000,9.8000,0.0000,0.0000,0.0000
1.7213,0.0715,0.1377,0.2858,0.9265,0.0000,-0.0000,6.8549,-1.4305,0.0000,1500,1500,0.0000,-0.2155,0.2384,9.7642,1.8529,0.6739,0.9398,0.0000,0.0000,9.8000,0.0000,0.0000,0.0000
1.7409,0.0999,0.1689,0.2946,0.4341,0.0000,-0.0000,9.5756,-1.9982,0.0000,1500,1500,0.0000,-0.1533,0.1019,9.9126,0.8682,0.2616,0.8940,0.0000,0.0000,9.8000,0.0000,0.0000,0.0000
1.7598,0.1110,0.1935,0.3028,0.3730,0.0000,-0.0000,10.6460,-2.2216,0.0000,1500,1500,0.0000,-0.1700,0.0372,10.0299,0.7460,-0.5246,0.8711,0.0000,0.0000,9.8000,0.0000,0.0000,0.0000
1.7783,0.1233,0.2130,0.3119,0.1555,0.0000,-0.0000,11.8274,-2.4681,0.0000,1500,1500,0.0000,-0.1365,0.0636,9.7905,0.3109,-0.2498,0.9780,0.0000,0.0000,9.8000,0.0000,0.0000,0.0000
1.7977,0.1334,0.2020,0.3203,-0.1308,0.0000,-0.0000,12.7905,-2.6691,0.0000,1500,1500,0.0000,0.0191,0.0779,9.7953,-0.2616,0.1624,0.8559,0.0000,0.0000,9.8000,0.0000,0.0000,0.0000
1.8206,0.0865,0.1906,0.3335,0.0257,0.0000,-0.0000,8.2990,-1.7318,0.0000,1500,1500,0.0000,0.0359,-0.1591,9.8959,0.0514,0.6281,1.1689,0.0000,0.0000,9.8000,0.0000,0.0000,0.0000
1.8399,0.0386,0.1952,0.3450,0.3234,0.0000,-0.0000,3.7034,-0.7728,0.0000,1500,1500,0.0000,-0.0048,-0.2261,9.6349,0.6468,1.1242,1.1994,0.0000,0.0000,9.8000,0.0000,0.0000,0.0000
1.8581,-0.0271,0.2114,0.3546,0.6058,0.0000,-0.0000,-2.5994,0.5424,-0.0000,1500,1500,0.0000,-0.0623,-0.3578,9.7043,1.2117,1.1166,1.0925,0.0000,0.0000,9.8000,0.0000,0.0000,0.0000
1.8763,-0.0587,0.2467,0.3661,0.7814,0.0000,0.0000,-5.6295,1.1747,-0.0000,1500,1500,0.0000,-0.1581,-0.2285,9.9581,1.5628,1.1624,1.2834,0.0000,0.0000,9.8000,0.0000,0.0000,0.0000
1.8946,-0.0774,0.2860,0.3660,0.9952,0.0000,0.0000,-7.4246,1.5493,-0.0000,1500,1500,0.0000,-0.2299,-0.0992,9.7355,1.9903,0.5975,1.4437,0.0000,0.0000,9.8000,0.0000,0.0000,0.0000
1.9134,-0.0934,0.3167,0.3660,1.0982,0.0000,0.0000,-8.9582,1.8694,-0.0000,1500,1500,0.0000,-0.1916,-0.0873,9.7666,2.1964,-0.0208,1.3597,0.0000,0.0000,9.8000,0.0000,0.0000,0.0000
1.9320,-0.0968,0.3198,0.3659,1.1555,0.0000,0.0000,-9.2843,1.9374,-0.0000,1500,1500,0.0000,-0.0695,-0.0322,9.7666,2.3109,-0.1811,1.4208,0.0000,0.0000,9.8000,0.0000,0.0000,0.0000
1.9504,-0.0603,0.3075,0.3661,0.9265,0.0000,0.0000,-5.7815,1.2064,-0.0000,1500,1500,0.0000,0.0024,0.1546,9.7378,1.8529,-0.1582,1.1918,0.0000,0.0000,9.8000,0.0000,0.0000,0.0000
1.9689,-0.0165,0.3099,0.3664,0.6211,0.0000,-0.0000,-1.5822,0.3302,-0.0000,1500,1500,0.0000,-0.0647,0.1953,9.7163,1.2422,0.1013,1.0467,0.0000,0.0000,9.8000,0.0000,0.0000,0.0000
1.9873,0.0102,0.3097,0.3665,0.3997,0.0000,-0.0000,0.9818,-0.2049,0.0000,1500,1500,0.0000,-0.0527,0.1234,9.7498,0.7995,-0.5094,0.8482,0.0000,0.0000,9.8000,0.0000,0.0000,0.0000
2.0057,0.0563,0.2917,0.3668,0.3310,0.0000,-0.0000,5.4005,-1.1269,0.0000,1500,1500,0.0000,0.0311,0.2216,9.9054,0.6621,-0.1735,0.9398,0.0000,0.0000,9.8000,0.0000,0.0000,0.0000
2.0242,0.0935,0.2675,0.3669,0.3043,0.0000,-0.0000,8.9633,-1.8704,0.0000,1500,1500,0.0000,0.0646,0.1881,9.9126,0.6086,0.0632,0.5276,0.0000,0.0000,9.8000,0.0000,0.0000,0.0000
2.0425,0.0962,0.2616,0.3669,0.2852,0.0000,-0.0000,9.2290,-1.9259,0.0000,1500,1500,0.0000,-0.0192,0.0301,9.9964,0.5705,0.2082,0.4589,0.0000,0.0000,9.8000,0.0000,0.0000,0.0000
2.0610,0.1235,0.2591,0.3671,0.2776,0.0000,-0.0000,11.8451,-2.4718,0.0000,1500,1500,0.0000,-0.0336,0.1450,9.7522,0.5552,-0.1048,0.0391,0.0000,0.0000,9.8000,0.0000,0.0000,0.0000
2.0794,0.1384,0.2506,0.3671,0.2547,0.0000,-0.0000,13.2702,-2.7692,0.0000,1500,1500,0.0000,-0.0048,0.0923,9.8288,0.5094,0.2311,0.0544,0.0000,0.0000,9.8000,0.0000,0.0000,0.0000
2.0978,0.1295,0.2404,0.3671,0.5829,0.0000,0.0000,12.4213,-2.5920,0.0000,1500,1500,0.0000,0.0048,-0.0178,9.7785,1.1659,0.6433,0.0849,0.0000,0.0000,9.8000,0.0000,0.0000,0.0000
2.1163,0.1402,0.2451,0.3671,0.9684,0.0000,0.0000,13.4405,-2.8047,0.0000,1500,1500,0.0000,-0.0647,0.0732,9.8384,1.9369,0.5899,-0.2586,0.0000,0.0000,9.8000,0.0000,0.0000,0.0000
2.1347,0.1770,0.2743,0.3673,1.0753,0.0000,0.0000,16.9748,-3.5422,0.0000,1500,1500,0.0000,-0.1820,0.2000,9.8600,2.1506,0.3227,-0.2434,0.0000,0.0000,9.8000,0.0000,0.0000,0.0000
2.1533,0.2557,0.3071,0.3677,0.8234,0.0000,0.0000,24.5218,-5.1171,0.0000,1500,1500,0.0000,-0.2011,0.3988,9.7594,1.6468,-0.6773,-0.2815,0.0000,0.0000,9.8000,0.0000,0.0000,0.0000
2.1718,0.3050,0.3163,0.3680,0.5219,0.0000,-0.0000,29.2439,-6.1025,0.0000,1500,1500,0.0000,-0.0958,0.2743,9.6900,1.0437,-0.8071,-0.4113,0.0000,0.0000,9.8000,0.0000,0.0000,0.0000
2.1902,0.3773,0.3168,0.3684,0.3348,0.0000,-0.0000,36.1825,-7.5504,0.0000,1500,1500,0.0000,-0.0575,0.3940,9.7666,0.6697,-0.7918,-0.4266,0.0000,0.0000,9.8000,0.0000,0.0000,0.0000
2.2086,0.4520,0.3265,0.3688,-0.1575,0.0000,-0.0000,43.3407,-9.0441,0.0000,1500,1500,0.0000,-0.1006,0.4179,9.7426,-0.3150,-0.2651,-0.6327,0.0000,0.0000,9.8000,0.0000,0.0000,0.0000
2.2273,0.5270,0.3414,0.3692,-0.5468,0.0000,-0.0000,50.5339,-10.5452,0.0000,1500,1500,0.0000,-0.1269,0.4299,9.7881,-1.0937,-0.7994,-0.5869,0.0000,0.0000,9.8000,0.0000,0.0000,0.0000
2.2458,0.5862,0.3431,0.3696,-1.4285,0.0000,-0.0000,56.2102,-11.7297,0.0000,1500,1500,0.0000,-0.0671,0.3700,9.7594,-2.8570,-1.4635,-0.7243,0.0000,0.0000,9.8000,0.0000,0.0000,0.0000
2.2642,0.6037,0.3304,0.3697,-2.0965,0.0000,-0.0000,57.8931,-12.0808,0.0000,1500,1500,0.0000,-0.0000,0.1857,9.8097,-4.1929,-1.4177,-0.7166,0.0000,0.0000,9.8000,0.0000,0.0000,0.0000
2.2826,0.5802,0.3046,0.3696,-2.0277,0.0000,-0.0000,55.6385,-11.6104,0.0000,1500,1500,0.0000,0.0646,-0.0059,9.7714,-4.0555,-1.2651,-0.6098,0.0000,0.0000,9.8000,0.0000,0.0000,0.0000
2.3010,0.5275,0.2863,0.3693,-1.9285,0.0000,-0.0000,50.5793,-10.5546,0.0000,1500,1500,0.0000,0.0335,-0.1495,9.8552,-3.8570,-0.6239,-0.5869,0.0000,0.0000,9.8000,0.0000,0.0000,0.0000
2.3194,0.4729,0.2773,0.3690,-1.9056,0.0000,-0.0000,45.3437,-9.4621,0.0000,1500,1500,0.0000,-0.0072,-0.1663,9.7498,-3.8112,-0.2880,-0.2357,0.0000,0.0000,9.8000,0.0000,0.0000,0.0000
2.3378,0.4130,0.2933,0.3687,-1.8522,0.0000,-0.0000,39.6073,-8.2651,0.0000,1500,1500,0.0000,-0.1245,-0.2022,9.8288,-3.7044,-0.7078,0.0467,0.0000,0.0000,9.8000,0.0000,0.0000,0.0000
2.3562,0.3226,0.2850,0.3683,-1.6423,0.0000,-0.0000,30.9310,-6.4545,0.0000,1500,1500,0.0000,-0.0120,-0.3554,9.7498,-3.2845,-0.6391,0.2452,0.0000,0.0000,9.8000,0.0000,0.0000,0.0000
2.3746,0.2476,0.2379,0.3679,-1.0239,0.0000,0.0000,23.7460,-4.9552,0.0000,1500,1500,0.0000,0.1747,-0.3003,9.8169,-2.0479,-0.4483,0.5353,0.0000,0.0000,9.8000,0.0000,0.0000,0.0000
2.3930,0.1637,0.2169,0.3676,-0.6079,0.0000,0.0000,15.6966,-3.2755,0.0000,1500,1500,0.0000,0.0574,-0.3530,9.7642,-1.2158,0.0784,0.8788,0.0000,0.0000,9.8000,0.0000,0.0000,0.0000
2.4115,0.1338,0.1979,0.3675,-0.2415,0.0000,0.0000,12.8310,-2.6775,0.0000,1500,1500,0.0000,0.0526,-0.1136,9.8839,-0.4830,0.0097,1.0925,0.0000,0.0000,9.8000,0.0000,0.0000,0.0000
2.4299,0.1351,0.1876,0.3675,-1.2758,0.0000,-0.0000,12.9565,-2.7037,0.0000,1500,1500,0.0000,0.0143,0.0301,9.9677,-2.5517,-0.1735,1.1994,0.0000,0.0000,9.8000,0.0000,0.0000,0.0000
2.4483,0.1416,0.1695,0.3675,-0.1346,0.0000,0.0000,13.5746,-2.8327,0.0000,1500,1500,0.0000,0.0526,0.0540,9.7857,-0.2692,0.0555,1.3597,0.0000,0.0000,9.8000,0.0000,0.0000,0.0000
2.4698,0.1454,0.1522,0.3675,-0.0239,0.0000,0.0000,13.9379,-2.9085,0.0000,1500,1500,0.0000,0.0407,0.0396,9.6804,-0.0479,0.2998,1.2376,0.0000,0.0000,9.8000,0.0000,0.0000,0.0000
2.4885,0.1544,0.1450,0.3675,0.0371,0.0000,0.0000,14.8035,-3.0891,0.0000,1500,1500,0.0000,0.0071,0.0684,9.9150,0.0743,1.1319,1.2376,0.0000,0.0000,9.8000,0.0000,0.0000,0.0000
2.5074,0.1964,0.1558,0.3677,-0.1308,0.0000,0.0000,18.8289,-3.9291,0.0000,1500,1500,0.0000,-0.0767,0.2240,9.9414,-0.2616,1.1090,1.3750,0.0000,0.0000,9.8000,0.0000,0.0000,0.0000
2.5259,0.2361,0.1729,0.3678,-0.2720,0.0000,0.0000,22.6352,-4.7234,0.0000,1500,1500,0.0000,-0.1078,0.2216,9.8264,-0.5440,0.4067,1.1841,0.0000,0.0000,9.8000,0.0000,0.0000,0.0000
2.5444,0.2615,0.1655,0.3678,-0.2987,0.0000,0.0000,25.0783,-5.2332,0.0000,1500,1500,0.0000,0.0048,0.1617,9.8192,-0.5975,-0.1353,1.1383,0.0000,0.0000,9.8000,0.0000,0.0000,0.0000
2.5633,0.3015,0.1722,0.3680,-0.0774,0.0000,0.0000,28.9145,-6.0337,0.0000,1500,1500,0.0000,-0.0599,0.2312,9.8504,-0.1547,0.0708,0.9551,0.0000,0.0000,9.8000,0.0000,0.0000,0.0000
2.5820,0.3331,0.1805,0.3681,0.0829,0.0000,0.0000,31.9445,-6.6660,0.0000,1500,1500,0.0000,-0.0695,0.2024,9.8959,0.1659,0.7655,0.9017,0.0000,0.0000,9.8000,0.0000,0.0000,0.0000
2.6007,0.3739,0.2058,0.3682,0.2165,0.0000,0.0000,35.8554,-7.4821,0.0000,1500,1500,0.0000,-0.1509,0.2503,9.8552,0.4331,0.6204,0.6803,0.0000,0.0000,9.8000,0.0000,0.0000,0.0000
2.6193,0.4105,0.2540,0.3683,0.2242,0.0000,0.0000,39.3679,-8.2151,0.0000,1500,1500,0.0000,-0.2634,0.2384,9.8552,0.4483,-0.1658,0.4589,0.0000,0.0000,9.8000,0.0000,0.0000,0.0000
2.6378,0.4467,0.2719,0.3685,0.1402,0.0000,0.0000,42.8304,-8.9376,0.0000,1500,1500,0.0000,-0.1293,0.2431,9.8408,0.2804,-0.7918,0.3444,0.0000,0.0000,9.8000,0.0000,0.0000,0.0000
2.6562,0.4621,0.2694,0.3686,0.2471,0.0000,0.0000,44.3112,-9.2466,0.0000,1500,1500,0.0000,-0.0359,0.1522,9.8671,0.4941,-0.3948,0.1078,0.0000,0.0000,9.8000,0.0000,0.0000,0.0000
2.6747,0.4879,0.2564,0.3687,0.3310,0.0000,0.0000,46.7811,-9.7620,0.0000,1500,1500,0.0000,0.0143,0.2024,9.8264,0.6621,-0.5246,0.1307,0.0000,0.0000,9.8000,0.0000,0.0000,0.0000
2.6932,0.5080,0.2750,0.3688,0.2738,0.0000,0.0000,48.7082,-10.1642,0.0000,1500,1500,0.0000,-0.1317,0.1785,9.7067,0.5476,-0.2803,-0.0373,0.0000,0.0000,9.8000,0.0000,0.0000,0.0000
2.7116,0.5358,0.2845,0.3689,0.0295,0.0000,0.0000,51.3770,-10.7211,0.0000,1500,1500,0.0000,-0.0934,0.2216,9.8480,0.0590,-0.3032,-0.1518,0.0000,0.0000,9.8000,0.0000,0.0000,0.0000
2.7301,0.5374,0.2886,0.3689,-0.2529,0.0000,-0.0000,51.5326,-10.7536,0.0000,1500,1500,0.0000,-0.0695,0.1019,9.8695,-0.5059,-0.7307,-0.1899,0.0000,0.0000,9.8000,0.0000,0.0000,0.0000
2.7486,0.5419,0.2895,0.3690,-0.4438,0.0000,-0.0000,51.9657,-10.8439,0.0000,1500,1500,0.0000,-0.0551,0.1163,9.8935,-0.8876,-0.7994,-0.3350,0.0000,0.0000,9.8000,0.0000,0.0000,0.0000
2.7671,0.5717,0.2870,0.3691,-0.4590,0.0000,-0.0000,54.8244,-11.4405,0.0000,1500,1500,0.0000,-0.0383,0.2336,9.7283,-0.9181,-0.8834,-0.4571,0.0000,0.0000,9.8000,0.0000,0.0000,0.0000
2.7856,0.5615,0.2631,0.3691,-0.5583,0.0000,-0.0000,53.8430,-11.2357,0.0000,1500,1500,0.0000,0.0622,0.0516,9.8073,-1.1166,-0.6773,-0.3197,0.0000,0.0000,9.8000,0.0000,0.0000,0.0000
2.8041,0.5595,0.2485,0.3690,-0.4476,0.0000,-0.0000,53.6477,-11.1949,0.0000,1500,1500,0.0000,0.0239,0.0899,9.9701,-0.8952,-0.6315,-0.3502,0.0000,0.0000,9.8000,0.0000,0.0000,0.0000
2.8225,0.5366,0.2212,0.3690,-0.2568,0.0000,-0.0000,51.4531,-10.7370,0.0000,1500,1500,0.0000,0.0862,-0.0106,9.8600,-0.5135,-0.3490,-0.1289,0.0000,0.0000,9.8000,0.0000,0.0000,0.0000
2.8410,0.5071,0.2115,0.3688,-0.0774,0.0000,0.0000,48.6262,-10.1471,0.0000,1500,1500,0.0000,0.0071,-0.0466,9.9677,-0.1547,-0.6849,0.0544,0.0000,0.0000,9.8000,0.0000,0.0000,0.0000
2.8594,0.4756,0.2073,0.3687,0.0982,0.0000,0.0000,45.6031,-9.5162,0.0000,1500,1500,0.0000,-0.0168,-0.0609,9.8336,0.1964,-0.5857,0.2452,0.0000,0.0000,9.8000,0.0000,0.0000,0.0000
2.8778,0.4352,0.1876,0.3686,0.2280,0.0000,0.0000,41.7355,-8.7092,0.0000,1500,1500,0.0000,0.0574,-0.1088,9.8815,0.4560,-0.9139,0.2834,0.0000,0.0000,9.8000,0.0000,0.0000,0.0000
2.8963,0.3997,0.1797,0.3685,0.3577,0.0000,0.0000,38.3243,-7.9973,0.0000,1500,1500,0.0000,0.0048,-0.0920,9.8025,0.7155,-0.5246,0.5963,0.0000,0.0000,9.8000,0.0000,0.0000,0.0000
2.9150,0.3605,0.1658,0.3684,0.4532,0.0000,0.0000,34.5641,-7.2127,0.0000,1500,1500,0.0000,0.0335,-0.1136,9.8480,0.9063,-0.1353,0.7719,0.0000,0.0000,9.8000,0.0000,0.0000,0.0000
2.9337,0.3675,0.1275,0.3684,0.4799,0.0000,0.0000,35.2414,-7.3540,0.0000,1500,1500,0.0000,0.1484,0.0947,9.6708,0.9598,0.0632,0.8711,0.0000,0.0000,9.8000,0.0000,0.0000,0.0000
2.9522,0.3522,0.1197,0.3683,0.5486,0.0000,0.0000,33.7688,-7.0467,0.0000,1500,1500,0.0000,0.0143,-0.0082,9.7857,1.0972,-0.0284,1.0696,0.0000,0.0000,9.8000,0.0000,0.0000,0.0000
2.9707,0.2992,0.1409,0.3682,0.6402,0.0000,0.0000,28.6863,-5.9861,0.0000,1500,1500,0.0000,-0.1221,-0.1902,9.8791,1.2804,-0.0513,1.2147,0.0000,0.0000,9.8000,0.0000,0.0000,0.0000
2.9892,0.2858,0.1403,0.3682,0.5677,0.0000,0.0000,27.4101,-5.7198,0.0000,1500,1500,0.0000,-0.0216,-0.0106,9.7402,1.1353,0.4296,1.3521,0.0000,0.0000,9.8000,0.0000,0.0000,0.0000
3.0076,0.2905,0.1526,0.3682,0.7318,0.0000,0.0000,27.8517,-5.8119,0.0000,1500,1500,0.0000,-0.0814,0.0708,9.6732,1.4636,0.6357,1.2681,0.0000,0.0000,9.8000,0.0000,0.0000,0.0000
3.0261,0.2887,0.1735,0.3682,0.7967,0.0000,0.0000,27.6814,-5.7764,0.0000,1500,1500,0.0000,-0.1245,0.0420,9.7378,1.5934,0.6281,1.5963,0.0000,0.0000,9.8000,0.0000,0.0000,0.0000
3.0445,0.3162,0.1386,0.3683,0.7089,0.0000,0.0000,30.3241,-6.3279,0.0000,1500,1500,0.0000,0.1364,0.1833,9.9246,1.4178,0.7120,1.3597,0.0000,0.0000,9.8000,0.0000,0.0000,0.0000
3.0629,0.3286,0.1361,0.3683,0.7165,0.0000,0.0000,31.5057,-6.5744,0.0000,1500,1500,0.0000,-0.0120,0.1115,9.6205,1.4331,0.8113,1.3673,0.0000,0.0000,9.8000,0.0000,0.0000,0.0000
3.0814,0.3472,0.1443,0.3683,0.8845,0.0000,0.0000,33.2957,-6.9480,0.0000,1500,1500,0.0000,-0.0623,0.1450,9.7642,1.7689,-0.8300,1.4208,0.0000,0.0000,9.8000,0.0000,0.0000,0.0000
3.0999,0.3546,0.1620,0.3684,0.9570,0.0000,0.0000,34.0062,-7.0962,0.0000,1500,1500,0.0000,-0.1078,0.0947,9.7163,1.9140,0.9258,1.4742,0.0000,0.0000,9.8000,0.0000,0.0000,0.0000
3.1184,0.3905,0.1728,0.3685,0.9761,0.0000,0.0000,37.4475,-7.8143,0.0000,1500,1500,0.0000,-0.0790,0.2312,9.7833,1.9521,0.6128,1.4208,0.0000,0.0000,9.8000,0.0000,0.0000,0.0000
3.1368,0.4084,0.1857,0.3685,1.2127,0.0000,0.0000,39.1607,-8.1719,0.0000,1500,1500,0.0000,-0.0910,0.1522,9.7762,2.4254,0.8952,1.4284,0.0000,0.0000,9.8000,0.0000,0.0000,0.0000
3.1553,0.4178,0.2202,0.3686,1.1707,0.0000,0.0000,40.0608,-8.3597,0.0000,1500,1500,0.0000,-0.1964,0.1163,9.8504,2.3415,1.0250,1.5124,0.0000,0.0000,9.8000,0.0000,0.0000,0.0000
3.1737,0.4685,0.2531,0.3688,1.1555,0.0000,0.0000,44.9275,-9.3752,0.0000,1500,1500,0.0000,-0.1940,0.3126,9.7762,2.3109,0.4906,1.2223,0.0000,0.0000,9.8000,0.0000,0.0000,0.0000
3.1922,0.5355,0.2671,0.3691,0.8005,0.0000,-0.0000,51.3498,-10.7154,0.0000,1500,1500,0.0000,-0.1102,0.3988,9.8001,1.6010,0.2540,1.2147,0.0000,0.0000,9.8000,0.0000,0.0000,0.0000
3.2106,0.5866,0.2900,0.3693,0.5028,0.0000,-0.0000,56.2520,-11.7384,0.0000,1500,1500,0.0000,-0.1533,0.3317,9.6924,1.0056,0.3990,0.8711,0.0000,0.0000,9.8000,0.0000,0.0000,0.0000
3.2291,0.5997,0.3010,0.3694,0.4913,0.0000,-0.0000,57.5014,-11.9991,0.0000,1500,1500,0.0000,-0.1030,0.1641,9.8001,0.9827,0.2693,0.8406,0.0000,0.0000,9.8000,0.0000,0.0000,0.0000
3.2475,0.6401,0.2899,0.3696,0.4303,0.0000,-0.0000,61.3790,-12.8082,0.0000,1500,1500,0.0000,-0.0000,0.2958,9.7809,0.8605,0.4677,0.8711,0.0000,0.0000,9.8000,0.0000,0.0000,0.0000
3.2659,0.7017,0.3069,0.3699,0.2432,0.0000,-0.0000,67.2846,-14.0406,0.0000,1500,1500,0.0000,-0.1293,0.3988,9.6852,0.4865,0.6204,0.4513,0.0000,0.0000,9.8000,0.0000,0.0000,0.0000
3.2843,0.7630,0.3303,0.3703,-0.1919,0.0000,-0.0000,73.1653,-15.2677,0.0000,1500,1500,0.0000,-0.1628,0.4083,9.6708,-0.3837,-0.1887,0.2376,0.0000,0.0000,9.8000,0.0000,0.0000,0.0000
3.3027,0.7970,0.3386,0.3705,-0.5277,0.0000,-0.0000,76.4257,-15.9481,0.0000,1500,1500,0.0000,-0.0958,0.2910,9.6876,-1.0555,-0.6697,0.1002,0.0000,0.0000,9.8000,0.0000,0.0000,0.0000
3.3211,0.8151,0.3363,0.3706,-0.6346,0.0000,-0.0000,93.7943,-16.3104,0.0000,1500,1500,0.0000,-0.0479,0.2240,9.7642,-1.2692,-0.5628,0.1383,0.0000,0.0000,9.8000,0.0000,0.0000,0.0000
3.3395,0.8120,0.2948,0.3705,-0.4667,0.0000,-0.0000,93.4407,-16.2489,0.0000,1500,1500,0.0000,0.1388,0.1282,9.8408,-0.9334,-0.2956,-0.1212,0.0000,0.0000,9.8000,0.0000,0.0000,0.0000
3.3579,0.8105,0.2916,0.3705,-0.4514,0.0000,-0.0000,93.2592,-16.2174,0.0000,1500,1500,0.0000,-0.0359,0.1330,9.7091,-0.9028,-0.2880,-0.2281,0.0000,0.0000,9.8000,0.0000,0.0000,0.0000
3.3764,0.8095,0.3407,0.3705,-0.5125,0.0000,-0.0000,93.1522,-16.1988,0.0000,1500,1500,0.0000,-0.2849,0.1378,9.8528,-1.0250,-0.7765,-0.2128,0.0000,0.0000,9.8000,0.0000,0.0000,0.0000
3.3951,0.7965,0.3331,0.3705,-0.6232,0.0000,-0.0000,76.3762,-15.9378,0.0000,1500,1500,0.0000,-0.0240,0.0803,9.7666,-1.2463,-0.6926,-0.1976,0.0000,0.0000,9.8000,0.0000,0.0000,0.0000
3.4137,0.7711,0.3122,0.3703,-0.6079,0.0000,-0.0000,73.9452,-15.4305,0.0000,1500,1500,0.0000,0.0407,0.0205,9.9725,-1.2158,-0.4788,-0.1518,0.0000,0.0000,9.8000,0.0000,0.0000,0.0000
3.4323,0.7377,0.3178,0.3701,-0.5125,0.0000,-0.0000,70.7372,-14.7611,0.0000,1500,1500,0.0000,-0.0814,-0.0226,9.8791,-1.0250,1.0250,-0.0983,0.0000,0.0000,9.8000,0.0000,0.0000,0.0000
3.4509,0.7086,0.3161,0.3700,-0.3560,0.0000,-0.0000,67.9450,-14.1784,0.0000,1500,1500,0.0000,-0.0479,-0.0082,9.8312,-0.7120,-0.9445,-0.0067,0.0000,0.0000,9.8000,0.0000,0.0000,0.0000
3.4693,0.6914,0.3344,0.3699,-0.4781,0.0000,-0.0000,66.2950,-13.8341,0.0000,1500,1500,0.0000,-0.1413,0.0420,9.7809,-0.9563,-0.6239,0.0925,0.0000,0.0000,9.8000,0.0000,0.0000,0.0000
3.4877,0.6749,0.3261,0.3698,-0.6117,0.0000,-0.0000,64.7138,-13.5041,0.0000,1500,1500,0.0000,-0.0192,0.0420,9.6804,-1.2234,-0.8147,0.1841,0.0000,0.0000,9.8000,0.0000,0.0000,0.0000
3.5061,0.6443,0.3217,0.3696,-0.7415,0.0000,-0.0000,61.7821,-12.8924,0.0000,1500,1500,0.0000,-0.0359,-0.0274,9.8576,-1.4830,-1.2574,0.3063,0.0000,0.0000,9.8000,0.0000,0.0000,0.0000
3.5246,0.6223,0.3204,0.3695,-0.7262,0.0000,-0.0000,59.6728,-12.4522,0.0000,1500,1500,0.0000,-0.0503,0.0085,9.8791,-1.4524,-0.9521,0.2528,0.0000,0.0000,9.8000,0.0000,0.0000,0.0000
3.5430,0.6002,0.3220,0.3694,-0.8178,0.0000,-0.0000,57.5521,-12.0097,0.0000,1500,1500,0.0000,-0.0647,0.0037,9.9773,-1.6356,-1.0590,0.4131,0.0000,0.0000,9.8000,0.0000,0.0000,0.0000
3.5614,0.5842,0.3130,0.3693,-0.8827,0.0000,-0.0000,56.0184,-11.6896,0.0000,1500,1500,0.0000,-0.0144,0.0301,10.1161,-1.7654,-1.3948,0.2223,0.0000,0.0000,9.8000,0.0000,0.0000,0.0000
3.5798,0.5549,0.3115,0.3691,-0.8140,0.0000,-0.0000,53.2132,-11.1042,0.0000,1500,1500,0.0000,-0.0479,-0.0370,9.9198,-1.6280,-1.1429,0.4818,0.0000,0.0000,9.8000,0.0000,0.0000,0.0000
3.5982,0.5122,0.3020,0.3689,-0.6537,0.0000,-0.0000,49.1141,-10.2489,0.0000,1500,1500,0.0000,-0.0096,-0.1064,9.8480,-1.3074,-0.5094,0.3215,0.0000,0.0000,9.8000,0.0000,0.0000,0.0000
3.6167,0.4986,0.2924,0.3688,-0.4400,0.0000,0.0000,47.8108,-9.9769,0.0000,1500,1500,0.0000,-0.0072,0.0253,9.8935,-0.8799,-0.2422,0.5505,0.0000,0.0000,9.8000,0.0000,0.0000,0.0000
3.6351,0.4980,0.2817,0.3688,-0.4514,0.0000,0.0000,47.7509,-9.9644,0.0000,1500,1500,0.0000,-0.0000,0.0851,9.9246,-0.9028,-0.2574,0.5124,0.0000,0.0000,9.8000,0.0000,0.0000,0.0000
3.6534,0.4980,0.2843,0.3688,-0.6728,0.0000,-0.0000,47.7494,-9.9641,0.0000,1500,1500,0.0000,-0.0623,0.0875,9.8767,-1.3456,-0.5017,0.5353,0.0000,0.0000,9.8000,0.0000,0.0000,0.0000
3.6719,0.4991,0.2738,0.3688,-0.6995,0.0000,-0.0000,47.8584,-9.9868,0.0000,1500,1500,0.0000,-0.0000,0.0923,9.8025,-1.3990,-0.7231,0.3444,0.0000,0.0000,9.8000,0.0000,0.0000,0.0000
3.6903,0.5078,0.2623,0.3689,-0.4896,0.0000,0.0000,48.6971,-10.1619,0.0000,1500,1500,0.0000,0.0071,0.1306,9.9533,-0.9792,-0.3796,0.4055,0.0000,0.0000,9.8000,0.0000,0.0000,0.0000
3.7087,0.5258,0.2446,0.3689,-0.4514,0.0000,0.0000,50.4219,-10.5218,0.0000,1500,1500,0.0000,0.0383,0.1737,9.7809,-0.9028,-0.4406,0.3292,0.0000,0.0000,9.8000,0.0000,0.0000,0.0000
3.7271,0.5670,0.2304,0.3691,-0.7148,0.0000,-0.0000,54.3743,-11.3465,0.0000,1500,1500,0.0000,0.0239,0.2838,9.6971,-1.4295,-0.4635,0.2452,0.0000,0.0000,9.8000,0.0000,0.0000,0.0000
3.7455,0.5981,0.2184,0.3692,-1.0583,0.0000,-0.0000,57.3517,-11.9678,0.0000,1500,1500,0.0000,0.0167,0.2455,9.7738,-2.1166,-0.9216,0.0238,0.0000,0.0000,9.8000,0.0000,0.0000,0.0000
3.7639,0.6057,0.2053,0.3693,-1.1804,0.0000,-0.0000,58.0816,-12.1202,0.0000,1500,1500,0.0000,0.0239,0.1402,9.7785,-2.3608,-0.7613,-0.0067,0.0000,0.0000,9.8000,0.0000,0.0000,0.0000
3.7825,0.6095,0.1774,0.3693,-1.2148,0.0000,-0.0000,58.4444,-12.1959,0.0000,1500,1500,0.0000,0.0957,0.1234,9.7905,-2.4295,-0.5933,0.0925,0.0000,0.0000,9.8000,0.0000,0.0000,0.0000
3.8009,0.6201,0.1601,0.3693,-1.2873,0.0000,-0.0000,59.4600,-12.4078,0.0000,1500,1500,0.0000,0.0502,0.1546,9.6780,-2.5746,-0.6697,0.2986,0.0000,0.0000,9.8000,0.0000,0.0000,0.0000
3.8194,0.6300,0.1577,0.3693,-1.4781,0.0000,-0.0000,60.4144,-12.6070,0.0000,1500,1500,0.0000,-0.0168,0.1546,9.7666,-2.9563,-0.5246,0.2299,0.0000,0.0000,9.8000,0.0000,0.0000,0.0000
3.8380,0.6208,0.1411,0.3693,-1.6346,0.0000,-0.0000,59.5292,-12.4222,0.0000,1500,1500,0.0000,0.0502,0.0660,9.7211,-3.2692,-0.7842,0.0391,0.0000,0.0000,9.8000,0.0000,0.0000,0.0000
3.8565,0.6175,0.1049,0.3693,-1.6041,0.0000,-0.0000,59.2092,-12.3555,0.0000,1500,1500,0.0000,0.1460,0.0923,9.7690,-3.2082,-0.7613,0.0467,0.0000,0.0000,9.8000,0.0000,0.0000,0.0000
3.8749,0.5935,0.0940,0.3692,-1.6346,0.0000,-0.0000,56.9133,-11.8764,0.0000,1500,1500,0.0000,0.0335,-0.0059,9.7738,-3.2692,-0.5094,0.0620,0.0000,0.0000,9.8000,0.0000,0.0000,0.0000
3.8933,0.5684,0.0834,0.3692,-1.4552,0.0000,-0.0000,54.5044,-11.3737,0.0000,1500,1500,0.0000,0.0335,-0.0154,9.7857,-2.9105,-0.3185,-0.0678,0.0000,0.0000,9.8000,0.0000,0.0000,0.0000
3.9117,0.5285,0.0804,0.3692,-0.3140,0.0000,0.0000,50.6786,-10.5754,0.0000,1500,1500,0.0000,-0.0000,-0.0897,9.7738,-0.6280,-0.2193,0.0315,0.0000,0.0000,9.8000,0.0000,0.0000,0.0000
3.9301,0.4864,0.0907,0.3691,-1.1728,0.0000,-0.0000,46.6406,-9.7327,0.0000,1500,1500,0.0000,-0.0623,-0.1064,9.7139,-2.3456,-0.3490,0.1765,0.0000,0.0000,9.8000,0.0000,0.0000,0.0000
3.9485,0.4585,0.0919,0.3690,-1.0430,0.0000,0.0000,43.9701,-9.1755,0.0000,1500,1500,0.0000,-0.0216,-0.0466,9.6948,-2.0860,-0.3796,0.1231,0.0000,0.0000,9.8000,0.0000,0.0000,0.0000
3.9670,0.4429,0.1029,0.3690,-1.0659,0.0000,0.0000,42.4744,-8.8633,0.0000,1500,1500,0.0000,-0.0671,0.0061,9.6900,-2.1318,-0.7002,0.2299,0.0000,0.0000,9.8000,0.0000,0.0000,0.0000
3.9854,0.4330,0.1072,0.3690,-1.2224,0.0000,-0.0000,41.5196,-8.6641,0.0000,1500,1500,0.0000,-0.0383,0.0301,9.7738,-2.4448,-0.7613,0.0544,0.0000,0.0000,9.8000,0.0000,0.0000,0.0000
4.0038,0.4229,0.1109,0.3690,-1.1575,0.0000,-0.0000,40.5546,-8.4627,0.0000,1500,1500,0.0000,-0.0359,0.0277,9.7211,-2.3150,-0.3948,0.1307,0.0000,0.0000,9.8000,0.0000,0.0000,0.0000
4.0222,0.4133,0.0779,0.3690,-1.0812,0.0000,0.0000,39.6277,-8.2693,0.0000,1500,1500,0.0000,0.1364,0.0277,9.7187,-2.1624,-0.3719,0.1612,0.0000,0.0000,9.8000,0.0000,0.0000,0.0000
4.0405,0.4131,0.0882,0.3690,-1.1423,0.0000,-0.0000,39.6082,-8.2652,0.0000,1500,1500,0.0000,-0.0623,0.0708,9.7450,-2.2845,-0.5704,0.2147,0.0000,0.0000,9.8000,0.0000,0.0000,0.0000
4.0589,0.4078,0.0885,0.3690,-0.3255,0.0000,0.0000,39.1021,-8.1596,0.0000,1500,1500,0.0000,-0.0168,0.0468,9.7450,-0.6509,-0.9750,0.1612,0.0000,0.0000,9.8000,0.0000,0.0000,0.0000
4.0774,0.4065,0.0909,0.3690,-1.4629,0.0000,-0.0000,38.9822,-8.1346,0.0000,1500,1500,0.0000,-0.0264,0.0636,9.5487,-2.9257,-0.6315,0.0467,0.0000,0.0000,9.8000,0.0000,0.0000,0.0000
4.0957,0.3848,0.0907,0.3689,-1.4934,0.0000,-0.0000,36.8969,-7.6995,0.0000,1500,1500,0.0000,-0.0144,-0.0322,9.7331,-2.9868,-0.5246,0.0849,0.0000,0.0000,9.8000,0.0000,0.0000,0.0000
4.1142,0.3573,0.0968,0.3689,-1.5010,0.0000,-0.0000,34.2610,-7.1494,0.0000,1500,1500,0.0000,-0.0455,-0.0633,9.9030,-3.0021,-0.7078,-0.0602,0.0000,0.0000,9.8000,0.0000,0.0000,0.0000
4.1327,0.3207,0.1084,0.3688,-2.2644,0.0000,-0.0000,30.7477,-6.4163,0.0000,1500,1500,0.0000,-0.0719,-0.1112,9.8432,-4.5288,-1.1124,0.0162,0.0000,0.0000,9.8000,0.0000,0.0000,0.0000
4.1511,0.2825,0.1029,0.3687,-1.2797,0.0000,0.0000,27.0894,-5.6529,0.0000,1500,1500,0.0000,0.0071,-0.1256,9.8600,-2.5593,-1.0819,0.1002,0.0000,0.0000,9.8000,0.0000,0.0000,0.0000
4.1696,0.2400,0.0976,0.3687,-1.3369,0.0000,0.0000,23.0141,-4.8025,0.0000,1500,1500,0.0000,0.0071,-0.1519,9.8145,-2.6738,-0.8071,-0.2281,0.0000,0.0000,9.8000,0.0000,0.0000,0.0000
4.1880,0.1917,0.0980,0.3686,-1.1423,0.0000,0.0000,18.3826,-3.8360,0.0000,1500,1500,0.0000,-0.0192,-0.1902,9.9509,-2.2845,-0.9445,-0.1212,0.0000,0.0000,9.8000,0.0000,0.0000,0.0000
4.2064,0.1580,0.0776,0.3685,-0.8751,0.0000,0.0000,15.1510,-3.1616,0.0000,1500,1500,0.0000,0.0790,-0.1256,9.7762,-1.7502,-0.7689,-0.1594,0.0000,0.0000,9.8000,0.0000,0.0000,0.0000
4.2248,0.1370,0.0718,0.3685,-0.9781,0.0000,0.0000,13.1367,-2.7413,0.0000,1500,1500,0.0000,0.0143,-0.0729,9.9246,-1.9563,-0.7307,-0.1136,0.0000,0.0000,9.8000,0.0000,0.0000,0.0000
4.2433,0.1362,0.0586,0.3685,-1.0735,0.0000,0.0000,13.0638,-2.7261,0.0000,1500,1500,0.0000,0.0502,0.0205,9.8743,-2.1471,-0.9445,-0.1823,0.0000,0.0000,9.8000,0.0000,0.0000,0.0000
4.2619,0.1142,0.0326,0.3685,-1.1423,0.0000,0.0000,10.9549,-2.2860,0.0000,1500,1500,0.0000,0.1125,-0.0801,9.8719,-2.2845,-0.8758,0.0315,0.0000,0.0000,9.8000,0.0000,0.0000,0.0000
4.2805,0.0916,0.0076,0.3685,-2.2339,0.0000,-0.0000,8.7790,-1.8320,0.0000,1500,1500,0.0000,0.1125,-0.0873,9.8839,-4.4677,-2.7994,-0.1594,0.0000,0.0000,9.8000,0.0000,0.0000,0.0000
4.2990,0.0745,-0.0216,0.3685,-1.4094,0.0000,-0.0000,7.1399,-1.4899,0.0000,1500,1500,0.0000,0.1388,-0.0657,9.9557,-2.8189,-0.7994,-0.0067,0.0000,0.0000,9.8000,0.0000,0.0000,0.0000
4.3174,0.0564,-0.0349,0.3685,-1.4590,0.0000,-0.0000,5.4083,-1.1286,0.0000,1500,1500,0.0000,0.0670,-0.0729,9.8432,-2.9181,-0.5857,0.1154,0.0000,0.0000,9.8000,0.0000,0.0000,0.0000
4.3358,-0.0013,-0.0487,0.3685,-1.2720,0.0000,0.0000,-0.1255,0.0262,-0.0000,1500,1500,0.0000,0.0718,-0.2644,9.8145,-2.5440,-2.7307,0.0925,0.0000,0.0000,9.8000,0.0000,0.0000,0.0000
4.3544,-0.0717,-0.0631,0.3686,-1.0583,0.0000,0.0000,-6.8792,1.4355,-0.0000,1500,1500,0.0000,0.0766,-0.3339,9.8504,-2.1166,-0.7689,0.1460,0.0000,0.0000,9.8000,0.0000,0.0000,0.0000
4.3728,-0.1171,-0.0708,0.3687,-1.1232,0.0000,0.0000,-11.2333,2.3441,-0.0000,1500,1500,0.0000,0.0478,-0.2285,9.8576,-2.2463,-0.5552,0.1841,0.0000,0.0000,9.8000,0.0000,0.0000,0.0000
4.3912,-0.1542,-0.0868,0.3687,-1.1728,0.0000,0.0000,-14.7869,3.0856,-0.0000,1500,1500,0.0000,0.0885,-0.1974,9.8671,-2.3456,-2.8147,0.1612,0.0000,0.0000,9.8000,0.0000,0.0000,0.0000
4.4097,-0.1946,-0.1138,0.3688,-1.2758,0.0000,-0.0000,-18.6564,3.8931,-0.0000,1500,1500,0.0000,0.1436,-0.2189,9.8576,-2.5517,-1.0132,0.3215,0.0000,0.0000,9.8000,0.0000,0.0000,0.0000
4.4282,-0.2451,-0.1459,0.3689,-1.1079,0.0000,0.0000,-23.5062,4.9051,-0.0000,1500,1500,0.0000,0.1723,-0.2740,9.8216,-2.2158,-0.7842,0.2681,0.0000,0.0000,9.8000,0.0000,0.0000,0.0000
4.4465,-0.2961,-0.1822,0.3690,-0.7644,0.0000,0.0000,-28.3965,5.9256,-0.0000,1500,1500,0.0000,0.1987,-0.2860,9.8408,-1.5288,-0.1277,0.5505,0.0000,0.0000,9.8000,0.0000,0.0000,0.0000
4.4650,-0.3004,-0.1885,0.3690,-0.7911,0.0000,0.0000,-28.8091,6.0117,-0.0000,1500,1500,0.0000,0.0622,-0.0729,9.9174,-1.5822,-0.0284,0.2986,0.0000,0.0000,9.8000,0.0000,0.0000,0.0000
4.4834,-0.3226,-0.1961,0.3691,-0.8293,0.0000,0.0000,-30.9328,6.4549,-0.0000,1500,1500,0.0000,0.0694,-0.1591,9.9078,-1.6585,-0.6697,0.3063,0.0000,0.0000,9.8000,0.0000,0.0000,0.0000
4.5018,-0.3523,-0.2110,0.3692,-1.0506,0.0000,0.0000,-33.7846,7.0500,-0.0000,1500,1500,0.0000,0.1053,-0.1974,9.7953,-2.1013,-0.7231,0.3673,0.0000,0.0000,9.8000,0.0000,0.0000,0.0000
4.5203,-0.3773,-0.2349,0.3693,-0.9667,0.0000,0.0000,-36.1828,7.5504,-0.0000,1500,1500,0.0000,0.1484,-0.1782,9.7115,-1.9334,-0.4025,0.3826,0.0000,0.0000,9.8000,0.0000,0.0000,0.0000
4.5387,-0.3991,-0.2505,0.3694,-0.8560,0.0000,0.0000,-38.2705,7.9861,-0.0000,1500,1500,0.0000,0.1149,-0.1687,9.7833,-1.7120,-0.1964,0.5047,0.0000,0.0000,9.8000,0.0000,0.0000,0.0000
4.5571,-0.4105,-0.2542,0.3695,-0.8369,0.0000,0.0000,-39.3618,8.2138,-0.0000,1500,1500,0.0000,0.0622,-0.1256,9.9533,-1.6738,-0.0437,0.5047,0.0000,0.0000,9.8000,0.0000,0.0000,0.0000
4.5755,-0.4132,-0.2514,0.3695,-1.0735,0.0000,-0.0000,-39.6263,8.2690,-0.0000,1500,1500,0.0000,0.0311,-0.0849,9.8192,-2.1471,-0.6239,0.5276,0.0000,0.0000,9.8000,0.0000,0.0000,0.0000
4.5940,-0.4321,-0.2639,0.3696,-1.2682,0.0000,-0.0000,-41.4353,8.6465,-0.0000,1500,1500,0.0000,0.1029,-0.1615,9.8001,-2.5364,-2.7765,0.6498,0.0000,0.0000,9.8000,0.0000,0.0000,0.0000
4.6125,-0.4530,-0.2765,0.3697,-1.2453,0.0000,-0.0000,-43.4432,9.0655,-0.0000,1500,1500,0.0000,0.1053,-0.1734,9.7642,-2.4906,-1.2574,-1.2968,0.0000,0.0000,9.8000,0.0000,0.0000,0.0000
4.6310,-0.4774,-0.2873,0.3698,-1.1957,0.0000,-0.0000,-45.7802,9.5532,-0.0000,1500,1500,0.0000,0.0981,-0.1926,9.7139,-2.3914,-0.7002,0.7108,0.0000,0.0000,9.8000,0.0000,0.0000,0.0000
4.6494,-0.5056,-0.3055,0.3699,-1.0926,0.0000,0.0000,-48.4852,10.1176,-0.0000,1500,1500,0.0000,0.1364,-0.2165,9.7857,-2.1853,-0.8223,0.7719,0.0000,0.0000,9.8000,0.0000,0.0000,0.0000
4.6678,-0.5231,-0.3261,0.3700,-1.4400,0.0000,-0.0000,-50.1576,10.4666,-0.0000,1500,1500,0.0000,0.1532,-0.1734,9.9342,-2.8799,1.0708,0.5963,0.0000,0.0000,9.8000,0.0000,0.0000,0.0000
4.6862,-0.5510,-0.3388,0.3702,-1.4590,0.0000,-0.0000,-52.8318,11.0247,-0.0000,1500,1500,0.0000,0.1173,-0.2237,9.8073,-2.9181,-0.7842,0.7872,0.0000,0.0000,9.8000,0.0000,0.0000,0.0000
4.7046,-0.5871,-0.3497,0.3704,-1.4934,0.0000,-0.0000,-56.2992,11.7482,-0.0000,1500,1500,0.0000,0.1125,-0.2716,9.9509,-2.9868,-0.4406,0.8330,0.0000,0.0000,9.8000,0.0000,0.0000,0.0000
4.7230,-0.6146,-0.3474,0.3706,-1.2911,0.0000,-0.0000,-58.9355,12.2983,-0.0000,1500,1500,0.0000,0.0502,-0.2333,9.8097,-2.5822,-0.6010,0.8635,0.0000,0.0000,9.8000,0.0000,0.0000,0.0000
4.7415,-0.6363,-0.3418,0.3707,-1.3140,0.0000,-0.0000,-61.0159,12.7325,-0.0000,1500,1500,0.0000,0.0335,-0.2070,9.6852,-2.6280,-2.8071,0.8864,0.0000,0.0000,9.8000,0.0000,0.0000,0.0000
4.7599,-0.6431,-0.3271,0.3707,-1.5048,0.0000,-0.0000,-61.6693,12.8688,-0.0000,1500,1500,0.0000,-0.0096,-0.1423,9.7307,-3.0097,-2.8071,0.7490,0.0000,0.0000,9.8000,0.0000,0.0000,0.0000
4.7784,-0.6399,-0.3450,0.3707,-1.5735,0.0000,-0.0000,-61.3598,12.8042,-0.0000,1500,1500,0.0000,0.1412,-0.0968,9.7833,-3.1471,-0.8147,0.6040,0.0000,0.0000,9.8000,0.0000,0.0000,0.0000
4.7968,-0.6549,-0.3428,0.3708,-1.6690,0.0000,-0.0000,-62.7964,13.1040,-0.0000,1500,1500,0.0000,0.0502,-0.1830,9.8145,-3.3379,-1.0132,0.3521,0.0000,0.0000,9.8000,0.0000,0.0000,0.0000
4.8152,-0.6943,-0.3624,0.3711,-1.6690,0.0000,-0.0000,-66.5796,13.8935,-0.0000,1500,1500,0.0000,0.1532,-0.3027,9.8408,-3.3379,-1.2422,0.4131,0.0000,0.0000,9.8000,0.0000,0.0000,0.0000
4.8336,-0.7326,-0.3586,0.3713,-1.7453,0.0000,-0.0000,-70.2540,14.6602,-0.0000,1500,1500,0.0000,0.0455,-0.3027,9.7881,-3.4906,-0.9597,0.0620,0.0000,0.0000,9.8000,0.0000,0.0000,0.0000
4.8520,-0.8133,-0.3757,0.3718,-1.6652,0.0000,-0.0000,-93.5851,16.2740,-0.0000,1500,1500,0.0000,0.1436,-0.5110,9.8216,-3.3303,-0.9521,0.1689,0.0000,0.0000,9.8000,0.0000,0.0000,0.0000
4.8705,-0.8825,-0.3658,0.3723,-1.3560,0.0000,0.0000,-101.5530,17.6596,-0.0000,1500,1500,0.0000,0.0191,-0.4727,9.8576,-2.7120,-1.1277,-0.0678,0.0000,0.0000,9.8000,0.0000,0.0000,0.0000
4.8889,-0.9346,-0.3599,0.3726,-1.1117,0.0000,0.0000,-107.5415,18.7010,-0.0000,1500,1500,0.0000,0.0359,-0.4033,9.8528,-2.2234,-0.9368,-0.0067,0.0000,0.0000,9.8000,0.0000,0.0000,0.0000
4.9073,-0.9888,-0.3592,0.3729,-1.0277,0.0000,0.0000,-113.7784,19.7855,-0.0000,1500,1500,0.0000,0.0598,-0.4224,9.8384,-2.0555,-0.4177,-0.2892,0.0000,0.0000,9.8000,0.0000,0.0000,0.0000
4.9257,-1.0311,-0.3575,0.3732,-0.9896,0.0000,0.0000,-118.6494,20.6326,-0.0313,1499,1500,0.0007,0.0550,-0.3746,9.8384,-1.9792,-0.1429,-0.0831,0.0000,0.0000,9.8000,0.0000,0.0000,0.0000
4.9441,-1.0578,-0.3499,0.3734,-0.7682,0.0000,0.0000,-121.7163,21.1762,-0.1096,1499,1500,0.0025,0.0263,-0.3075,9.8264,-1.5364,0.1013,-0.1518,0.0000,0.0000,9.8000,0.0000,0.0000,0.0000
4.9625,-1.1078,-0.3391,0.3737,-0.6270,0.0000,0.0000,-127.4694,22.1872,-0.3928,1499,1500,0.0084,0.0095,-0.4177,9.7067,-1.2540,-0.0513,-0.3121,0.0000,0.0000,9.8000,0.0000,0.0000,0.0000
4.9809,-1.1464,-0.3355,0.3739,-0.5545,0.0000,0.0000,-131.9188,22.9720,-0.7407,1499,1500,0.0153,0.0431,-0.3817,9.9270,-1.1089,0.2464,-0.1365,0.0000,0.0000,9.8000,0.0000,0.0000,0.0000
4.9993,-1.1647,-0.3150,0.3740,-0.3789,0.0000,0.0000,-134.0180,23.3485,-0.9457,1499,1500,0.0192,-0.0383,-0.2836,9.6971,-0.7578,-0.1200,-0.2052,0.0000,0.0000,9.8000,0.0000,0.0000,0.0000
5.0178,-1.1848,-0.3161,0.3741,-1.2873,0.0000,-0.0000,-136.3321,23.7626,-1.2029,1499,1500,0.0240,0.0598,-0.2956,9.7067,-2.5746,-0.4330,-0.3960,0.0000,0.0000,9.8000,0.0000,0.0000,0.0000
5.0362,-1.1844,-0.3268,0.3741,-0.5354,0.0000,0.0000,-136.2921,23.7675,-1.1983,1499,1500,0.0239,0.1053,-0.2046,9.7714,-1.0708,-0.5704,-0.4571,0.0000,0.0000,9.8000,0.0000,0.0000,0.0000
5.0546,-1.2340,-0.3385,0.3744,-0.6766,0.0000,0.0000,-141.9960,24.7712,-1.9744,1498,1501,0.0379,0.1125,-0.4416,9.7905,-1.3532,-0.5017,-0.4418,0.0000,0.0000,9.8000,0.0000,0.0000,0.0000
5.0732,-1.2955,-0.3601,0.3748,-0.3331,0.0000,0.0000,-149.0721,26.0140,-3.2322,1498,1501,0.0590,0.1628,-0.5110,9.9222,-0.6662,0.2311,-0.3350,0.0000,0.0000,9.8000,0.0000,0.0000,0.0000
5.0917,-1.3646,-0.4077,0.3752,0.0371,0.0000,0.0000,-157.0277,27.4104,-5.0521,1497,1502,0.0876,0.2873,-0.5517,9.7762,0.0743,-0.0666,-0.2510,0.0000,0.0000,9.8000,0.0000,0.0000,0.0000
5.1101,-1.4026,-0.4372,0.3755,0.0715,0.0000,0.0000,-161.3986,28.1841,-6.2402,1496,1503,0.1053,0.2107,-0.4177,9.7833,0.1430,-0.1811,-0.1289,0.0000,0.0000,9.8000,0.0000,0.0000,0.0000
5.1288,-1.4465,-0.4671,0.3759,0.1058,0.0000,0.0000,-166.4527,29.0770,-7.7831,1495,1504,0.1273,0.2178,-0.4536,9.8743,0.2117,0.0861,-0.2205,0.0000,0.0000,9.8000,0.0000,0.0000,0.0000
5.1475,-1.5134,-0.5057,0.3764,0.2394,0.0000,0.0000,-174.1496,30.4299,-10.4839,1494,1505,0.1639,0.2609,-0.5637,9.7833,0.4789,0.4677,-0.2128,0.0000,0.0000,9.8000,0.0000,0.0000,0.0000
5.1662,-1.5773,-0.5584,0.3770,0.5448,0.0000,0.0000,-181.4952,31.7224,-13.4583,1492,1507,0.2018,0.3328,-0.5589,9.7402,1.0895,0.6357,0.1460,0.0000,0.0000,9.8000,0.0000,0.0000,0.0000
5.1850,-1.6293,-0.5997,0.3775,0.9417,0.0000,0.0000,-187.4788,32.7787,-16.1660,1491,1508,0.2347,0.2873,-0.5134,9.7259,1.8834,1.6433,0.1689,0.0000,0.0000,9.8000,0.0000,0.0000,0.0000
5.2038,-1.6923,-0.6135,0.3782,1.1058,0.0000,0.0000,-194.7273,34.0554,-19.7824,1489,1510,0.2765,0.1700,-0.5805,9.8384,2.2117,1.5823,0.4589,0.0000,0.0000,9.8000,0.0000,0.0000,0.0000
5.2225,-1.7335,-0.6133,0.3786,1.3119,0.0000,0.0000,-199.4682,34.8968,-22.3436,1487,1512,0.3048,0.1077,-0.4943,9.9246,2.6239,-0.8071,0.6269,0.0000,0.0000,9.8000,0.0000,0.0000,0.0000
5.2409,-1.7526,-0.6258,0.3789,1.2700,0.0000,0.0000,-201.6684,35.2967,-23.5849,1487,1512,0.3182,0.1652,-0.3913,9.7546,2.5399,0.3303,0.7108,0.0000,0.0000,9.8000,0.0000,0.0000,0.0000
5.2594,-1.7365,-0.6443,0.3787,1.1822,0.0000,0.0000,-199.8155,34.9920,-22.5423,1487,1512,0.3069,0.1963,-0.2285,9.7498,2.3644,0.6815,0.7185,0.0000,0.0000,9.8000,0.0000,0.0000,0.0000
5.2778,-1.7417,-0.6546,0.3787,1.2547,0.0000,0.0000,-200.4163,35.1139,-22.8815,1487,1512,0.3106,0.1604,-0.3267,9.7618,2.5094,0.7807,0.9093,0.0000,0.0000,9.8000,0.0000,0.0000,0.0000
5.2963,-1.6932,-0.6415,0.3782,1.0524,0.0000,0.0000,-194.8376,34.1612,-19.8522,1489,1510,0.2771,0.0526,-0.0753,9.7690,2.1048,0.4906,0.6879,0.0000,0.0000,9.8000,0.0000,0.0000,0.0000
5.3147,-1.6740,-0.6439,0.3780,0.7776,0.0000,0.0000,-192.6220,33.7928,-18.7088,1489,1510,0.2641,0.1221,-0.2022,9.6971,1.5552,0.0708,0.9017,0.0000,0.0000,9.8000,0.0000,0.0000,0.0000
5.3331,-1.6263,-0.6634,0.3774,0.5257,0.0000,-0.0000,-187.1378,32.8559,-16.0209,1491,1508,0.2328,0.2035,-0.0657,9.7450,1.0514,0.1700,0.8024,0.0000,0.0000,9.8000,0.0000,0.0000,0.0000
5.3515,-1.6140,-0.6598,0.3773,0.3043,0.0000,-0.0000,-185.7188,32.6254,-15.3610,1491,1508,0.2249,0.0981,-0.2237,9.7259,0.6086,0.4830,0.7185,0.0000,0.0000,9.8000,0.0000,0.0000,0.0000
5.3699,-1.6050,-0.6120,0.3772,0.3501,0.0000,-0.0000,-184.6843,32.4617,-14.8892,1491,1508,0.2191,-0.1126,-0.2405,9.8576,0.7002,0.3990,0.5200,0.0000,0.0000,9.8000,0.0000,0.0000,0.0000
5.3883,-1.5993,-0.5767,0.3771,0.2242,0.0000,-0.0000,-184.0307,32.3641,-14.5956,1491,1508,0.2156,-0.0599,-0.2501,9.6780,0.4483,0.1090,0.5734,0.0000,0.0000,9.8000,0.0000,0.0000,0.0000
5.4067,-1.5757,-0.5595,0.3769,-0.1117,0.0000,-0.0000,-181.3148,31.9078,-13.4025,1492,1507,0.2009,0.0191,-0.1663,9.7378,-0.2234,-0.1277,0.5811,0.0000,0.0000,9.8000,0.0000,0.0000,0.0000
5.4251,-1.5377,-0.5561,0.3765,-0.3827,0.0000,-0.0000,-176.9370,31.1623,-11.5886,1493,1506,0.1779,0.0814,-0.0944,9.7809,-0.7654,-0.3414,0.3902,0.0000,0.0000,9.8000,0.0000,0.0000,0.0000
5.4436,-1.5305,-0.5283,0.3765,-0.4972,0.0000,-0.0000,-176.1167,31.0350,-11.2650,1493,1506,0.1738,-0.0336,-0.2333,9.7355,-0.9944,-0.3490,0.3063,0.0000,0.0000,9.8000,0.0000,0.0000,0.0000
5.4620,-1.5261,-0.4937,0.3764,-0.6652,0.0000,-0.0000,-175.6075,30.9618,-11.0671,1493,1506,0.1712,-0.0719,-0.2453,9.7642,-1.3303,-0.6391,0.4284,0.0000,0.0000,9.8000,0.0000,0.0000,0.0000
5.4804,-1.5257,-0.4537,0.3764,-0.9781,0.0000,-0.0000,-175.5654,30.9697,-11.0520,1493,1506,0.1710,-0.1030,-0.2620,9.7019,-1.9563,-0.6086,0.3521,0.0000,0.0000,9.8000,0.0000,0.0000,0.0000
5.4989,-1.5352,-0.4348,0.3765,-1.2415,0.0000,-0.0000,-176.6557,31.1746,-11.4820,1493,1506,0.1765,-0.0096,-0.3075,9.6852,-2.4830,-1.0055,0.5658,0.0000,0.0000,9.8000,0.0000,0.0000,0.0000
5.5174,-1.5489,-0.4274,0.3766,-1.4629,0.0000,-0.0000,-178.2275,31.4632,-12.1166,1493,1506,0.1846,0.0407,-0.3291,9.7019,-2.9257,-1.4712,0.6116,0.0000,0.0000,9.8000,0.0000,0.0000,0.0000
5.5358,-1.5743,-0.4274,0.3768,-1.5583,0.0000,-0.0000,-181.1489,31.9867,-13.3419,1492,1507,0.2000,0.0742,-0.3889,9.7570,-3.1166,-1.2727,0.6269,0.0000,0.0000,9.8000,0.0000,0.0000,0.0000
5.5542,-1.6073,-0.4244,0.3770,-1.6881,0.0000,-0.0000,-184.9538,32.6641,-15.0290,1491,1508,0.2206,0.0598,-0.4272,9.6948,-3.3761,-1.0742,0.7795,0.0000,0.0000,9.8000,0.0000,0.0000,0.0000
5.5726,-1.6519,-0.3871,0.3773,-1.7110,0.0000,-0.0000,-190.0888,33.5731,-17.4679,1490,1509,0.2495,-0.1030,-0.4919,9.7905,-3.4219,-1.1582,0.6498,0.0000,0.0000,9.8000,0.0000,0.0000,0.0000
5.5910,-1.6768,-0.3799,0.3775,-1.9323,0.0000,-0.0000,-192.9536,34.0878,-18.9097,1489,1510,0.2661,0.0335,-0.4033,9.7211,-3.8647,-1.3872,1.0315,0.0000,0.0000,9.8000,0.0000,0.0000,0.0000
5.6098,-1.6971,-0.3832,0.3776,-2.1537,0.0000,-0.0000,-195.2844,34.5099,-20.1252,1488,1511,0.2798,0.0814,-0.3865,9.7905,-4.3074,-1.2880,0.7414,0.0000,0.0000,9.8000,0.0000,0.0000,0.0000
5.6300,-1.7363,-0.3959,0.3779,-2.1575,0.0000,-0.0000,-199.7983,35.3118,-22.5822,1487,1512,0.3068,0.1221,-0.4655,9.7785,-4.3150,-1.3109,0.7719,0.0000,0.0000,9.8000,0.0000,0.0000,0.0000
5.6485,-1.7907,-0.4351,0.3783,-1.9819,0.0000,-0.0000,-206.0543,36.4170,-26.2103,1485,1514,0.3453,0.2537,-0.5589,9.7809,-3.9639,-1.2956,1.1002,0.0000,0.0000,9.8000,0.0000,0.0000,0.0000
5.6670,-1.8515,-0.4454,0.3788,-1.8522,0.0000,-0.0000,-213.0546,37.6522,-30.5655,1483,1516,0.3895,0.1245,-0.5996,9.7905,-3.7044,-1.1964,1.1231,0.0000,0.0000,9.8000,0.0000,0.0000,0.0000
5.6854,-1.9052,-0.4448,0.3792,-1.6423,0.0000,-0.0000,-219.2323,38.7450,-34.6547,1480,1519,0.4291,0.0742,-0.5709,9.6828,-3.2845,-0.6086,0.9933,0.0000,0.0000,9.8000,0.0000,0.0000,0.0000
5.7038,-1.9465,-0.4470,0.3795,-1.4171,0.0000,0.0000,-223.9875,39.5910,-37.9505,1479,1520,0.4599,0.0885,-0.5302,9.8240,-2.8341,-0.5246,0.8711,0.0000,0.0000,9.8000,0.0000,0.0000,0.0000
5.7222,-1.9851,-0.4381,0.3798,-1.1346,0.0000,0.0000,-228.4280,40.3826,-41.1367,1477,1522,0.4888,0.0359,-0.5254,9.8432,-2.2692,-0.7765,1.0162,0.0000,0.0000,9.8000,0.0000,0.0000,0.0000
5.7407,-2.0292,-0.4260,0.3801,-0.9438,0.0000,0.0000,-233.4971,41.2839,-44.8922,1475,1524,0.5219,0.0191,-0.5589,9.8623,-1.8876,-0.4254,0.8788,0.0000,0.0000,9.8000,0.0000,0.0000,0.0000
5.7591,-2.0383,-0.4199,0.3802,-0.9056,0.0000,0.0000,-234.5498,41.4872,-45.6914,1474,1525,0.5287,0.0455,-0.3961,9.7618,-1.8112,-0.2498,0.8635,0.0000,0.0000,9.8000,0.0000,0.0000,0.0000
5.7776,-2.0450,-0.4043,0.3803,-0.9438,0.0000,0.0000,-235.3176,41.6411,-46.2789,1474,1525,0.5337,-0.0000,-0.3841,9.7163,-1.8876,-0.2116,1.1078,0.0000,0.0000,9.8000,0.0000,0.0000,0.0000
5.7960,-2.0412,-0.4090,0.3802,-0.4514,0.0000,0.0000,-234.8840,41.5862,-45.9553,1474,1525,0.5309,0.0933,-0.3410,9.8528,-0.9028,-0.3796,0.8864,0.0000,0.0000,9.8000,0.0000,0.0000,0.0000
5.8145,-2.0055,-0.4101,0.3800,-0.4819,0.0000,0.0000,-230.7774,40.8925,-42.8854,1476,1523,0.5042,0.0766,-0.1878,9.8192,-0.9639,-0.4177,0.5276,0.0000,0.0000,9.8000,0.0000,0.0000,0.0000
5.8329,-1.9551,-0.4171,0.3796,-0.8140,0.0000,0.0000,-224.9762,39.9038,-38.6830,1478,1521,0.4664,0.1053,-0.1112,9.8288,-1.6280,-0.5704,0.3902,0.0000,0.0000,9.8000,0.0000,0.0000,0.0000
5.8513,-1.9516,-0.4173,0.3796,-0.9094,0.0000,0.0000,-224.5743,39.8534,-38.4023,1478,1521,0.4638,0.0742,-0.3267,9.8552,-1.8189,-0.1964,0.1765,0.0000,0.0000,9.8000,0.0000,0.0000,0.0000
5.8698,-1.9484,-0.4364,0.3796,-0.5468,0.0000,0.0000,-224.1971,39.8074,-38.1398,1479,1520,0.4613,0.1628,-0.3243,9.7714,-1.0937,-0.7307,-0.0296,0.0000,0.0000,9.8000,0.0000,0.0000,0.0000
5.8888,-1.9416,-0.4778,0.3795,-0.5125,0.0000,0.0000,-223.4224,39.6921,-37.5984,1479,1520,0.4563,0.2705,-0.3147,9.9701,-1.0250,-0.6468,-0.3044,0.0000,0.0000,9.8000,0.0000,0.0000,0.0000
5.9077,-1.9357,-0.5181,0.3794,-0.4094,0.0000,0.0000,-222.7426,39.5933,-37.1263,1479,1520,0.4519,0.2705,-0.3123,9.8216,-0.8189,0.3761,-0.5945,0.0000,0.0000,9.8000,0.0000,0.0000,0.0000
5.9262,-1.9462,-0.5262,0.3795,-0.3331,0.0000,0.0000,-223.9453,39.8218,-37.9754,1479,1520,0.4597,0.1293,-0.3889,9.8408,-0.6662,0.8265,-0.7090,0.0000,0.0000,9.8000,0.0000,0.0000,0.0000
5.9446,-1.9589,-0.5314,0.3797,0.1097,0.0000,0.0000,-225.4115,40.0963,-39.0202,1478,1521,0.4692,0.1173,-0.4033,9.8743,0.2193,0.1548,-0.7777,0.0000,0.0000,9.8000,0.0000,0.0000,0.0000
5.9630,-1.9362,-0.5620,0.3794,0.2318,0.0000,0.0000,-222.7950,39.6609,-37.1762,1479,1520,0.4522,0.2370,-0.2333,9.7618,0.4636,-0.0590,-0.7243,0.0000,0.0000,9.8000,0.0000,0.0000,0.0000
5.9819,-1.9436,-0.6198,0.3795,0.2547,0.0000,0.0000,-223.6543,39.8297,-37.7838,1479,1520,0.4578,0.3711,-0.3770,9.9102,0.5094,0.4906,-0.6021,0.0000,0.0000,9.8000,0.0000,0.0000,0.0000
6.0003,-1.9734,-0.6506,0.3799,0.3730,0.0000,0.0000,-227.0814,40.4450,-40.2324,1477,1522,0.4801,0.2561,-0.4847,9.8911,0.7460,0.9258,-0.9762,0.0000,0.0000,9.8000,0.0000,0.0000,0.0000
6.0187,-2.0093,-0.6516,0.3803,0.7585,0.0000,0.0000,-231.2046,41.1817,-43.2561,1476,1523,0.5069,0.1173,-0.5110,9.7307,1.5170,0.7197,-0.7548,0.0000,0.0000,9.8000,0.0000,0.0000,0.0000
6.0371,-2.0373,-0.6724,0.3806,0.8654,0.0000,0.0000,-234.4339,41.7634,-45.6820,1474,1525,0.5280,0.2130,-0.4847,9.8097,1.7308,0.2082,-0.5487,0.0000,0.0000,9.8000,0.0000,0.0000,0.0000
6.0556,-2.0835,-0.7065,0.3811,0.8577,0.0000,0.0000,-239.7434,42.7070,-49.7662,1472,1527,0.5624,0.2777,-0.5709,9.7331,1.7155,0.5670,-0.2510,0.0000,0.0000,9.8000,0.0000,0.0000,0.0000
6.0740,-2.1222,-0.7500,0.3816,1.1058,0.0000,0.0000,-244.2017,43.5031,-53.2831,1470,1529,0.5912,0.3352,-0.5565,9.9557,2.2117,0.7502,-0.0602,0.0000,0.0000,9.8000,0.0000,0.0000,0.0000
6.0925,-2.1781,-0.7835,0.3824,1.5715,0.0000,0.0000,-250.6393,44.6438,-58.4786,1467,1532,0.6322,0.2849,-0.6260,9.6756,3.1430,1.5517,-0.0602,0.0000,0.0000,9.8000,0.0000,0.0000,0.0000
6.1110,-2.2152,-0.7842,0.3829,1.9646,0.0000,0.0000,-254.9004,45.4065,-61.9853,1465,1534,0.6589,0.1412,-0.5589,9.8552,3.9292,1.7120,0.0773,0.0000,0.0000,9.8000,0.0000,0.0000,0.0000
6.1294,-2.2596,-0.7257,0.3835,2.0028,0.0000,0.0000,-260.0163,46.3183,-66.2483,1463,1536,0.6903,-0.1413,-0.6020,9.8719,4.0056,1.4067,0.3292,0.0000,0.0000,9.8000,0.0000,0.0000,0.0000
6.1479,-2.2903,-0.7125,0.3839,2.1707,0.0000,0.0000,-263.5486,46.9551,-69.2209,1461,1538,0.7116,0.0646,-0.5422,9.8360,4.3415,1.0555,0.4742,0.0000,0.0000,9.8000,0.0000,0.0000,0.0000
6.1663,-2.3131,-0.7222,0.3841,2.4265,0.0000,0.0000,-266.1662,47.4332,-71.4360,1460,1539,0.7271,0.1700,-0.5062,9.7642,4.8529,0.6510,0.8864,0.0000,0.0000,9.8000,0.0000,0.0000,0.0000
