timestamp,roll_deg,pitch_deg,yaw_deg,omega_raw,omega_filtered,alpha,tau_ff,tau_pid,tau_total,pwm_left,pwm_right,deadzone_factor,accel1_x,accel1_y,accel1_z,gyro1_x,gyro1_y,gyro1_z,accel2_x,accel2_y,accel2_z,gyro2_x,gyro2_y,gyro2_z
0.0101,0.1216,0.0102,0.0015,1.1671,0.0000,0.0000,11.6580,-2.4327,0.0000,1500,1500,0.0000,-0.0663,0.9291,9.7046,1.1679,0.3549,0.1398,-0.0241,0.9443,9.8031,1.1664,0.1373,0.1660
0.0284,0.3550,-0.0161,0.0048,1.7702,0.0000,0.0000,34.0379,-7.1029,0.0000,1500,1500,0.0000,0.1132,0.9530,9.7429,0.8549,-0.0573,0.1322,-0.0409,1.0233,9.8916,2.6855,-0.1833,0.2271
0.0467,0.5477,0.0064,0.0066,0.3809,0.0000,-0.0000,52.5239,-10.9604,0.0000,1500,1500,0.0000,-0.1070,0.9267,9.7094,0.3969,0.0037,0.0100,-0.0385,0.9778,9.7480,0.3649,-0.0765,0.1889
0.0649,0.7323,0.0010,0.0080,0.2587,0.0000,-0.0000,70.2250,-14.6542,0.0000,1500,1500,0.0000,0.0223,0.9435,9.8315,0.2824,-0.0650,0.0558,-0.0265,0.9203,9.7695,0.2351,-0.0077,0.0897
0.0831,0.8639,-0.0111,0.0088,-0.0046,0.0000,-0.0000,82.8388,-17.2864,0.0000,1500,1500,0.0000,0.0630,0.7447,9.8028,0.0839,-0.1184,-0.0358,0.0046,0.8485,9.9036,-0.0931,0.2289,0.1279
0.1013,1.0210,-0.0259,0.0076,0.0221,0.0000,-0.0000,97.9060,-20.4305,0.0124,1500,1499,0.0003,0.0821,0.8908,9.8124,0.0228,0.1564,-0.0663,-0.0337,0.8557,9.9036,0.0214,0.0304,-0.0630
0.1194,1.1805,-0.0183,0.0051,0.0794,0.0000,-0.0000,113.1963,-23.6314,0.9989,1500,1499,0.0230,-0.0136,0.9267,9.8578,0.1450,0.2862,-0.1121,-0.0289,0.9538,9.7743,0.0137,0.1144,-0.1622
0.1376,1.3348,0.0110,0.0029,-0.1764,0.0000,-0.0000,127.9994,-26.7322,3.6758,1502,1497,0.0747,-0.1405,0.9435,9.7621,-0.0306,0.1335,-0.0358,-0.0696,0.9515,9.8031,-0.3221,-0.2368,-0.2004
0.1558,1.4656,-0.0153,0.0017,-0.1535,0.0000,-0.0000,140.5377,-29.3619,7.4213,1504,1495,0.1374,0.1109,0.8597,9.8195,-0.1222,-0.2253,-0.1274,-0.0457,0.9586,9.9084,-0.1847,-0.1299,-0.0019
0.1740,1.6027,-0.0127,0.0008,-0.1764,0.0000,-0.0000,184.4186,-32.1195,14.7366,1508,1491,0.2177,-0.0232,0.9075,9.7573,-0.2291,-0.1413,0.0558,-0.1390,0.8629,9.8342,-0.1237,-0.2291,-0.1393
0.1922,1.7395,0.0052,0.0001,-0.3100,0.0000,-0.0000,200.1635,-34.8734,22.7093,1512,1487,0.3090,-0.0950,0.9506,9.8147,-0.2520,-0.1718,-0.1197,0.1315,0.9227,9.7743,-0.3679,-0.0154,0.0439
0.2103,1.8821,0.0063,-0.0027,-0.1497,0.0000,-0.0000,216.5712,-37.7440,32.7568,1518,1481,0.4120,-0.0160,0.9913,9.8578,-0.1909,-0.1108,-0.1884,0.0070,1.0376,9.7839,-0.1084,-0.1146,-0.1088
0.2285,1.9683,-0.0187,-0.0043,-0.2718,0.0000,-0.0000,226.4940,-39.4883,39.6057,1521,1478,0.4762,0.0965,0.7519,9.8147,-0.1375,-0.0802,-0.0129,-0.0193,0.8629,9.8174,-0.4061,-0.4658,-0.1469
0.2466,2.0965,-0.0317,-0.0066,-0.2489,0.0000,-0.0000,241.2455,-42.0731,50.6848,1527,1472,0.5722,0.0486,0.9578,9.7022,-0.1222,-0.2787,-0.1350,-0.0241,0.9131,9.9443,-0.3756,-0.1299,-0.1011
0.2647,2.2115,-0.0259,-0.0122,-0.3558,0.0000,-0.0000,254.4804,-44.3955,61.3305,1533,1466,0.6563,-0.0400,0.9267,9.7190,-0.2673,-0.2634,-0.3182,-0.1031,1.0161,9.9730,-0.4443,-0.2139,-0.2691
0.2829,2.3292,-0.0352,-0.0189,-0.6153,0.0000,-0.0000,268.0244,-46.7728,72.6434,1539,1460,0.7380,0.0271,0.9889,9.7884,-0.4963,-0.4085,-0.3029,0.0070,0.9347,9.8461,-0.7344,-0.1223,-0.4065
0.3010,2.4504,-0.0488,-0.0247,-1.0275,0.0000,-0.0000,281.9723,-49.2215,84.4015,1546,1453,0.8150,0.0845,1.0656,9.8028,-0.8474,0.2327,-0.2190,-0.0912,0.9562,10.1406,-1.2076,-0.0230,-0.4218
0.3192,2.5516,-0.0385,-0.0339,-1.6497,0.0000,-0.0000,293.6123,-51.2700,94.0135,1551,1448,0.8717,-0.0687,1.0608,9.9871,-1.3894,-0.2253,-0.2800,0.1315,1.0664,10.0018,-1.9099,-0.3513,-0.6966
0.3373,2.6440,-0.0166,-0.0426,-2.6687,0.0000,-0.0000,304.2525,-53.1457,102.4032,1556,1443,0.9162,-0.0927,1.0823,9.5610,-2.3894,0.1106,-0.3335,0.0190,0.9108,9.9419,-2.9481,-0.0535,-0.6279
0.3555,2.7076,0.0152,-0.0506,-3.3787,0.0000,-0.0000,311.5612,-54.4431,107.8329,1559,1440,0.9421,-0.1190,1.0536,9.8722,-3.2291,0.3320,-0.3716,0.0166,1.0137,9.9060,-3.5282,0.3816,-0.5363
0.3736,2.7317,0.0324,-0.0585,-3.8405,0.0000,-0.0000,314.3420,-54.9537,109.8160,1560,1439,0.9508,-0.0520,0.9123,9.8267,-3.6871,0.5457,-0.5319,-0.0265,0.8294,9.8773,-3.9939,0.1755,-0.3760
0.3918,2.7573,0.0356,-0.0670,-4.2832,0.0000,-0.0000,317.2899,-55.4936,111.8557,1561,1438,0.9594,-0.0136,0.9650,9.8914,-4.0993,0.0801,-0.5319,0.0166,1.0376,9.8964,-4.4672,0.0610,-0.4218
0.4099,2.7735,0.0365,-0.0781,-4.6306,0.0000,-0.0000,319.1482,-55.8443,113.1114,1562,1437,0.9644,-0.0136,0.9530,9.8794,-4.4276,-0.1337,-0.6541,0.0262,1.0376,9.9204,-4.8336,0.0152,-0.5744
0.4281,2.7621,0.0325,-0.0867,-5.2680,0.0000,-0.0000,317.8417,-55.6449,112.2541,1561,1438,0.9609,0.0055,0.8740,9.7812,-5.1375,-0.1108,-0.4403,-0.0481,0.7910,9.8845,-5.3985,-0.1223,-0.5057
0.4462,2.7126,0.0524,-0.0980,-5.2642,-0.0404,-0.2538,312.8775,-54.6822,108.5102,1559,1440,0.9440,-0.1046,0.6969,9.8890,-5.2215,-0.0726,-0.7686,0.1076,0.6953,9.8294,-5.3069,0.0075,-0.4676
0.4644,2.6724,0.0499,-0.1128,-5.0046,-0.2288,-0.9825,310.3484,-53.9046,105.6882,1558,1441,0.9283,-0.0041,0.7112,9.9081,-5.1069,-0.2940,-0.9594,-0.0098,0.7336,9.7935,-4.9023,0.0610,-0.6660
0.4826,2.6254,0.0398,-0.1254,-4.7832,-0.4632,-1.3676,306.0488,-52.9908,101.8578,1556,1443,0.9079,0.0342,0.6394,9.7549,-4.8703,-0.2024,-0.8068,0.0429,0.8437,9.8892,-4.6962,0.0304,-0.5744
0.5008,2.5929,0.0174,-0.1390,-4.4092,-0.6310,-1.0225,301.3151,-52.3667,98.6766,1554,1445,0.8926,0.1109,0.6753,9.8147,-4.3894,0.0343,-0.7686,0.0597,0.6881,9.9228,-4.4290,0.1526,-0.7424
0.5189,2.5746,0.0181,-0.1534,-4.7642,-0.8916,-1.8511,301.5949,-52.0264,97.5951,1553,1446,0.8835,0.0271,0.7687,9.8363,-4.5192,0.3091,-0.7533,-0.0026,0.7958,9.8988,-5.0092,0.3816,-0.8721
0.5371,2.5465,0.0547,-0.1681,-5.3558,-1.3405,-3.8157,304.0129,-51.4887,96.3503,1552,1447,0.8691,-0.1693,0.7735,9.8722,-5.3436,0.1793,-0.7762,0.0262,0.7695,9.8605,-5.3679,0.0152,-0.8569
0.5552,2.5341,0.0432,-0.1857,-5.3519,-1.7790,-4.1257,303.4866,-51.2674,95.4016,1552,1447,0.8625,0.0510,0.8405,9.8339,-5.3054,0.1030,-1.0739,0.0597,0.8270,9.8677,-5.3985,-0.0535,-0.8721
0.5734,2.5410,0.0287,-0.2017,-5.8367,-2.3873,-6.5712,311.3163,-51.4296,97.7740,1553,1446,0.8662,0.0606,0.9698,9.8100,-5.4810,-0.3016,-0.9442,0.1195,0.9491,9.8677,-6.1924,0.2365,-0.8340
0.5916,2.5430,0.0495,-0.2126,-6.8558,-3.3932,-13.1674,330.5430,-51.4949,102.5902,1556,1443,0.8672,-0.0280,1.0344,9.7932,-6.4123,0.9045,-0.6312,0.0309,1.0089,9.8557,-7.2992,0.8090,-0.6508
0.6249,2.4882,0.0499,-0.2207,-8.4397,-4.9089,-31.6163,377.3773,-50.4251,109.5555,1560,1439,0.8371,-0.0065,0.8668,9.9560,-8.2673,0.0419,-0.6617,0.0309,0.7647,9.9491,-8.6122,0.0304,-0.4141
0.6432,2.4141,0.0356,-0.2299,-9.1458,-5.9844,-30.5965,365.9073,-48.9662,126.9269,1569,1430,0.9999,0.0678,0.8668,9.8243,-8.7863,-0.0497,-0.4709,0.0836,0.7551,9.9419,-9.5053,0.2213,-0.5592
0.6613,2.3518,0.0284,-0.2390,-10.4092,-6.6485,-36.5341,375.8416,-47.7442,129.1078,1571,1428,1.0000,0.0654,1.0177,9.8219,-9.9924,0.3015,-0.5090,0.1291,0.9538,9.9276,-10.8260,0.5571,-0.5363
0.6795,2.2333,0.0546,-0.2419,-11.5352,-7.3815,-40.3978,373.3273,-45.3956,127.2294,1569,1430,1.0000,-0.0807,0.8357,9.8435,-11.2367,0.6144,-0.2571,-0.0265,0.8437,9.8629,-11.8336,0.5266,-0.1088
0.6977,2.0851,0.0832,-0.2473,-11.9283,-8.0635,-37.5354,348.0304,-42.4525,118.6748,1565,1434,1.0000,-0.0998,0.6993,9.6831,-11.7787,0.4083,-0.3564,-0.0145,0.6235,9.8701,-12.0779,0.6182,-0.2844
0.7159,1.9037,0.0911,-0.2508,-12.4359,-8.7194,-36.0334,269.0279,-38.8441,94.7499,1552,1447,1.0000,0.0079,0.5676,9.7764,-12.0993,0.7518,-0.2571,-0.0840,0.5612,9.9084,-12.7725,0.5800,-0.1851
0.7340,1.7084,0.0721,-0.2553,-12.7794,-9.3284,-33.5697,244.3864,-34.9550,85.9057,1547,1452,1.0000,0.0917,0.4933,9.7070,-12.7711,0.2633,-0.3869,-0.0385,0.5061,9.7240,-12.7878,0.0915,-0.1240
0.7522,1.5112,0.0640,-0.2578,-12.1115,-9.7459,-22.9461,199.9808,-31.0263,71.5078,1539,1460,1.0000,0.0390,0.4072,9.8938,-12.0993,-0.0039,-0.4251,0.0477,0.3050,9.8054,-12.1237,0.2976,0.1279
0.7704,1.2991,0.0932,-0.2598,-11.7107,-10.0406,-16.2306,163.5283,-26.7980,59.1869,1532,1467,1.0000,-0.1453,0.2611,9.8411,-11.6642,0.1793,-0.3106,-0.0912,0.3266,9.8007,-11.7573,-0.0688,0.0973
0.7885,1.0953,0.1089,-0.2594,-11.1573,-10.2081,-9.2373,127.1952,-22.7316,46.9804,1525,1474,1.0000,-0.0663,0.2156,9.8052,-11.3207,0.0724,-0.0434,-0.0624,0.1829,9.5708,-10.9939,0.4884,0.0821
0.8067,0.9176,0.1366,-0.2611,-9.9016,-10.1621,2.5249,81.9346,-19.1886,32.5360,1517,1482,1.0000,-0.1190,0.1989,9.7166,-10.0764,0.4770,-0.1808,-0.1055,0.1757,9.7121,-9.7267,0.1907,-0.0172
0.8250,0.7536,0.1533,-0.2654,-8.9168,-9.9753,10.1820,47.8258,-15.0794,20.9309,1511,1488,1.0000,-0.1166,0.1558,9.8219,-9.0382,-0.3016,-0.4251,0.0022,0.1255,9.8078,-8.7954,-0.0001,-0.0401
0.8433,0.5935,0.1424,-0.2705,-8.1306,-9.6986,15.1955,20.4458,-11.8767,11.6632,1506,1493,1.0000,0.0414,0.0696,9.6639,-8.1222,-0.0268,-0.3945,0.0238,0.1733,9.7264,-8.1389,0.4121,-0.1698
0.8615,0.4600,0.1507,-0.2826,-7.4206,-9.3569,18.7706,-0.9356,-9.2054,4.3407,1502,1497,1.0000,0.0031,0.1079,9.7573,-7.6337,0.7289,-0.7610,-0.0313,0.1446,9.6594,-7.2076,0.8014,-0.5821
0.8796,0.3491,0.1791,-0.2980,-6.5313,-8.9331,23.3408,-22.5393,-6.9861,-2.8179,1498,1501,1.0000,-0.1046,0.1127,9.7621,-6.7176,0.7747,-0.9518,-0.2468,0.2093,9.5900,-6.3450,0.4121,-0.7500
0.8978,0.2683,0.1867,-0.3206,-5.6420,-8.4394,27.2051,-39.5639,-5.3689,-8.3934,1495,1504,1.0000,-0.0041,0.1558,9.5777,-5.7863,0.6297,-1.4403,-0.0026,0.2715,9.7169,-5.4977,0.8243,-1.0630
0.9160,0.2161,0.1940,-0.3470,-5.3748,-7.9797,25.2516,-39.8788,-4.3248,-9.0036,1495,1504,1.0000,-0.0041,0.2563,9.6328,-5.4505,0.7595,-1.5090,-0.0768,0.2667,9.7360,-5.2992,0.6487,-1.4141
0.9341,0.1674,0.2077,-0.3783,-5.0924,-7.5466,23.8496,-41.1822,-3.3507,-9.8557,1494,1505,1.0000,-0.0831,0.2420,9.6998,-5.1375,0.2404,-1.7915,-0.2396,0.2116,9.8294,-5.0473,-0.0077,-1.6737
0.9523,0.1330,0.2279,-0.4142,-4.7184,-7.1224,23.3667,-43.3226,-2.6622,-10.7992,1494,1505,1.0000,-0.0903,0.2635,9.5418,-4.8321,0.3702,-1.9900,-0.1390,0.2811,9.8102,-4.6046,0.4884,-1.9866
0.9705,0.1288,0.2132,-0.4525,-5.1382,-6.8248,16.3672,-26.9259,-2.5783,-6.2501,1496,1503,1.0000,0.0271,0.4407,9.7022,-4.8779,0.1335,-2.0358,-0.0959,0.3721,9.9084,-5.3985,-0.2673,-2.2156
0.9886,0.0923,0.1992,-0.4946,-6.0275,-6.7052,6.5901,-6.9619,-1.8477,-1.0255,1499,1500,1.0000,0.0079,0.3617,9.6639,-5.7253,-0.2024,-2.1884,0.0381,0.3505,9.8366,-6.3298,-0.2902,-2.4905
1.0067,0.0688,0.1833,-0.5374,-5.9474,-6.5915,6.2697,-8.4535,-1.3760,-1.6790,1499,1500,1.0000,0.0630,0.4143,9.7477,-6.7558,-0.0650,-2.4251,0.0573,0.3002,9.7695,-5.1389,0.5800,-2.3225
1.0249,0.0030,0.1959,-0.5821,-7.1878,-6.6810,-4.9177,12.0942,-0.0609,3.4168,1501,1498,1.0000,-0.0424,0.3186,9.7669,-6.9237,0.6450,-2.4785,-0.0193,0.2547,9.8605,-7.4519,0.4884,-2.4676
1.0431,-0.0575,0.2122,-0.6261,-7.5695,-6.8142,-7.3511,12.1336,1.1496,2.8226,1501,1498,1.0000,-0.0927,0.3641,9.7836,-7.3360,0.3244,-2.5472,-0.0959,0.3122,9.9299,-7.8031,0.0915,-2.3302
1.0612,-0.1046,0.2008,-0.6654,-8.4626,-7.0615,-13.6431,22.7140,2.0929,5.3135,1502,1497,1.0000,-0.0041,0.4910,9.7788,-8.1222,-0.2329,-2.3029,-0.0026,0.5373,9.9539,-8.8031,-0.2673,-2.0782
1.0794,-0.1810,0.1875,-0.7009,-10.2260,-7.5362,-26.0986,45.2836,3.6211,10.8688,1505,1494,1.0000,0.0510,0.4957,9.7645,-9.7634,0.1640,-2.1655,0.0525,0.5684,9.9683,-10.6885,0.3816,-1.7805
1.0975,-0.2864,0.1830,-0.7321,-12.0313,-8.2104,-37.1329,61.6561,5.7308,14.3983,1507,1492,1.0000,0.0510,0.4933,9.6088,-11.5573,0.5610,-1.9671,0.0453,0.4798,9.8821,-12.5053,0.9235,-1.5057
1.1157,-0.4417,0.1982,-0.7567,-13.5046,-9.0046,-43.7878,62.7396,8.8376,13.1483,1507,1492,1.0000,-0.0424,0.3736,9.7764,-13.2138,0.8892,-1.4022,-0.0409,0.3792,9.9922,-13.7954,0.5419,-1.3378
1.1339,-0.6221,0.2034,-0.7789,-14.5390,-9.8347,-45.6361,49.8737,12.4481,7.7406,1504,1495,1.0000,-0.0639,0.3234,9.8483,-14.3283,0.1564,-1.3793,-0.0648,0.2476,10.0592,-14.7496,-0.2520,-1.0935
1.1520,-0.8002,0.1657,-0.7934,-15.4817,-10.6818,-46.7323,35.4259,16.0119,1.9133,1501,1498,1.0000,0.0941,0.3832,9.9105,-15.1298,-0.5459,-1.0663,0.0022,0.3314,9.9730,-15.8336,-0.6413,-0.5897
1.1704,-1.0102,0.1534,-0.8000,-16.9397,-11.6205,-51.0332,30.7320,20.2142,-1.5022,1499,1500,1.0000,0.0510,0.3329,9.7501,-16.3741,1.0877,-0.4785,0.0333,0.3984,9.9563,-17.5053,-0.5650,-0.2615
1.1886,-1.2721,0.1316,-0.7955,-17.9817,-12.5747,-52.3170,4.2970,25.4642,-11.5289,1493,1506,1.0000,0.0510,0.1390,9.8004,-17.6642,-0.5230,-0.1197,0.0716,0.0464,9.9419,-18.2992,-0.0612,0.5706
1.2068,-1.5780,0.1310,-0.7875,-18.4130,-13.4504,-48.2247,-42.6971,31.5994,-27.7549,1484,1515,1.0000,-0.0089,-0.0837,9.8004,-18.2825,0.1411,0.2543,0.0645,-0.0972,9.8078,-18.5435,0.1220,0.6240
1.2249,-1.8703,0.1308,-0.7720,-18.4894,-14.2063,-41.6685,-95.2087,37.4631,-45.3900,1475,1524,1.0000,-0.0041,-0.0621,9.7142,-18.3894,0.1640,0.5520,0.0597,-0.2672,9.7384,-18.5893,0.2136,1.1660
1.2431,-2.1993,0.1477,-0.7496,-17.6382,-14.7210,-28.3404,-171.4563,44.0658,-70.0407,1461,1538,1.0000,-0.0759,-0.3614,9.8531,-17.6795,0.2022,1.0482,-0.0816,-0.4396,9.7552,-17.5969,0.3205,1.4332
1.2612,-2.5430,0.1558,-0.7239,-16.4855,-14.9857,-14.5988,-250.5795,50.9646,-95.6446,1447,1552,1.0000,-0.0400,-0.5888,9.8052,-16.5955,0.1106,1.3154,-0.0744,-0.5952,9.8414,-16.3756,0.2976,1.5553
1.2794,-2.8600,0.1894,-0.6978,-15.6000,-15.0779,-5.0741,-314.4874,57.3329,-116.7229,1435,1564,1.0000,-0.1693,-0.5936,9.8459,-15.7787,0.2175,1.4223,0.1626,-0.7748,9.6642,-15.4214,0.1907,1.4943
1.2975,-3.1712,0.2056,-0.6719,-14.6115,-15.0079,3.8524,-376.0115,63.5894,-137.0779,1424,1575,1.0000,-0.0591,-0.7085,9.8387,-14.6871,0.4389,1.3459,-0.0792,-0.7652,9.6809,-14.5359,0.5571,1.5782
1.3157,-3.4741,0.1724,-0.6512,-12.9588,-14.7005,16.9297,-448.5261,69.6813,-160.4279,1411,1588,1.0000,0.1109,-0.8809,9.9871,-13.2749,-0.1795,1.1169,0.0740,-0.8226,9.8438,-12.6427,-0.2826,1.1584
1.3339,-3.6867,0.1751,-0.6175,-9.8519,-13.9733,39.9481,-539.2914,73.9713,-187.9872,1396,1603,1.0000,-0.0280,-0.7516,9.8291,-9.0688,-0.1184,1.0864,-0.0529,-0.8969,9.6546,-10.6351,0.2060,2.6469
1.3520,-3.8156,0.1957,-0.6067,-9.7489,-13.3396,34.8995,-539.5801,76.5865,-189.3757,1395,1604,1.0000,-0.1070,-0.3973,9.7908,-9.7405,0.0114,0.8803,-0.1630,-0.7197,9.7336,-9.7573,0.3434,0.3187
1.3702,-3.9507,0.2367,-0.6013,-9.0199,-12.6916,35.7427,-557.5560,79.3281,-195.7797,1392,1607,1.0000,-0.2243,-0.5266,9.9177,-8.8703,0.2480,0.4375,-0.0098,-0.4707,9.9874,-9.1695,-0.0535,0.1660
1.3883,-4.0537,0.2218,-0.5929,-7.8672,-11.9680,39.8607,-581.2734,81.4294,-203.4712,1388,1611,1.0000,-0.1046,-0.4883,9.7645,-8.1298,-2.7749,0.2467,-0.0864,-0.4300,9.8007,-7.6046,-0.4200,0.4408
1.4065,-4.1623,0.2005,-0.5942,-6.4626,-11.1422,45.4412,-609.8383,83.6421,-212.5758,1383,1616,1.0000,0.0414,-0.6607,9.7980,-6.7176,-0.5611,0.0558,-0.0552,-0.2456,9.7504,-6.2076,0.0381,-0.2385
1.4282,-4.1638,0.2286,-0.5932,-6.8138,-10.4929,29.8540,-565.1173,83.7133,-200.0895,1389,1610,1.0000,-0.0974,-0.1315,9.6304,-6.7634,0.3854,0.1169,-0.2779,-0.1762,9.8150,-6.8641,0.5877,-0.0095
1.4467,-4.1396,0.2609,-0.5922,-6.5581,-9.9027,32.0504,-568.6619,83.2714,-200.8611,1389,1610,1.0000,-0.1741,-0.0382,9.7357,-6.1833,0.1869,0.0329,-0.1223,-0.0421,9.8054,-6.9328,0.1602,0.0439
1.4648,-4.1905,0.2890,-0.5865,-8.1726,-9.6432,14.3091,-523.4218,84.3309,-188.7235,1396,1603,1.0000,-0.2004,-0.2489,9.7860,-7.4505,0.1640,-0.0892,-0.1031,-0.2361,9.8054,-8.8947,-0.7100,0.6317
1.4830,-4.2304,0.2109,-0.5781,-6.7413,-9.2079,23.9097,-555.6636,85.1712,-198.1714,1391,1608,1.0000,0.2784,-0.3350,9.9464,-6.3741,-1.1642,0.1627,0.1435,-0.2097,9.7719,-7.1084,0.0228,0.6240
1.5011,-4.2642,0.2043,-0.5510,-6.5161,-8.8041,22.2700,-554.8354,85.8906,-198.2992,1390,1609,1.0000,0.0462,-0.3255,9.7525,-6.5955,0.7060,0.4375,0.1483,-0.2935,9.7647,-6.4366,0.3205,2.6011
1.5192,-4.2780,0.2478,-0.5359,-6.6115,-8.4752,18.1678,-544.6029,86.2083,-195.5930,1392,1607,1.0000,-0.1908,-0.2297,9.8028,-6.3207,0.2404,0.6360,-0.1702,-0.1954,9.9611,-6.9023,0.8090,1.0821
1.5374,-4.3016,0.2967,-0.5117,-7.4245,-8.3176,8.6848,-520.0094,86.7236,-188.9644,1396,1603,1.0000,-0.2890,-0.2034,9.5705,-7.3665,0.0801,1.1856,0.0286,-0.2073,9.8485,-7.4824,-0.6642,1.3950
1.5555,-4.3903,0.3191,-0.4858,-6.6115,-8.0617,14.1262,-545.8872,88.5412,-197.1190,1391,1608,1.0000,-0.1597,-0.5888,9.7501,-6.6947,-0.0497,1.2925,-0.0193,-0.5042,9.5588,-6.5282,-0.1910,1.5324
1.5736,-4.4949,0.3234,-0.4495,-5.7374,-7.7131,19.2409,-572.6656,90.6800,-205.6864,1386,1613,1.0000,-0.0903,-0.7636,9.9033,-6.1833,-0.2100,1.9032,-0.0792,-0.8059,9.6786,-5.2916,-0.4276,2.0668
1.5918,-4.6075,0.3305,-0.4099,-4.4817,-7.2284,26.6680,-607.0031,92.9762,-216.4489,1380,1619,1.0000,-0.1046,-0.9001,9.5538,-4.6489,-0.2176,2.0100,-0.0217,-0.6790,9.5876,-4.3145,-0.5116,2.3263
1.6100,-4.7087,0.3478,-0.3631,-3.8596,-6.7230,27.8325,-622.0089,95.0481,-221.6866,1378,1621,1.0000,-0.1836,-0.9384,9.7693,-4.0382,-0.5459,2.3994,-0.0816,-0.8226,9.7073,-3.6809,-0.8932,2.6851
1.6281,-4.7577,0.3350,-0.3076,-2.1115,-6.0313,38.2111,-657.5444,96.0767,-232.1508,1372,1627,1.0000,-0.0113,-0.8522,9.7381,-2.6031,-0.4314,2.9184,0.0597,-0.9519,9.4008,-1.6198,-0.3284,3.1737
1.6462,-4.8068,0.3195,-0.2496,0.4763,-3.8667,41.1346,-671.6067,97.1054,-236.6026,1369,1630,1.0000,0.0342,-1.0772,9.6567,-0.1604,-0.0268,3.1398,-0.1366,-0.9878,9.5732,1.1130,-0.1528,3.2958
1.6643,-4.7495,0.3396,-0.1861,2.5946,-0.8567,13.8927,-586.5538,96.0066,-212.2384,1383,1616,1.0000,-0.1286,-0.7708,9.8100,2.1755,0.1106,3.4833,-0.2252,-1.0645,9.4224,3.0137,-0.2368,3.5401
1.6824,-4.7193,0.3412,-0.1184,4.3122,0.0000,0.0000,-543.0724,95.4507,-199.7856,1390,1609,1.0000,-0.0927,-1.0389,9.7070,3.9770,-0.4390,3.6055,-0.0864,-0.8298,9.7456,4.6473,-0.8169,3.8149
1.7006,-4.6157,0.3267,-0.0461,5.4267,0.0000,0.0000,-531.1531,93.4255,-195.4356,1392,1607,1.0000,-0.0136,-0.7947,9.9081,4.9160,-0.4543,3.9948,-0.0002,-0.8586,9.6163,5.9374,-0.7177,3.8912
1.7188,-4.4907,0.3047,0.0264,6.8045,0.0000,0.0000,-516.7645,90.9699,-190.1790,1395,1604,1.0000,0.0366,-0.7923,9.8770,6.5419,-0.2634,3.9642,-0.0026,-0.7412,9.5517,7.0672,-0.6566,3.9828
1.7369,-4.3375,0.2901,0.1179,7.3542,0.0000,0.0000,-499.1374,87.9499,-183.7334,1398,1601,1.0000,-0.0017,-0.6774,9.7453,7.1221,-0.6298,6.2085,0.1267,-0.4970,9.6977,7.5863,-0.5039,3.8225
1.7555,-4.1455,0.3136,0.1963,7.7626,0.0000,0.0000,-477.0380,84.1507,-175.6460,1403,1596,1.0000,-0.0998,-0.5266,9.7405,7.7709,0.4236,4.3994,-0.1055,-0.4013,9.7935,7.7542,0.3052,4.0592
1.7737,-3.9596,0.3225,0.2762,7.8732,0.0000,0.0000,-455.6415,80.4718,-167.8155,1407,1592,1.0000,-0.0759,-0.5146,9.8746,7.6946,0.2022,4.4681,-0.1079,-0.5042,9.9371,8.0519,-0.3513,4.3034
1.7919,-3.8163,0.3121,0.3543,8.2168,0.4267,5.1972,-454.1249,77.6451,-165.9775,1408,1591,1.0000,-0.0400,-0.7157,9.8219,8.0305,-0.4390,4.2619,-0.1917,-0.5401,9.7624,8.4031,-0.9848,4.2424
1.8101,-3.6099,0.2862,0.4315,8.1595,1.7684,15.2778,-459.4026,73.5528,-165.4091,1409,1590,1.0000,0.0199,-0.3781,9.7980,8.0076,-0.8818,4.1322,-0.0552,-0.5306,9.8701,8.3115,-0.8245,4.2347
1.8283,-3.4124,0.2668,0.5050,7.8160,3.2371,19.2115,-447.9966,69.6357,-160.2569,1411,1588,1.0000,0.0414,-0.3590,9.7932,7.9847,-0.1947,4.1398,-0.0122,-0.4085,9.9012,7.6473,-0.2978,3.9065
1.8469,-3.2378,0.2741,0.5783,7.8274,4.5428,20.7480,-432.3382,66.1777,-154.1435,1415,1584,1.0000,-0.0759,-0.4404,9.7357,7.8244,-0.0573,4.0940,-0.1702,-0.7484,9.7216,7.8305,-0.3284,3.8302
1.8653,-3.0807,0.3035,0.6430,8.8389,5.7642,28.6349,-436.9633,63.0646,-153.8820,1415,1584,1.0000,-0.2507,-0.5984,10.0206,8.4808,-0.6527,3.8879,-0.1582,-0.5713,9.7791,9.1969,-1.0688,3.1355
1.8837,-2.9419,0.3122,0.7066,9.7015,6.4046,31.5590,-429.4229,60.3199,-150.3984,1417,1582,1.0000,-0.2148,-0.7253,9.9081,9.4121,-1.5306,3.6971,-0.0457,-0.7772,9.7049,9.9908,-1.5345,3.1355
1.9021,-2.7798,0.2945,0.7641,10.1366,6.9644,30.4521,-407.5803,57.1055,-142.6752,1421,1578,1.0000,-0.0543,-0.6176,9.7717,9.9999,-1.1718,3.2467,-0.0912,-0.6287,9.8964,10.2733,-1.1070,2.9447
1.9205,-2.6140,0.2783,0.8127,9.6442,7.3664,21.8835,-363.8150,53.8142,-128.7753,1429,1570,1.0000,-0.0735,-0.5338,9.7693,8.6182,-1.0192,2.7352,-0.0696,-0.5928,9.7121,10.6702,-1.4810,2.4714
1.9394,-2.4086,0.2651,0.8585,11.7626,8.0258,34.9037,-377.6798,49.7307,-130.6157,1428,1571,1.0000,-0.1046,-0.5290,9.8483,11.4198,-1.5230,2.5673,-0.2683,-0.5617,9.7528,12.1053,-1.4810,2.1966
1.9579,-2.1782,0.2483,0.9030,12.5374,8.7025,36.4950,-355.7470,45.1440,-122.1812,1432,1567,1.0000,-0.1070,-0.4236,9.8147,12.4198,-1.6756,2.5673,-0.1654,-0.4300,9.5636,12.6550,-1.7711,2.1202
1.9763,-1.9071,0.1916,0.9420,12.7129,9.3041,32.6602,-261.2597,39.7420,-93.0237,1448,1551,1.0000,0.0797,-0.2010,9.7812,12.6564,-1.6451,2.2314,0.1507,-0.2456,9.7743,12.7695,-1.7558,1.8989
1.9948,-1.6545,0.1540,0.9821,12.2358,9.7439,23.8236,-215.8307,34.7068,-77.7860,1457,1542,1.0000,0.0031,-0.2058,9.8674,12.2671,-1.6527,2.2314,0.0597,-0.1307,9.8581,12.2046,-1.6719,2.0134
2.0132,-1.4109,0.1010,1.0207,12.1061,10.0982,19.2692,-181.5415,29.8490,-65.7561,1463,1536,1.0000,0.0917,-0.1842,9.7525,12.0686,-1.5993,2.1093,-0.0002,-0.2313,9.7959,12.1435,-1.5421,2.0134
2.0315,-1.1708,0.0698,1.0594,11.5030,10.3089,11.4633,-139.7850,25.0590,-51.6693,1471,1528,1.0000,-0.0400,-0.1052,9.7333,12.3969,-1.8589,2.0787,-0.1031,-0.0900,9.8174,10.6092,-2.1757,2.0286
2.0500,-0.9373,0.0323,1.0998,12.1977,10.5922,15.3554,-126.7267,20.3966,-45.6818,1474,1525,1.0000,-0.0041,-0.1651,9.8291,12.2824,-1.6833,2.1703,0.0142,0.0249,9.8749,12.1130,-2.2597,2.1431
2.0684,-0.6660,-0.0271,1.1424,11.1328,10.6733,4.4013,-74.4229,13.3259,-27.5014,1484,1515,1.0000,0.1013,0.1486,9.8267,11.1373,-2.0802,2.3154,0.1028,0.0895,9.7695,11.1282,-1.9314,2.2576
2.0868,-0.3994,-0.1059,1.1885,10.4038,10.6329,-2.1994,-33.0244,7.9928,-13.2432,1492,1507,1.0000,0.2425,0.2444,9.9273,10.3282,-1.6833,2.5673,0.1459,0.0081,9.8725,10.4794,-1.4810,2.4408
2.1052,-0.1734,-0.1432,1.2417,10.2168,10.5705,-3.3875,-8.4987,3.4700,-4.1146,1497,1502,1.0000,0.0965,0.1103,9.8554,10.1908,-1.3779,3.0329,0.0477,0.0010,9.8366,10.2427,-0.9085,2.7538
2.1236,0.0421,-0.1623,1.2906,9.7168,10.4424,-6.9656,20.7551,-0.8426,6.2327,1503,1496,1.0000,0.1013,0.1390,9.7549,9.6259,1.0648,2.7200,0.3159,0.2691,9.7456,9.8076,-1.1528,2.6164
2.1420,0.2454,-0.2128,1.3264,8.9496,10.2185,-12.1981,52.8037,-4.9098,17.2399,1509,1490,1.0000,0.1779,0.1941,9.7597,8.9847,-0.8283,3.1245,0.2895,-0.0757,9.7216,8.9145,-1.0612,0.8760
2.1605,0.4021,-0.2577,1.3772,8.9038,10.0213,-10.6607,64.1424,-8.0458,21.9828,1512,1487,1.0000,0.1755,0.0097,9.8124,8.9770,-0.5917,2.8574,0.2153,-0.1618,9.7145,8.8305,-0.9467,2.6546
2.1788,0.5394,-0.3243,1.4234,9.4763,9.9395,-4.4467,62.3980,-10.7939,22.8684,1512,1487,1.0000,0.2808,-0.1028,9.9033,9.2518,-0.7673,2.5291,0.3015,-0.1307,9.6953,9.7008,-0.9543,2.5019
2.1972,0.6934,-0.4007,1.4639,9.8847,9.9313,-0.4477,67.5606,-13.8740,25.8539,1514,1485,1.0000,0.3479,-0.0334,9.8962,9.7480,-0.9276,2.3612,0.2775,-0.1714,9.7025,10.0214,-0.6184,2.0668
2.2157,0.8422,-0.4349,1.5038,10.1328,9.9615,1.6393,76.8246,-16.8523,29.9371,1516,1483,1.0000,0.1994,-0.0573,9.8291,10.0763,-0.1947,2.3383,0.1746,-0.0182,9.8246,10.1893,-0.4123,1.9828
2.2340,1.0073,-0.4668,1.5408,10.4419,10.0336,3.9198,104.6186,-20.1558,39.3711,1521,1478,1.0000,0.1779,0.0193,9.7932,10.2747,-0.4237,2.0940,0.1411,0.0488,9.7839,10.6092,-0.5574,1.9370
2.2524,1.1680,-0.4895,1.5685,11.0565,10.1870,8.3598,110.3234,-23.3815,42.5813,1523,1476,1.0000,0.1132,-0.0262,9.6400,10.7862,-0.8436,1.6818,0.1267,0.0967,9.7719,11.3267,-0.7406,1.3416
2.2708,1.3630,-0.5168,1.5966,11.7778,10.4256,12.9307,119.6028,-27.2960,47.1368,1525,1474,1.0000,0.1563,0.0959,9.8243,11.6411,-0.5764,1.6971,0.1267,0.1686,9.6929,11.9145,-0.6337,1.3645
2.2896,1.5561,-0.6014,1.6204,11.8694,10.6422,11.5492,145.7970,-31.1727,56.4095,1531,1468,1.0000,0.4101,0.0983,9.7908,11.7175,-0.8054,1.3230,0.1195,0.1302,9.7264,12.0214,-0.7635,1.2424
2.3083,1.7702,-0.6187,1.6379,12.0832,10.8584,11.5467,170.4427,-35.4728,65.4603,1536,1463,1.0000,0.1899,0.2132,9.8243,12.0228,-0.0802,0.9337,0.0405,0.1638,9.7528,12.1435,0.2289,0.9294
2.3268,2.0282,-0.6017,1.6343,12.5794,11.1165,13.9393,193.2345,-40.6520,74.4316,1540,1459,1.0000,0.0103,0.4143,9.7405,12.2824,-0.2940,0.7200,-0.1127,0.4343,9.5900,12.8763,-0.1757,-1.0172
2.3452,2.2732,-0.5940,1.6477,12.2587,11.2878,9.3144,234.7523,-45.5757,88.5185,1548,1451,1.0000,0.0199,0.4383,9.7812,12.3358,1.0877,0.9032,0.2129,0.4343,9.8677,12.1817,-1.9619,0.6240
2.3636,2.5366,-0.6194,1.6640,11.6786,11.3465,3.1913,282.6932,-50.8684,104.5883,1557,1442,1.0000,0.1300,0.6131,9.7022,11.6411,-1.3169,1.0253,0.1985,0.5540,9.7145,11.7160,-0.6719,0.8989
2.3821,2.7842,-0.6364,1.6821,11.2664,11.3344,-0.6501,322.2512,-55.8486,118.1546,1564,1435,1.0000,0.2138,0.6202,9.7740,11.1984,0.2709,1.1245,0.0597,0.4415,9.9084,11.3344,0.4350,0.8607
2.4005,2.9802,-0.5666,1.6999,10.9381,11.2750,-3.2261,352.2267,-59.7987,128.5228,1570,1429,1.0000,-0.1956,0.4383,9.5418,10.9999,0.4923,1.1398,-0.2324,0.5420,9.8438,10.8763,-0.0535,0.7691
2.4189,3.2300,-0.5124,1.6972,11.4916,11.3075,1.7677,366.5868,-64.8264,135.0575,1574,1425,1.0000,-0.1765,0.6801,9.6160,12.4427,1.0724,0.9413,-0.1390,0.7096,9.7671,10.5405,-1.5268,-1.1011
2.4373,3.4574,-0.5297,1.7105,10.2740,11.1525,-8.4147,422.0792,-69.4087,152.8865,1584,1415,1.0000,0.0247,0.7304,9.7621,10.2060,-1.7367,1.0635,0.1602,0.6306,9.8294,10.3420,-1.4734,0.6240
2.4557,3.6429,-0.5837,1.7058,10.7282,11.0888,-3.4618,429.1665,-73.1559,156.7446,1586,1413,1.0000,0.2665,0.5364,9.7908,10.4656,-1.1947,0.7581,0.2392,0.5037,9.8054,10.9908,-0.6413,-1.0782
2.4741,3.7950,-0.5851,1.7208,11.1900,11.1040,0.8257,434.3199,-76.2355,159.7273,1587,1412,1.0000,0.1396,0.3641,9.6304,10.9694,0.3320,0.8955,0.0884,0.5205,9.8438,11.4107,0.5724,0.6393
2.4925,3.9676,-0.5597,1.7309,11.3274,11.1375,1.8145,451.3366,-79.7275,166.2380,1591,1408,1.0000,0.0151,0.4718,9.6328,11.2518,0.7442,0.6131,-0.0050,0.4822,9.7384,11.4031,0.1220,0.3950
2.5109,4.1627,-0.5448,1.7546,11.1481,11.1391,0.0859,478.7628,-83.6703,175.8887,1596,1403,1.0000,-0.0208,0.6202,9.5873,11.0076,-0.2100,2.3535,-0.1007,0.5780,9.7935,11.2885,-0.7253,0.3950
2.5293,4.3429,-0.5732,1.7583,10.6404,11.0643,-4.0757,511.4924,-87.3188,186.8773,1602,1397,1.0000,0.2018,0.6418,9.7333,10.7022,-0.4008,0.2925,0.1100,0.5061,9.7815,10.5786,-0.1604,0.1508
2.5477,4.5184,-0.5923,1.7617,10.9877,11.0528,-0.6230,521.7407,-90.8731,191.5240,1605,1394,1.0000,0.2377,0.6274,9.9967,10.7785,0.3473,0.0635,0.2943,0.7240,9.8007,11.1969,0.7556,0.1889
2.5662,4.7006,-0.6059,1.7620,10.8961,11.0293,-1.2722,544.5802,-94.5644,199.7646,1609,1390,1.0000,0.1396,0.6873,9.8459,10.7098,0.5763,0.1322,0.0956,0.7120,9.6498,11.0824,-1.0994,-0.0630
2.5846,4.9382,-0.5656,1.7620,10.8465,11.0019,-1.4901,572.5496,-99.3653,209.9965,1615,1384,1.0000,-0.0304,0.9650,9.6280,10.9694,0.9045,0.1322,0.0333,1.1071,9.8461,10.7237,0.3892,-0.1851
2.6031,5.1800,-0.5699,1.7588,9.1481,10.7238,-15.0608,639.4672,-104.2540,231.1778,1627,1372,1.0000,0.0725,1.1925,9.7717,9.4808,0.2327,0.0253,0.0836,0.9060,9.9180,8.8153,-1.2062,-0.1927
2.6215,5.4050,-0.5444,1.7582,7.9916,10.3140,-22.2600,686.1007,-108.8089,246.5126,1635,1364,1.0000,0.0151,1.2643,9.8171,8.1602,0.5152,0.0940,0.2345,0.9371,9.7671,7.8229,0.4274,-0.1469
2.6398,5.5377,-0.5514,1.7589,7.2129,9.8488,-25.3463,710.2577,-111.5175,254.6309,1640,1359,1.0000,0.1875,0.9315,9.8459,7.0839,0.4770,0.0100,0.2009,0.9969,10.0066,7.3420,0.9159,-0.0630
2.6582,5.6592,-0.5797,1.7583,6.5145,9.3487,-27.2070,729.6027,-114.0046,261.2910,1643,1356,1.0000,0.2808,0.9626,9.8363,6.6488,0.5610,0.0482,0.2728,0.9706,9.9611,6.3802,0.6411,-0.2080
2.6766,5.8008,-0.5877,1.7596,5.2816,8.7386,-33.1909,763.1268,-116.8934,272.1222,1649,1350,1.0000,0.2425,1.1949,9.8962,5.6030,1.3473,-0.0358,0.1530,1.1621,10.0808,4.9603,1.0228,-0.0095
2.6950,5.9090,-0.5544,1.7598,3.5335,7.9579,-42.5148,802.4331,-119.1165,284.2395,1656,1343,1.0000,0.0318,1.2044,9.8195,3.8244,1.0801,0.0329,-0.0912,1.1765,9.9012,3.2427,0.8777,-0.1546
2.7133,5.9226,-0.5214,1.7578,1.7473,7.0263,-50.7066,827.5919,-119.4479,291.4497,1660,1339,1.0000,-0.0855,0.9028,9.5083,1.8091,0.6984,-0.1426,-0.0265,0.8102,10.1047,1.6855,-1.2597,-0.0248
2.7321,5.8869,-0.4503,1.7553,1.3809,6.1795,-45.0853,807.2985,-118.7936,285.4404,1656,1343,1.0000,0.0103,0.7328,9.8100,1.1602,3.0648,-0.3182,0.0405,0.7743,9.9587,1.6015,2.6411,-0.5897
2.7506,5.8659,-0.4465,1.7480,1.2435,4.9397,-36.4104,779.8904,-118.4310,277.5848,1652,1347,1.0000,0.1779,0.7950,9.6687,1.3205,1.1488,-0.7075,0.0812,0.7695,9.9515,1.1664,1.5037,-0.4141
2.7690,5.8548,-0.4040,1.7403,0.4572,2.7934,-24.1351,743.2647,-118.2684,267.2483,1646,1353,1.0000,0.0797,0.9291,9.9464,0.6946,2.1106,-0.6923,-0.1702,0.9586,9.8988,0.2198,2.3052,-0.6126
2.7874,5.8345,-0.2516,1.7296,-0.7031,0.8103,-9.2006,697.9130,-117.9201,254.3757,1639,1360,1.0000,-0.4949,0.9722,9.7525,-0.5039,2.2251,-0.6159,-0.5987,0.6665,9.8653,-0.9023,1.0839,-0.8798
2.8058,5.7095,-0.1754,1.7077,-0.8290,0.0314,-0.3790,658.1278,-115.4785,242.0150,1633,1366,1.0000,-0.3345,0.4886,9.8531,-0.9314,-0.3092,-1.2190,-0.2324,0.6522,9.7767,-0.7267,-0.3894,-1.1393
2.8242,5.6810,-0.1329,1.7054,-0.4550,0.0000,-0.0000,653.7553,-114.9652,240.5341,1632,1367,1.0000,-0.0950,0.8812,9.7190,-0.6795,0.3778,-1.2953,0.1746,0.6929,9.9228,-0.2305,1.3510,0.7538
2.8426,5.6426,-0.1239,1.7026,-0.3329,0.0000,-0.0000,649.3322,-114.2530,238.9395,1631,1368,1.0000,0.1085,0.8261,9.8818,-0.3207,1.4999,-1.3182,0.0573,1.0209,9.9323,-0.3450,1.3892,0.6164
2.8610,5.6211,-0.0649,1.6773,-0.3825,0.0000,-0.0000,646.8532,-113.8784,238.0581,1630,1369,1.0000,-0.0855,0.9028,9.8459,-0.0993,1.1488,-1.1808,-0.0361,1.0113,9.8677,-0.6656,2.4884,-1.9256
2.8794,5.6103,-0.0552,1.6472,-1.1344,0.0000,-0.0000,645.6109,-113.7186,237.6304,1630,1369,1.0000,0.0342,1.0273,9.9369,-0.9924,0.4236,-1.5777,-0.0145,0.9730,9.9802,-1.2763,0.8014,-1.8263
2.8977,5.6088,-0.0395,1.6130,-2.3596,0.0000,-0.0000,645.4429,-113.7455,237.5968,1630,1369,1.0000,0.0151,1.1853,9.9919,-1.9237,0.6679,-1.6235,0.1147,1.0903,10.0928,-2.7954,0.8319,-2.2538
2.9162,5.6206,0.0160,1.5758,-3.8214,0.0000,-0.0000,646.8007,-114.0377,238.1230,1630,1369,1.0000,-0.1477,1.3648,9.9153,-3.2596,0.8969,-1.8678,0.0166,1.4183,9.9802,-4.3832,1.2518,-2.3836
2.9346,5.6012,0.0384,1.5411,-5.9054,0.0000,-0.0000,644.5689,-113.7059,237.3322,1630,1369,1.0000,0.0103,1.3888,9.8195,-5.6642,0.9198,-1.9976,-0.0648,1.3537,9.7049,-6.1466,1.3968,-2.0324
2.9529,5.5119,0.1019,1.5086,-8.3138,0.0000,-0.0000,634.2900,-111.9748,233.5886,1628,1371,1.0000,-0.1405,1.2643,9.8411,-8.9924,1.7366,-1.9365,-0.0912,1.2986,9.8270,-7.6351,1.7632,-1.9637
2.9714,5.4491,0.1432,1.4751,-7.7489,0.0000,-0.0000,627.0585,-110.7726,230.9627,1627,1372,1.0000,-0.1094,1.3385,9.8890,-7.4810,0.9274,-1.9671,-0.2468,1.1382,9.8581,-8.0168,1.0228,-1.8798
2.9898,5.4314,0.1661,1.4432,-9.2527,-0.6078,-8.5069,649.5217,-110.4730,237.1026,1630,1369,1.0000,-0.0543,1.6474,9.6974,-8.6260,0.5228,-1.8907,0.0788,1.2747,9.7169,-9.8794,0.9923,-1.7805
3.0081,5.3273,0.2517,1.4106,-10.7832,-3.1600,-37.6336,721.4337,-108.4457,256.2243,1640,1359,1.0000,-0.3417,1.3648,9.6783,-10.4963,0.8053,-1.9671,-0.1558,1.1023,9.9515,-11.0702,0.9312,-1.7882
3.0266,5.1561,0.2810,1.3778,-11.7832,-5.8256,-56.1958,755.1883,-105.0730,263.9892,1645,1354,1.0000,-0.1549,1.1422,9.8698,-11.5039,0.2404,-1.7839,-0.2492,1.0233,9.6977,-12.0626,-0.0077,-1.8187
3.0450,4.9372,0.2986,1.3437,-12.3176,-6.8301,-52.6196,719.6874,-100.7429,251.8839,1638,1361,1.0000,-0.1549,0.9578,10.1595,-11.8856,-0.4924,-1.7839,-0.0313,0.7671,9.7600,-12.7496,-0.2062,-1.8721
3.0633,4.6927,0.2959,1.3079,-14.0313,-7.9103,-58.9285,709.7220,-95.9005,246.6724,1635,1364,1.0000,0.0031,0.9291,10.0183,-14.8092,-0.1489,-1.7686,0.0477,0.9012,9.8533,-13.2534,0.8319,-2.2233
3.0817,4.4422,0.3330,1.2736,-14.1611,-8.8479,-50.8983,657.7727,-90.9360,229.6444,1626,1373,1.0000,-0.0879,0.8860,10.1380,-14.0382,1.3015,-1.9060,-0.2875,0.7240,9.7025,-14.2840,1.5342,-2.0630
3.1001,4.2245,0.4102,1.2394,-14.4970,-9.6953,-46.0766,618.8278,-86.6234,216.5835,1619,1380,1.0000,-0.3464,1.0249,10.0398,-14.1222,0.7137,-2.1045,-0.3904,0.5301,9.8150,-14.8718,0.8548,-1.7576
3.1185,3.9445,0.4658,1.1991,-13.8939,-10.3251,-34.2925,552.6709,-81.0635,195.2796,1607,1392,1.0000,-0.2818,0.6370,10.1763,-14.0611,0.2938,-2.3487,-0.2013,0.4223,9.6833,-13.7267,0.8014,-2.0935
3.1369,3.6047,0.4511,1.1558,-13.9435,-10.8679,-29.4457,499.6073,-74.3034,177.0418,1597,1402,1.0000,-0.0543,0.2922,9.9321,-13.0153,-0.1871,-2.1732,-0.0696,0.3864,9.8150,-14.8718,-1.1146,-2.3760
3.1554,3.3348,0.4656,1.1106,-12.7260,-11.1466,-15.0972,427.2170,-68.9376,154.0896,1584,1415,1.0000,-0.0496,0.4694,10.0781,-12.4276,0.7595,-2.5090,-0.0600,0.4152,9.7360,-13.0244,1.2060,-2.4905
3.1739,3.1313,0.5229,1.0670,-12.6229,-11.3680,-11.9983,394.8827,-64.9004,143.0174,1578,1421,1.0000,-0.2555,0.7160,9.7932,-12.3207,0.9961,-2.4556,-0.2540,0.3745,9.7288,-12.9252,0.8472,-2.3989
3.1927,2.8634,0.5695,1.0127,-11.1726,-11.3387,1.5594,324.9983,-59.5694,120.7842,1566,1433,1.0000,-0.3584,0.2803,10.0518,-11.1680,-0.7749,-2.7533,-0.1462,0.3385,9.7815,-11.1771,-0.5192,-2.8874
3.2111,2.6814,0.5076,0.9596,-9.0810,-11.0000,18.3268,255.7664,-55.9565,99.5928,1554,1445,1.0000,0.0965,0.4407,10.1260,-9.3054,-1.4543,-2.8297,0.0908,0.4606,9.7863,-8.8565,-1.0459,-2.7958
3.2296,2.4929,0.4651,0.9194,-8.4283,-10.6143,20.9471,226.5357,-52.2127,89.5363,1549,1450,1.0000,0.1109,0.2970,9.7286,-8.1298,-0.6375,-2.9442,0.1794,0.5851,9.8845,-8.7267,0.5648,-1.3149
3.2480,2.3664,0.4540,0.8617,-8.4168,-10.2847,17.8636,220.8517,-49.7050,86.6910,1547,1452,1.0000,0.0079,0.5508,9.6998,-8.1604,0.3778,-3.2953,0.1219,0.7982,9.8270,-8.6733,0.2518,-3.0095
3.2664,2.2229,0.4386,0.8202,-8.9855,-10.0898,10.5728,225.3343,-46.8569,86.5221,1547,1452,1.0000,-0.0807,0.5005,9.7405,-8.7711,-0.7215,-1.5472,-0.0361,0.7360,9.7600,-9.2000,-1.2139,-2.9714
3.2848,2.1072,0.4094,0.7640,-8.2374,-9.8119,15.1231,198.9195,-44.5647,77.9798,1542,1457,1.0000,-0.0304,0.5556,9.9273,-8.5192,-1.2558,-3.1961,0.0309,0.6211,9.7384,-7.9557,-1.0535,-2.8492
3.3036,2.0275,0.3852,0.7086,-6.2489,-9.2775,28.4936,151.2427,-42.9912,63.8436,1535,1464,1.0000,0.0031,0.5388,9.8842,-7.3589,-0.6756,-3.2495,0.0932,0.7360,9.7983,-5.1389,-0.3436,-2.6279
3.3220,1.9642,0.3661,0.6582,-7.1344,-8.9560,17.3972,175.9167,-41.7449,70.1292,1538,1461,1.0000,0.0342,0.6729,9.9704,-7.2062,-0.1337,-2.8984,-0.1247,0.9515,9.9659,-7.0626,0.1449,-2.5973
3.3404,1.9175,0.3314,0.6089,-8.6077,-8.9038,2.8447,177.0486,-40.8309,69.9890,1538,1461,1.0000,0.1013,0.8237,9.4436,-8.2062,-0.0421,-2.9747,-0.1366,0.9443,9.6929,-9.0092,-0.1299,-2.4447
3.3597,1.8435,0.3581,0.5574,-9.2413,-8.9544,-2.6188,183.0595,-39.3681,70.9407,1539,1460,1.0000,-0.1693,0.7998,9.8267,-9.0688,0.0877,-2.9060,-0.0768,0.5827,9.8677,-9.4137,-0.0765,-2.4599
3.3782,1.7473,0.3486,0.5054,-8.0466,-8.8182,7.3927,149.8063,-37.4615,60.6765,1533,1466,1.0000,-0.0591,0.5724,9.9704,-9.0001,-0.5535,-2.9136,0.1028,0.5804,9.8509,-7.0931,-0.4963,-2.7347
3.3965,1.6008,0.3282,0.4557,-9.1611,-8.8697,-2.7998,160.2259,-34.5487,62.1376,1534,1465,1.0000,-0.0136,0.4024,9.8171,-9.1833,-0.6833,-2.8144,0.0429,0.4367,9.9036,-9.1389,-0.5803,-2.5592
3.4149,1.4381,0.3040,0.4069,-9.6726,-8.9901,-6.5582,153.6390,-31.3080,58.6729,1532,1467,1.0000,0.0223,0.3425,9.8052,-9.3894,-0.7138,-2.7075,0.1100,0.4008,9.9443,-9.9557,-0.1528,-2.5897
3.4332,1.2826,0.2899,0.3587,-10.3138,-9.1886,-10.8212,148.9639,-28.2118,55.8158,1530,1469,1.0000,0.0462,0.4024,9.7286,-10.1375,0.3091,-2.7762,0.0716,0.3481,9.7719,-10.4901,0.3510,-2.5134
3.4516,1.0766,0.2898,0.3081,-11.7031,-9.5658,-20.4929,152.4156,-24.1011,54.7269,1530,1469,1.0000,-0.0304,0.2563,9.5777,-10.5573,0.0877,-2.7304,-0.0768,0.1255,9.7001,-12.8489,0.2136,-2.7805
3.4700,0.8476,0.2944,0.2576,-10.2871,-9.6740,-5.8865,95.4015,-19.5297,36.4773,1520,1479,1.0000,-0.0663,-0.0023,9.8531,-10.3512,0.2480,-2.7686,-0.0576,0.0991,9.7959,-10.2229,-0.2291,-2.6966
3.4884,0.6134,0.2752,0.2041,-9.5619,-9.6572,0.9168,56.6227,-12.2749,21.9918,1512,1487,1.0000,0.0247,-0.1315,9.8124,-9.5879,-0.1718,-3.0281,-0.0648,0.0656,9.7480,-9.5359,-0.2749,-2.7576
3.5068,0.4443,0.2690,0.1506,-8.4817,-9.4809,9.5671,19.6465,-8.8911,9.9466,1505,1494,1.0000,-0.0567,0.0385,9.7238,-7.1222,-0.4161,-2.8220,-0.0792,0.1853,9.8007,-9.8412,-0.5574,-2.9790
3.5252,0.2500,0.2523,0.0983,-9.9245,-9.5474,-3.6213,32.6680,-5.0034,11.6487,1506,1493,1.0000,-0.0424,0.0193,9.8291,-9.6489,-0.8436,-2.9136,-0.0361,0.0871,9.7097,-10.2000,-0.9161,-2.7576
3.5436,0.0678,0.1789,0.0453,-9.6191,-9.5582,-0.5840,7.9000,-1.3561,2.8900,1501,1498,1.0000,0.2521,0.0217,9.8147,-9.6413,-0.8970,-3.0510,-0.1151,-0.0469,9.5924,-9.5969,-0.3284,-2.6966
3.5621,-0.0942,0.1384,-0.0112,-9.3596,-9.5284,1.6112,-12.9037,1.8858,-4.5559,1497,1502,1.0000,0.1085,0.0624,9.7094,-9.3512,-0.6451,-3.1884,0.0333,0.0776,9.7025,-9.3679,-0.4810,-2.9179
3.5805,-0.2459,0.1119,-0.0670,-9.5275,-9.5282,0.0070,-23.5997,4.9212,-9.0685,1495,1504,1.0000,0.0749,0.0887,9.7166,-9.1756,-0.4237,-3.1808,-0.0361,0.2140,9.7240,-9.8794,-0.1528,-2.8950
3.5988,-0.3870,0.1064,-0.1250,-10.4817,-9.6713,-7.7986,-18.3919,7.7436,-9.0215,1495,1504,1.0000,-0.0376,0.1965,9.8339,-10.1604,-0.3398,-3.3029,-0.0265,0.2140,9.8557,-10.8031,-0.6566,-3.0324
3.6172,-0.5416,0.1118,-0.1813,-11.9245,-10.0092,-18.3381,-7.9229,10.8374,-7.6371,1495,1504,1.0000,-0.0304,0.2348,9.8195,-11.3818,1.1030,-3.1350,0.0286,0.2883,9.9563,-12.4672,-0.7787,-2.9790
3.6356,-0.7148,0.0832,-0.2354,-13.8100,-10.5794,-30.9914,5.8396,14.3025,-5.5162,1496,1503,1.0000,0.0773,0.2779,9.6879,-13.1527,-0.5459,-3.0816,0.1483,0.3529,9.9611,-14.4672,-0.1681,-2.8187
3.6540,-0.9087,0.0618,-0.2889,-15.5390,-11.3233,-40.5463,12.2061,18.1838,-5.6742,1496,1503,1.0000,0.1156,0.2994,9.7477,-14.8932,0.3931,-2.9594,0.0166,0.3361,9.9108,-16.1847,0.3739,-2.8798
3.6724,-1.1428,0.0486,-0.3395,-17.2985,-12.2196,-48.7130,8.7945,22.8670,-8.9711,1495,1504,1.0000,0.0749,0.2372,9.8195,-16.6108,0.2327,-2.9976,-0.0337,0.1518,10.0042,-17.9863,0.3892,-2.4981
3.6907,-1.4206,0.0585,-0.3895,-18.9817,-13.2339,-55.2365,-4.3911,28.4384,-15.4487,1491,1508,1.0000,-0.0735,0.1318,9.7621,-18.4657,0.0419,-3.0052,-0.0672,0.1709,9.9659,-19.4977,-0.3665,-2.4294
3.7094,-1.7337,0.0361,-0.4328,-20.6039,-14.3394,-59.1071,-29.2667,34.7168,-25.5531,1485,1514,1.0000,0.0438,0.0887,9.8100,-20.1146,-0.6604,-2.6235,0.0477,0.0057,10.1335,-21.0931,-0.3284,-2.0401
3.7282,-2.0942,0.0119,-0.4738,-21.9779,-15.4852,-60.9609,-65.4083,41.9472,-39.2879,1478,1521,1.0000,0.0773,-0.0573,9.7836,-21.4734,-0.5153,-2.4861,0.0788,-0.0876,9.7097,-22.4824,0.0686,-1.8874
3.7469,-2.4941,0.0174,-0.5114,-23.2107,-16.6440,-61.9732,-108.5198,49.9718,-55.3714,1469,1530,1.0000,-0.0160,-0.2034,9.8124,-22.7100,0.1717,-2.2953,0.0932,-0.2265,9.8892,-23.7115,0.3129,-1.7042
3.7657,-2.9396,0.0049,-0.5467,-24.2184,-17.7802,-60.6961,-163.4529,58.9093,-75.2215,1458,1541,1.0000,0.0558,-0.3901,9.7693,-23.7558,0.0648,-2.1350,0.0501,-0.3989,9.8845,-24.6809,0.1755,-1.6279
3.7844,-3.4012,0.0028,-0.5780,-24.9932,-18.8621,-57.6456,-225.3680,68.1771,-97.1916,1446,1553,1.0000,-0.0136,-0.4715,9.8124,-24.4810,-0.3245,-1.9365,0.0860,-0.4492,9.8509,-25.5053,0.0533,-1.4065
3.8029,-3.8660,0.0125,-0.6053,-25.8977,-19.9175,-57.1722,-280.2099,77.5100,-117.2138,1435,1564,1.0000,-0.0543,-0.5122,9.6424,-25.6413,-0.0879,-1.8220,0.0501,-0.5425,9.7025,-26.1542,0.1068,-1.1240
3.8212,-4.3191,0.0337,-0.6321,-25.8710,-20.8105,-48.6868,-356.7994,86.6166,-143.2121,1421,1578,1.0000,-0.0424,-0.5625,9.8100,-25.5344,0.5457,-1.6770,-0.2803,-0.6215,9.7935,-26.2076,0.9465,-1.1317
3.8396,-4.7666,0.0606,-0.6533,-26.4397,-21.6549,-45.8883,-416.3524,95.6131,-164.3852,1409,1590,1.0000,-0.1262,-0.5529,9.7597,-26.1909,0.3854,-1.4251,-0.2851,-0.7173,9.7767,-26.6885,-0.1833,-0.8492
3.8580,-5.1866,0.0796,-0.6711,-26.5428,-22.3881,-39.9305,-481.8527,104.0658,-186.9517,1397,1602,1.0000,-0.1310,-0.5002,9.7477,-26.0535,-0.5077,-1.1121,-0.0337,-0.5210,9.7791,-27.0321,-0.0230,-0.8798
3.8763,-5.5942,0.0812,-0.6810,-26.2413,-22.9660,-31.5539,-552.8824,112.2727,-210.9434,1383,1616,1.0000,-0.0136,-0.5409,9.7286,-26.0611,-0.1795,-0.7381,0.0405,-0.6263,9.5660,-26.4214,0.5037,-0.3225
3.8947,-5.9542,0.1076,-0.6859,-25.2985,-23.3159,-18.9948,-630.4875,119.5324,-236.3027,1370,1629,1.0000,-0.0639,-0.4667,9.8507,-24.9237,0.8663,-0.3564,-0.1079,-0.5186,9.5804,-25.6733,0.8625,-0.0095
3.9131,-6.3399,0.1558,-0.6810,-24.3901,-23.4770,-8.7655,-704.3436,127.3103,-260.8714,1356,1643,1.0000,-0.2076,-0.7229,9.7573,-24.4886,0.3702,0.2238,-0.0864,-0.8298,9.5924,-24.2916,0.4350,0.4103
3.9315,-6.7357,0.2079,-0.6667,-23.1039,-23.4211,3.0487,-783.9284,135.2942,-287.1470,1342,1657,1.0000,-0.2052,-0.9360,9.5873,-23.1909,0.5610,0.6742,-0.1295,-0.8633,9.4631,-23.0168,0.7022,1.0515
3.9498,-7.0528,0.2265,-0.6495,-21.7336,-23.1679,13.7742,-851.3104,141.7055,-309.2197,1329,1670,1.0000,-0.0400,-0.7636,9.7956,-21.9848,0.6755,0.8574,-0.1247,-1.0166,9.2739,-21.4824,0.9770,1.2118
3.9683,-7.4331,0.2433,-0.6294,-19.4932,-22.6167,29.9428,-941.6550,149.3864,-338.3566,1313,1686,1.0000,0.0055,-1.2927,9.6807,-20.2367,1.1030,0.8345,-0.1295,-1.3733,9.0632,-18.7496,1.3892,1.7156
3.9866,-7.7793,0.3240,-0.6072,-15.8939,-21.6083,54.8802,-1053.3251,156.3879,-373.1250,1294,1705,1.0000,-0.2842,-1.4651,9.3982,-16.6871,1.7595,1.1016,-0.3785,-1.7588,9.2045,-15.1008,0.7174,1.7385
4.0051,-8.0473,0.3732,-0.5755,-12.3214,-20.2153,75.5539,-1143.7171,161.8285,-401.1550,1279,1720,1.0000,-0.2746,-1.5298,9.8028,-12.7863,0.1564,1.6665,-0.3042,-1.5696,9.1638,-11.8565,-0.3971,1.8149
4.0234,-8.2235,0.4727,-0.5475,-10.2107,-18.7146,81.6861,-1181.6614,165.4347,-413.5825,1272,1727,1.0000,-0.4542,-1.2855,9.4915,-9.5726,0.4541,1.6818,-0.2348,-1.5696,9.2261,-10.8489,0.6716,1.5553
4.0418,-8.3356,0.5222,-0.5187,-5.7260,-16.7663,106.1042,-1264.8915,167.7602,-438.0497,1259,1740,1.0000,-0.2411,-1.4220,9.6495,-6.1527,0.2556,2.0482,-0.2157,-1.6247,9.3218,-5.2992,0.9159,1.2729
4.0603,-8.3594,0.5969,-0.4922,-1.6458,-14.4982,122.8003,-1315.7140,168.3194,-452.5596,1251,1748,1.0000,-0.2842,-1.3646,9.6160,-2.2367,0.6144,1.9948,-0.1750,-1.9216,9.3625,-1.0550,2.5648,1.3187
4.0787,-8.2994,0.6580,-0.4635,2.3961,-11.9641,137.7548,-1351.8857,167.2041,-462.1301,1245,1754,1.0000,-0.3512,-1.3454,9.7357,1.4961,0.0495,1.9413,-0.2157,-1.6941,9.4798,3.2962,0.4121,1.2118
4.0970,-8.1002,0.7179,-0.4417,7.3007,-9.0744,157.2113,-1384.9838,163.3003,-469.4456,1241,1758,1.0000,-0.3536,-1.1515,10.2385,6.4274,0.6831,1.8574,-0.5030,-1.7301,8.6251,8.1740,0.1373,0.4943
4.1155,-7.8070,0.8312,-0.4234,11.4648,-5.9934,167.3093,-1380.3168,157.5149,-465.2462,1244,1755,1.0000,-0.6481,-0.9935,9.9440,10.0992,0.3931,1.3841,-0.5413,-1.9695,8.8238,12.8305,-0.3436,0.4408
4.1338,-7.5863,0.9049,-0.4117,13.5908,-0.0031,0.1641,-873.5316,153.1765,-321.1771,1323,1676,1.0000,-0.4446,-1.3957,9.3000,12.2518,-0.0192,0.4604,-0.1462,-1.6846,9.4559,14.9298,0.5342,0.9523
4.1522,-7.3496,0.8726,-0.4088,15.3465,0.0000,0.0000,-845.8063,148.5150,-311.0832,1328,1671,1.0000,-0.0160,-1.5369,9.7812,15.7175,-0.8131,0.1856,-0.3066,-0.6862,10.1119,14.9756,0.4350,0.1508
4.1706,-7.0111,0.9211,-0.4094,16.2015,0.0000,0.0000,-806.8414,141.8149,-296.8230,1336,1663,1.0000,-0.3680,-1.0581,9.6160,16.3282,0.0877,0.3917,-0.1869,-1.0166,9.8821,16.0748,0.0533,-0.5668
4.1890,-6.5916,1.0089,-0.3872,17.9152,2.3594,66.7454,-950.7859,133.4915,-332.9658,1316,1683,1.0000,-0.5763,-0.7804,9.8962,17.0763,-0.0344,2.3612,-0.2947,-1.1052,9.2835,18.7542,-0.1528,-0.2156
4.2074,-6.1609,1.0215,-0.3879,18.5374,6.6392,114.2511,-1038.0273,124.9388,-353.1170,1305,1694,1.0000,-0.2746,-0.7229,9.8866,18.5801,-0.5306,-0.2724,-0.2540,-0.3965,10.1574,18.4947,-0.3665,-0.0859
4.2258,-5.7587,1.0231,-0.3821,15.0717,7.9041,68.7028,-860.5623,116.9533,-299.4341,1335,1664,1.0000,-0.2052,-0.4931,9.8650,15.7556,-0.1337,0.4299,0.1578,0.1183,10.4758,14.3878,-0.2444,-0.1011
4.2442,-5.4522,0.9714,-0.3666,11.8580,8.4971,32.3257,-720.5120,110.8764,-257.1816,1358,1641,1.0000,0.1061,-0.5697,9.8602,11.5495,-0.0344,0.5368,0.3087,-0.8155,9.9180,12.1664,0.9312,1.1126
4.2625,-5.2058,0.9787,-0.3528,12.6977,9.1272,34.2746,-697.7672,106.0006,-248.3751,1363,1636,1.0000,-0.0184,-0.8737,9.8291,12.1908,2.0724,0.6436,-0.4718,-1.0908,10.1430,13.2046,1.8167,1.2271
4.2809,-4.8996,1.0049,-0.3374,13.7206,9.8162,37.4799,-671.7602,99.9259,-238.0558,1369,1630,1.0000,-0.2387,-0.6822,10.4301,13.0228,0.9579,1.0635,-0.3761,-0.6048,10.0640,14.4183,0.3434,0.6164
4.2994,-4.5680,1.0639,-0.3156,10.0526,9.8517,1.9226,-531.1925,93.3395,-195.4036,1392,1607,1.0000,-0.4518,-0.1555,9.5490,10.7938,1.0495,1.2467,-0.0409,-0.4037,9.8916,9.3115,-1.5726,0.7691
4.3178,-4.3406,0.8817,-0.2820,6.5603,9.3580,-26.7795,-422.3691,88.8364,-162.6816,1410,1589,1.0000,0.4484,-0.2872,9.8124,7.2900,-2.3321,1.3001,0.3350,-0.6670,10.0951,5.8305,-3.0765,1.7844
4.3362,-4.2462,0.8151,-0.2499,6.0870,8.8673,-26.7024,-411.7230,86.9901,-158.7775,1412,1587,1.0000,0.2689,-0.8259,9.9081,5.4503,0.8434,1.8116,0.3805,-1.1530,9.7073,6.7237,1.4579,1.9065
4.3546,-4.2131,0.8073,-0.2123,8.2473,8.7743,-5.0628,-470.2400,86.3710,-174.8527,1403,1596,1.0000,-0.0017,-1.3023,9.9249,7.6182,1.3396,2.2238,-0.2683,-1.1866,9.7264,8.8763,0.5266,2.2118
4.3729,-4.0586,0.8478,-0.1675,8.7053,8.7640,-0.5633,-465.4170,83.3213,-171.9774,1405,1594,1.0000,-0.3536,-0.7708,9.9776,9.1679,0.0877,2.5291,-0.4790,-0.6072,10.1550,8.2427,-1.0383,2.2805
4.3913,-3.8575,0.8644,-0.1114,5.3847,8.2571,-27.6154,-364.3551,79.3363,-141.6876,1422,1577,1.0000,-0.3704,-0.2177,9.6711,6.0763,-1.7749,2.9871,-0.0888,-0.4492,9.5564,4.6931,-2.0765,2.6775
4.4097,-3.7344,0.7564,-0.0556,3.4152,7.5308,-39.4886,-316.0027,76.9132,-126.9373,1430,1569,1.0000,0.2210,-0.3686,9.7860,3.3053,-2.0192,3.0024,0.2680,-1.0764,9.7767,3.5252,-1.4200,2.7385
4.4280,-3.7783,0.7035,0.0034,4.7664,7.1161,-22.5800,-369.7447,77.8278,-142.4424,1421,1578,1.0000,0.0893,-1.2855,10.0063,4.8625,-0.5230,3.4299,0.1004,-1.3685,9.5588,4.6702,-0.6261,3.1126
4.4464,-3.7320,0.7120,0.0627,7.7549,7.2120,5.2089,-444.4573,76.9406,-162.9184,1410,1589,1.0000,-0.2028,-1.1299,10.0111,7.6793,-0.4314,3.4452,-0.3018,-0.9448,10.0042,7.8305,-0.9467,3.0286
4.4648,-3.5552,0.7031,0.1273,4.8771,6.8617,-19.0599,-354.2141,73.4397,-135.8998,1425,1574,1.0000,-0.2052,-0.2393,9.6280,6.0763,-1.4237,3.5520,-0.1821,-0.1978,9.8557,3.6779,-2.0306,3.1279
4.4832,-3.4619,0.6482,0.1863,1.8313,6.1072,-41.0279,-280.2017,71.6069,-114.2599,1437,1562,1.0000,-0.0065,-0.3255,9.6208,2.2518,-1.8207,3.0482,0.1435,-0.5569,9.7863,1.4107,-1.7940,3.0821
4.5016,-3.5057,0.5540,0.2421,2.5412,5.2647,-27.4728,-324.2808,72.5180,-127.0576,1430,1569,1.0000,0.2593,-0.9958,9.6304,1.7098,-1.1108,3.0406,0.2321,-1.0908,9.4942,3.3725,-0.7711,3.0363
4.5200,-3.5025,0.4533,0.2972,6.1939,5.4699,4.8970,-417.1415,72.4897,-153.0444,1415,1584,1.0000,0.4053,-1.1275,9.8722,5.5648,-0.0650,3.0406,0.2680,-1.0645,9.4583,6.8229,0.2442,3.0897
4.5384,-3.3716,0.4536,0.3499,7.5984,5.9515,15.7486,-433.3300,69.9053,-156.2850,1414,1585,1.0000,-0.0304,-0.6415,9.7333,7.5724,0.7900,2.9719,-0.0385,-0.4970,9.5612,7.6244,-0.0535,2.8149
4.5568,-3.1996,0.4499,0.4194,5.8847,5.9389,-0.5758,-366.5226,66.4973,-135.8750,1425,1574,1.0000,-0.1310,-0.2776,9.5155,6.3816,-0.7978,2.8497,-0.2659,-0.3199,9.8294,5.3878,-1.4658,4.6546
4.5755,-3.0874,0.4207,0.4689,4.8427,5.6904,-8.6963,-330.2246,64.2843,-124.6051,1431,1568,1.0000,-0.0496,-0.4356,9.5035,4.8320,-1.4314,2.5673,0.0405,-0.5138,9.5493,4.8534,-1.3131,2.5630
4.5940,-3.0491,0.3504,0.4916,6.6710,5.8987,7.2169,-371.6504,63.5494,-135.8368,1425,1574,1.0000,0.2497,-0.9120,9.7357,5.8931,-0.4466,0.4299,0.0357,-0.9495,9.4655,7.4489,0.1907,2.2347
4.6124,-2.9581,0.3352,0.5280,9.3923,6.4351,28.3851,-422.1384,61.7581,-149.0778,1418,1581,1.0000,0.0725,-0.9049,9.8100,8.9465,0.6908,2.2314,-0.0552,-0.7652,9.5277,9.8382,0.4579,1.8149
4.6307,-2.7234,0.3607,0.5616,11.4076,7.1810,40.6210,-430.3688,57.0912,-149.0489,1418,1581,1.0000,-0.1549,-0.3997,9.7453,12.4579,0.4618,1.9261,-0.1917,-0.2816,9.7193,10.3573,-0.2520,1.7080
4.6491,-2.4912,0.3720,0.5961,8.6786,7.4056,12.2376,-321.9131,52.4737,-116.3725,1435,1564,1.0000,-0.1525,-0.1267,9.5658,9.0152,-0.4390,2.0024,-0.1343,-0.1762,9.7576,8.3420,-0.7253,1.6088
4.6674,-2.2872,0.3682,0.6271,7.6977,7.4494,2.3879,-270.0606,48.4147,-99.8243,1445,1554,1.0000,-0.1190,-0.1267,9.6663,7.7251,-0.9581,1.7810,-0.1223,-0.4061,9.5972,7.6702,-0.9238,1.4485
4.6858,-2.1402,0.3701,0.6525,8.2129,7.5639,6.2268,-264.2036,45.4966,-96.7253,1446,1553,1.0000,-0.0903,-0.4093,9.7812,8.1144,-0.0802,1.5062,-0.0959,-0.4132,9.6259,8.3115,-0.4963,1.1966
4.7042,-1.9758,0.3377,0.6734,8.2358,7.6647,5.4824,-243.1487,42.2295,-89.1964,1450,1549,1.0000,0.0318,-0.3015,9.6448,8.1602,-0.7673,1.2390,-0.0002,-0.2887,9.8198,8.3115,-0.6032,0.9599
4.7227,-1.7645,0.3246,0.6950,7.8427,7.6914,1.4473,-172.6751,38.0206,-67.3593,1462,1537,1.0000,0.0247,-0.0286,9.6208,7.2366,1.1030,1.2161,0.0932,0.1686,9.9012,8.4489,-0.7787,1.0897
4.7410,-1.6237,0.3118,0.7174,5.7473,7.3998,-15.8832,-117.5784,35.2205,-50.5322,1472,1527,1.0000,-0.0567,-0.1315,9.5131,4.9618,-0.6069,1.1551,0.0238,0.0177,9.8653,6.5328,-0.9085,1.2271
4.7594,-1.5333,0.2762,0.7387,4.2969,6.9344,-25.2974,-86.3209,33.4290,-40.8843,1477,1522,1.0000,0.0534,-0.2225,9.5610,4.3129,-0.7749,1.1856,-0.0361,-0.1188,9.7240,4.2809,-0.6719,1.0744
4.7778,-1.4429,0.2525,0.7631,3.5603,6.4283,-27.5374,-72.2739,31.6349,-36.0542,1480,1519,1.0000,0.0151,-0.1459,9.6184,3.6488,-0.5306,1.3306,0.0070,-0.0709,9.9395,3.4718,-0.6566,1.2805
4.7962,-1.3417,0.2145,0.7884,2.4267,5.7728,-32.2876,-51.1695,29.6244,-28.6634,1484,1515,0.9837,0.1037,0.0121,9.6208,2.8091,-0.5001,1.2925,0.1267,0.0321,9.9180,2.0443,-0.1833,1.4332
4.8146,-1.2650,0.1884,0.8164,0.5183,3.7971,-32.7283,-42.7507,28.1017,-4.5347,1497,1502,0.1743,0.1037,0.0792,9.5370,0.9007,0.2633,1.4299,0.0286,0.0536,9.7743,0.1359,0.1297,1.6088
4.8330,-1.2424,0.2010,0.8466,-0.5123,1.4784,-15.9209,-80.9241,27.6627,-1.4780,1499,1500,0.0405,-0.0903,-0.0669,9.8339,-0.4123,0.1946,1.6742,-0.0624,-0.1618,9.5684,-0.6122,-0.2597,1.6011
4.8515,-1.2720,0.2098,0.8797,-2.0886,0.0675,-1.0520,-119.4477,28.2674,-2.4005,1498,1501,0.0505,-0.1046,-0.1722,9.5993,-1.0535,-0.2482,1.7581,-0.1151,-0.2433,9.8078,-3.1237,-0.6108,1.7920
4.8700,-1.2988,0.1790,0.9167,-1.7947,0.0000,-0.0000,-124.5407,28.8161,-2.9706,1498,1501,0.0603,0.0294,-0.1890,9.7142,-1.6489,-0.9581,1.9261,0.1171,-0.1475,9.7216,-1.9405,-0.8932,2.0515
4.8884,-1.3317,0.1236,0.9540,-2.8252,0.0000,-0.0000,-127.6956,29.4874,-3.7057,1497,1502,0.0734,0.1994,-0.1315,9.6639,-2.6260,-0.6298,2.0635,0.2368,-0.2217,9.8461,-3.0244,0.0152,1.9599
4.9067,-1.3665,0.0796,0.9919,-2.2184,0.0000,-0.0000,-131.0322,30.1970,-4.5791,1497,1502,0.0884,0.1875,-0.2034,9.6759,-1.2673,-0.0802,2.0787,0.2584,-0.1978,9.7360,-3.1695,0.1755,2.0515
4.9251,-1.4480,0.0745,1.0334,-2.9206,0.0000,-0.0000,-138.8478,31.8415,-7.0161,1496,1503,0.1280,0.0223,-0.3566,9.6783,-3.0230,0.1717,2.3230,0.0764,-0.4899,9.5876,-2.8183,0.0152,2.2042
4.9436,-1.5393,0.0562,1.0711,-2.6191,0.0000,-0.0000,-177.1242,33.6831,-11.8860,1493,1506,0.1789,0.0390,-0.4548,9.9656,-2.1146,-0.2558,2.0024,0.1602,-0.5473,9.6067,-3.1237,-0.5955,2.0592
4.9620,-1.6062,0.0000,1.1128,-0.2222,0.0000,-0.0000,-184.8249,35.0376,-15.2337,1491,1508,0.2199,0.2330,-0.5505,9.7597,-0.4428,-0.2863,2.2848,0.2632,-0.5665,9.3936,-0.0015,-0.2139,2.2118
4.9804,-1.6333,-0.0552,1.1519,1.1977,0.0000,0.0000,-187.9417,35.5956,-16.7106,1490,1509,0.2373,0.2761,-0.4931,9.6352,0.8625,0.1488,2.1627,0.2752,-0.5162,9.5014,1.5328,0.2900,2.1050
5.0324,-1.6269,-0.0704,1.1659,6.5030,0.0000,0.0000,-187.2080,35.4844,-16.3590,1491,1508,0.2332,0.1659,-0.7732,9.7166,5.9083,0.3167,1.5215,0.1100,-0.7939,9.5397,7.0977,0.2060,1.2653
5.0509,-1.5645,-0.0865,1.1889,8.9648,0.0000,0.0000,-180.0309,34.2526,-13.1051,1492,1507,0.1940,0.1372,-0.7564,9.8076,8.4198,0.5839,1.2390,0.0621,-0.7173,9.5588,9.5099,0.4808,1.2729
5.0693,-1.4431,-0.0960,1.2106,10.4305,0.2832,5.3368,-151.1917,31.8388,-7.3119,1495,1504,0.1255,0.0917,-0.5912,9.7501,10.1755,0.2480,1.2467,0.1291,-0.5593,9.5636,10.6855,0.5037,1.1202
5.0876,-1.2802,-0.0954,1.2315,11.7587,2.9863,42.1998,-224.0349,28.5921,-4.1107,1497,1502,0.0534,0.0797,-0.4931,9.7932,11.3205,0.8892,1.3306,0.0477,-0.4300,9.7839,12.1969,0.5648,0.9523
5.1061,-1.0766,-0.0718,1.2496,12.9725,5.9898,66.7652,-263.4745,24.5322,-86.0360,1452,1547,1.0000,-0.0783,-0.3877,9.9345,12.6411,0.3244,1.1245,-0.0289,-0.4468,9.7959,13.3038,0.0228,0.8225
5.1245,-0.8278,-0.0610,1.2831,14.5755,7.2779,70.0060,-247.3954,19.5646,-79.0530,1456,1543,1.0000,-0.0496,-0.2752,9.9081,14.2595,0.0190,1.0558,-0.0936,-0.2840,9.7528,14.8916,-0.3742,2.6622
5.1429,-0.5553,-0.0689,1.3165,15.5565,8.5197,67.5595,-215.3945,11.1123,-65.8666,1463,1536,1.0000,-0.0232,-0.2034,9.7262,15.3434,-0.6909,0.9795,0.0477,-0.1116,9.6690,15.7695,-0.9772,2.7233
5.1613,-0.2552,-0.0886,1.3294,16.2816,9.6840,63.3470,-176.5018,5.1061,-51.9736,1471,1528,1.0000,0.0845,-0.0932,9.8387,16.0076,-0.5535,0.9261,0.0716,0.0824,9.8964,16.5557,0.1220,0.4485
5.1796,0.0900,-0.1197,1.3373,16.5717,10.7171,56.2765,-126.4339,-1.8008,-34.5011,1481,1518,1.0000,0.1300,0.1510,9.8411,16.3587,0.1793,0.6818,0.3111,0.0464,9.8318,16.7847,-0.8703,0.1660
5.1980,0.4627,-0.1264,1.3370,16.8465,11.6365,50.0064,-75.6505,-9.2578,-16.5532,1490,1509,1.0000,0.1061,0.3162,9.8938,16.6030,0.5915,0.3535,-0.0600,0.1302,9.9060,17.0901,0.5800,-0.4141
5.2164,0.8418,-0.1137,1.3362,17.0183,12.4438,43.8765,-29.4968,-16.8448,0.1633,1500,1499,1.0000,-0.0113,0.3904,9.8411,16.9770,0.4770,0.2314,-0.1103,0.2811,9.7863,17.0595,0.0610,-0.3454
5.2348,1.2232,-0.0950,1.3340,16.8542,13.1053,35.9924,37.0921,-24.4758,22.6237,1512,1487,1.0000,-0.0927,0.4814,9.7980,16.7480,-0.2100,0.1627,-0.0289,0.3050,9.7049,16.9603,-0.3513,-0.4218
5.2531,1.5961,-0.0987,1.3274,15.9076,13.5257,22.8765,117.7831,-31.9510,48.9548,1526,1473,1.0000,0.0007,0.5891,9.8363,16.0992,-0.3398,0.0253,-0.0457,0.4798,10.0975,15.7160,-0.4734,-0.7500
5.2715,1.9620,-0.1018,1.3219,14.6442,13.6935,9.1448,199.4281,-39.2875,75.4836,1541,1458,1.0000,0.0271,0.7423,9.8866,14.6640,0.2022,-0.1350,0.1363,0.3122,10.0401,14.6244,-0.3131,-0.4599
5.2899,2.2801,-0.0833,1.3103,13.2473,13.6265,-3.6441,272.8649,-45.6723,99.2383,1554,1445,1.0000,-0.0974,0.7016,9.9416,13.1679,0.0801,-0.4022,-0.1127,0.3912,9.9467,13.3267,-0.8322,-0.8569
5.3082,2.5672,-0.0681,1.2984,12.0870,13.3956,-12.5710,331.6145,-51.4404,118.5723,1565,1434,1.0000,-0.0903,0.7040,9.9225,12.2671,-0.4161,-0.5319,-0.0576,0.6067,10.1526,11.9069,-0.3818,-0.7424
5.3266,2.8135,-0.0901,1.2799,11.2855,13.0791,-17.2171,373.3419,-56.3952,132.7333,1573,1426,1.0000,-0.0520,0.6322,9.9201,11.2137,-2.7291,-0.6159,0.1387,0.4487,10.1335,11.3573,-1.1070,-1.2233
5.3450,3.0315,-0.0883,1.2671,10.8771,12.7488,-17.9828,400.6324,-60.7853,142.5697,1578,1421,1.0000,-0.0591,0.5795,10.0590,10.7327,-0.4237,-0.3335,0.0884,0.6809,9.8533,11.0214,-1.1146,-1.0019
5.3634,3.2324,-0.0665,1.2551,10.4648,12.4062,-18.6549,425.6826,-64.8349,151.6086,1583,1416,1.0000,-0.0089,0.5556,9.7836,10.3282,-0.0039,-0.9976,-0.3330,0.7312,9.7959,10.6015,1.6640,-0.3683
5.3817,3.4456,-0.0844,1.2410,8.5221,11.8236,-31.7916,488.0547,-69.1341,171.2223,1594,1405,1.0000,0.0606,0.8357,10.0159,9.0915,0.4770,-0.8144,0.1411,0.9108,10.3417,7.9527,-1.4658,-0.6584
5.4000,3.5673,-0.0697,1.2228,5.4000,10.8600,-52.5245,561.7668,-71.6031,193.0963,1606,1393,1.0000,-0.1908,0.7064,9.9512,5.5266,-1.2940,-0.9823,0.1554,0.6809,9.9299,5.2733,-1.8093,-0.8111
5.4184,3.6102,-0.1688,1.2071,4.4648,9.9008,-52.2438,565.8909,-72.4964,194.6977,1607,1392,1.0000,0.4460,0.4359,9.9201,4.4808,-1.0039,-0.9213,0.1985,0.2978,10.0137,4.4489,0.0457,-0.7271
5.4367,3.6476,-0.1531,1.1974,3.2931,8.9096,-54.0427,575.3858,-73.2826,197.7493,1608,1391,1.0000,0.0247,0.5053,9.7812,3.5190,0.9198,-0.5472,-0.0050,0.7168,10.1358,3.0672,0.5953,-0.6126
5.4555,3.7077,-0.1102,1.1897,1.3465,7.7751,-60.3299,600.4074,-74.5214,205.3748,1612,1387,1.0000,-0.1094,0.7950,9.9871,1.8778,0.9885,-0.4480,-0.2085,0.8557,9.8509,0.8153,0.3281,-0.4523
5.4747,3.7498,-0.1123,1.1786,-0.7871,6.4908,-66.8911,624.1403,-75.3995,212.4590,1616,1383,1.0000,-0.0376,0.9075,9.9033,-0.3589,-0.7291,-0.5548,0.0094,0.4774,10.0425,-1.2153,-0.8551,-0.4905
5.4931,3.7000,-0.0762,1.1738,-2.1420,4.2761,-58.0013,592.8173,-74.4423,203.2100,1611,1388,1.0000,-0.1525,0.6250,10.1619,-2.2825,0.0724,-0.2648,-0.2516,0.1925,10.0113,-2.0015,-0.1070,-0.2538
5.5114,3.6216,-0.1214,1.1646,-2.3405,1.1741,-17.7942,467.9938,-72.9097,167.4931,1592,1407,1.0000,0.0989,0.4598,9.5586,-2.4047,-2.6985,-0.4556,0.1578,0.2883,9.8964,-2.2763,-0.1757,-0.3760
5.5298,3.5369,-0.0900,1.1620,-1.8901,0.0301,-0.4625,408.3346,-71.2516,149.9595,1582,1417,1.0000,-0.1214,0.4096,10.3056,-1.8856,0.9732,-0.1121,-0.0840,0.2476,10.2292,-1.8947,-0.7482,-0.1927
5.5481,3.4553,-0.1234,1.1600,-1.8634,0.0000,-0.0000,397.6056,-69.6531,146.1561,1580,1419,1.0000,0.1276,0.3856,9.8411,-1.7405,-1.3856,-0.1274,-0.1247,0.3649,9.8342,-1.9863,0.2213,-0.0248
5.5665,3.3716,-0.1436,1.1585,-1.9206,0.0000,-0.0000,387.9718,-68.0124,142.6383,1578,1421,1.0000,0.1037,0.3689,9.9297,-2.1069,0.0037,-0.0816,-0.0792,0.3984,9.7360,-1.7344,-0.4047,-0.0706
5.5848,3.2970,-0.1162,1.1598,-0.9970,0.0000,-0.0000,379.3951,-66.5548,139.5080,1576,1423,1.0000,-0.2028,0.3377,9.8100,-1.3436,0.3702,0.1093,9.8927,0.0919,9.9012,-0.6504,0.4884,-0.0401
5.6034,3.2620,-0.1347,1.1543,0.7587,0.0000,-0.0000,375.3658,-65.8872,138.0460,1575,1424,1.0000,0.0438,0.3569,10.3008,0.4427,-0.7520,-0.1655,-0.0074,0.2619,9.7025,1.0748,-0.7940,-0.3531
5.6217,3.2812,-0.1418,1.1528,2.5106,0.0000,0.0000,377.5780,-66.3044,138.8741,1576,1423,1.0000,0.0558,0.4455,10.0590,2.1068,-0.0879,0.0787,0.2009,0.4152,9.8677,2.9145,0.1068,-0.2462
5.6400,3.3771,-0.1381,1.1513,3.5794,0.0000,0.0000,388.6146,-68.2563,142.9402,1578,1421,1.0000,0.0630,0.7040,9.7573,2.5953,0.3167,-0.0434,0.0166,0.6282,9.7959,4.5634,0.9694,-0.1851
5.6584,3.4651,-0.1227,1.1464,2.1481,0.0000,0.0000,398.7318,-70.0493,146.6696,1580,1419,1.0000,-0.0591,0.7830,9.5179,2.2289,0.1869,-0.2419,-0.1007,0.7839,9.8892,2.0672,-0.5345,-0.2691
5.6769,3.5629,-0.0891,1.1389,2.0259,0.0000,0.0000,409.9886,-72.0413,150.8175,1582,1417,1.0000,-0.1765,0.8764,9.7860,1.9847,-0.2253,-0.2190,-0.1750,0.7025,9.6977,2.0672,-0.8169,-0.5286
5.6952,3.6393,-0.1035,1.1251,2.3618,0.0000,0.0000,418.7773,-73.6051,154.0602,1584,1415,1.0000,-0.0065,0.7759,9.9608,2.3434,-1.1337,-0.5930,-0.1247,0.8030,9.7815,2.3802,-1.0765,-0.7729
5.7136,3.7261,-0.1055,1.1101,1.9000,0.0000,-0.0000,428.7668,-75.3785,157.7440,1586,1413,1.0000,-0.0136,0.8597,9.7477,1.9160,-0.6146,-0.6541,0.0022,1.0089,9.7983,1.8840,-0.4276,-0.9103
5.7319,3.8335,-0.0867,1.0953,0.6099,0.0000,-0.0000,441.1278,-77.5651,162.2983,1589,1410,1.0000,-0.0903,1.0823,9.7070,0.8549,-0.1795,-0.7686,-0.1271,0.9706,9.8797,0.3649,-0.4429,-0.7958
5.7503,3.8980,-0.1353,1.0781,-0.1268,0.0000,-0.0000,448.5518,-78.8943,165.0417,1590,1409,1.0000,0.0917,0.9626,9.6974,0.0534,-2.6985,-0.7991,-0.0529,0.8389,9.7384,-0.3069,-0.9696,-0.8187
5.7687,3.9119,-0.1427,1.0616,-0.1458,0.0000,-0.0000,450.1488,-79.2110,165.6472,1591,1408,1.0000,-0.0208,0.7543,9.8890,-0.1756,-1.0421,-0.7457,-0.0098,0.6163,9.9491,-0.1160,-0.8856,-0.9103
5.7871,3.9040,-0.1035,1.0435,0.2587,0.0000,-0.0000,449.2473,-79.0933,165.3359,1590,1409,1.0000,-0.1788,0.6035,9.7094,0.0381,-0.5077,-1.0205,-0.0217,0.7049,9.7312,0.4794,-0.0765,-0.9179
5.8054,3.8884,-0.1031,1.0272,0.4190,0.0000,-0.0000,447.4435,-78.8187,164.6936,1590,1409,1.0000,0.0366,0.5604,9.8100,0.3434,0.1106,-0.8220,-0.0600,0.5349,9.7863,0.4947,0.2060,-0.9866
5.8240,3.8908,-0.0743,1.0128,0.6786,0.0000,-0.0000,447.7202,-78.9057,164.8145,1590,1409,1.0000,-0.1214,0.6178,9.7501,0.6106,0.2709,-0.8144,-0.0720,0.5085,9.7432,0.7466,-0.4887,-0.7271
5.8424,3.8813,-0.0408,0.9756,1.4229,0.0000,0.0000,446.6290,-78.7549,164.4336,1590,1409,1.0000,-0.1717,0.4981,9.7621,1.2442,-0.3779,-0.8907,-0.2659,0.4894,9.7647,1.6015,-0.6184,-3.0935
5.8607,3.8526,-0.0240,0.9559,1.8732,0.0000,0.0000,443.3314,-78.2203,163.2430,1589,1410,1.0000,-0.1310,0.3641,9.6088,1.6106,-0.7902,-0.9442,-0.2588,0.3194,9.6067,2.1359,-0.8703,-1.0935
5.8791,3.8453,-0.0251,0.9176,3.1061,0.0000,0.0000,442.4833,-78.1114,162.9510,1589,1410,1.0000,-0.0208,0.3569,9.7860,2.9694,-0.4848,-1.1732,-0.0098,0.4367,9.6594,3.2427,-0.4963,-2.9714
