timestamp,roll_deg,pitch_deg,yaw_deg,omega_raw,omega_filtered,alpha,tau_ff,tau_pid,tau_total,pwm_left,pwm_right,deadzone_factor,accel1_x,accel1_y,accel1_z,gyro1_x,gyro1_y,gyro1_z,accel2_x,accel2_y,accel2_z,gyro2_x,gyro2_y,gyro2_z
273.3832,-7.5598,0.7399,-59.5035,-10.1431,-13.9236,35.8826,-973.3533,152.1770,-348.6275,1308,1691,1.0000,-0.5284,-1.1990,9.2550,-10.5606,2.7742,-2.2220,-0.4656,-1.4264,8.6881,-9.7255,1.3337,-1.5892
273.4024,-7.6080,0.7314,-59.5595,-6.6087,-12.8264,57.1805,-1040.2335,153.2160,-367.8734,1297,1702,1.0000,0.1228,-0.9260,9.6836,-6.6828,2.7589,-2.8556,-1.0953,-1.1918,9.6003,-6.5347,2.3871,-2.4518
273.4215,-7.7001,0.7212,-59.6193,-0.6507,-11.0000,95.7712,-1161.9775,155.1352,-402.9213,1278,1721,1.0000,0.0199,-1.6227,9.4681,-1.9729,0.8963,-2.8098,-0.4441,-1.1511,9.5284,0.6714,2.0283,-3.0320
273.4411,-7.5025,0.6330,-59.6802,4.2310,-8.7154,116.4905,-1198.9005,151.2578,-411.3211,1273,1726,1.0000,0.3263,-0.8039,9.6093,4.0958,1.6826,-3.0082,-0.5375,-0.5932,9.8445,4.3661,0.3642,-3.1389
273.4598,-7.1061,0.6557,-59.7406,10.8455,-5.6935,154.8332,-1263.6963,143.4005,-425.5352,1265,1734,1.0000,-0.3297,-0.3873,10.1480,8.9584,-0.8899,-3.3594,-0.5446,-0.9787,9.0807,12.7325,-0.8572,-3.7037
273.4783,-6.6451,0.7075,-59.8113,15.1508,0.0000,0.0000,-764.7165,134.2475,-281.2444,1345,1654,1.0000,-0.2986,-0.3610,9.6069,13.4623,0.5223,-3.5044,-0.6332,-0.8781,10.1198,16.8394,1.3489,-4.2992
273.4969,-6.1392,0.7318,-59.8947,20.5363,0.0000,0.0000,-706.4904,124.1914,-259.9130,1357,1642,1.0000,-0.2650,-0.5765,10.0331,19.8974,0.4765,-4.2831,-0.5518,-0.0019,9.5835,21.1752,-0.2160,-5.0396
273.5153,-5.6088,0.7475,-59.9850,21.8378,1.0079,43.1712,-769.7766,113.6393,-272.3571,1350,1649,1.0000,-0.3608,-0.4568,9.7458,22.0577,-0.8747,-4.7563,-0.3866,-0.1288,10.4861,21.6180,-1.9564,-5.7037
273.5338,-5.2189,0.6809,-60.0922,24.4447,7.0545,166.2694,-1079.4305,105.8944,-355.1878,1304,1695,1.0000,-0.0256,-1.2612,9.8176,22.4699,-2.2716,-5.3594,0.3508,-0.3658,9.3225,26.4195,-1.2694,-6.6198
273.5522,-4.6193,0.5592,-60.2016,25.0172,9.7489,145.9441,-951.8874,93.9486,-313.5028,1327,1672,1.0000,0.3766,-0.2532,10.1001,25.1645,-0.2182,-6.0769,0.5591,-0.2844,10.3520,24.8699,-0.6358,-6.1694
273.5707,-4.2008,0.5399,-60.3203,24.2768,11.9281,118.2227,-823.8759,85.6187,-273.4946,1349,1650,1.0000,-0.0113,-0.9164,9.7721,22.6989,0.4612,-6.0388,0.4657,-0.8949,9.4758,25.8546,0.6085,-6.8411
273.5891,-3.8284,0.5134,-60.4446,25.1661,13.9138,107.7582,-750.8921,78.2107,-249.3551,1362,1637,1.0000,-0.0448,-1.1870,9.9804,25.7981,0.3467,-6.6113,0.2143,0.0747,10.3472,24.5340,-1.0556,-6.9327
273.6075,-3.2487,0.5143,-60.5665,23.2920,15.3205,76.3584,-593.7403,66.6475,-199.5711,1390,1609,1.0000,-0.1717,0.0795,9.8368,23.0195,-0.5846,-6.6800,0.0180,-1.2756,9.3153,23.5645,-0.3839,-6.9404
273.6259,-2.8676,0.3899,-60.6970,28.7577,17.3361,109.5197,-645.3975,59.0556,-210.2391,1384,1615,1.0000,0.3814,-1.2301,9.5255,27.8592,1.1635,-6.6724,-0.0275,-0.0976,9.5907,29.6561,-3.1167,-7.5434
273.6444,-2.2122,0.2603,-60.8249,31.1432,19.4071,112.2294,-577.7826,45.9698,-184.7640,1398,1601,1.0000,0.3814,-0.0952,10.2007,30.5233,-1.4701,-7.1533,-0.1831,-0.9787,9.9642,31.7630,-2.1320,-7.0778
273.6628,-1.7013,0.2487,-60.9524,30.5401,21.0771,90.5423,-380.4453,35.7690,-124.4092,1431,1568,1.0000,-0.1525,-0.6267,9.9613,30.1340,-1.5235,-6.6571,-0.0610,-0.6268,9.9522,30.9462,-1.7198,-7.3984
273.6813,-1.1277,0.3447,-61.0797,31.6470,22.6626,85.8996,-314.2987,24.3082,-100.1577,1444,1555,1.0000,-0.7032,-0.3299,10.0547,32.2332,-1.6991,-7.0769,-0.7386,-1.0050,9.3417,31.0607,-2.6587,-7.0473
273.6997,-0.6443,0.4024,-61.2012,31.0058,23.9141,67.8080,-224.5234,14.6463,-70.1897,1461,1538,1.0000,-0.6481,-0.6196,9.9948,31.3859,-3.3708,-6.4205,-0.6835,-0.3490,10.3592,30.6256,-3.6434,-6.9785
273.7183,-0.0022,0.4284,-61.3251,24.6623,24.0263,6.0524,-17.6829,0.0438,-4.9731,1497,1502,1.0000,-0.2842,0.8385,10.8639,26.8516,-1.7144,-6.7869,0.2574,0.1729,9.1070,22.4729,0.5092,-6.9327
273.7368,0.3678,0.4460,-61.4488,28.3913,24.6810,35.2620,-59.2317,-7.3598,-12.9050,1492,1507,1.0000,-0.3464,-0.7656,10.5670,26.2027,-1.2334,-6.4357,0.0826,-0.7704,9.5691,30.5798,-2.5900,-6.8488
273.7553,0.7448,0.3607,-61.5727,25.7424,24.8402,8.6115,60.9032,-14.9036,24.5047,1513,1486,1.0000,-0.0113,-0.3777,9.0922,27.9737,-3.8289,-6.4434,-0.2262,0.0173,10.3975,23.5111,-4.1625,-6.8946
273.7738,1.1136,0.3210,-61.6926,19.6355,24.0595,-42.2884,249.9320,-22.2832,81.1226,1544,1455,1.0000,-0.1860,0.1538,9.3244,20.0348,-4.1724,-6.3060,0.1569,0.0939,9.9043,19.2363,-3.2923,-6.6503
273.7922,1.5302,0.2885,-61.8044,19.7882,23.4188,-34.7149,276.0542,-30.6297,92.6100,1550,1449,1.0000,0.0127,0.4602,10.2007,20.7523,-1.0731,-5.9395,0.1114,-0.1599,9.7487,18.8241,-1.1320,-6.2457
273.8107,1.8642,0.2708,-61.9282,13.6928,21.9599,-79.2198,442.6632,-37.3285,142.6100,1578,1421,1.0000,-0.1597,0.6254,9.6022,15.6913,-2.1037,-7.4357,0.2383,0.7427,9.9354,11.6943,-2.7274,-5.9098
273.8291,2.0560,0.1796,-62.0251,8.9371,20.0065,-106.0371,541.9748,-41.1863,172.3461,1594,1405,1.0000,0.2210,0.4291,9.3436,8.9050,-2.1113,-5.0769,1.0930,0.3477,9.8469,8.9691,-1.2312,-5.3679
273.8475,2.2653,0.2818,-62.1121,7.4409,18.1217,-102.3498,555.4304,-45.3933,178.2172,1598,1401,1.0000,-0.4302,0.6446,9.0539,8.8897,1.1940,-4.7716,-0.3723,0.1346,10.1246,5.9920,-0.6129,-4.7801
273.8659,2.2861,0.1618,-62.1894,2.7157,15.8108,-125.4656,624.3983,-45.8323,197.7477,1608,1391,1.0000,0.3910,0.2471,9.6381,3.0500,-2.5540,-4.1609,0.6740,0.3094,9.6529,2.3813,-0.2083,-4.1236
273.8843,2.2776,0.1888,-62.2565,2.0134,13.7412,-112.4715,585.9994,-45.6855,186.9226,1602,1397,1.0000,0.0247,0.1801,9.6285,2.7447,2.5605,-3.9319,-0.7912,-0.0019,9.8301,1.2821,0.9215,-3.4824
273.9027,2.1635,0.1577,-62.3162,-4.2003,11.0499,-146.0657,669.6237,-43.4256,209.2074,1615,1384,1.0000,-0.1358,0.2160,9.9709,-3.9652,-3.3937,-3.0769,0.2335,0.5991,9.9857,-4.4355,-2.4221,-3.1770
273.9213,2.0340,0.2445,-62.3620,-5.5629,8.5580,-134.6497,621.8438,-40.8560,194.5443,1606,1393,1.0000,-0.2459,0.2567,9.8942,-5.5225,1.8658,-2.7258,-0.1328,-0.0617,9.4901,-5.6034,2.3337,-2.3755
273.9397,1.8521,0.2014,-62.4053,-10.0515,5.6673,-148.8835,641.9009,-37.2357,191.5717,1605,1394,0.9658,0.0462,0.3525,9.5782,-8.4690,-1.0502,-2.4815,0.3556,0.4698,10.5220,-11.6339,-1.5824,-2.1465
273.9581,1.4451,0.2769,-62.4385,-16.0400,0.0000,-0.0000,166.2820,-29.1100,7.7320,1504,1495,0.1265,-0.4111,-0.2006,9.3125,-15.6981,0.8582,-1.8556,-0.0490,0.3166,9.9618,-16.3820,-1.9335,-1.7190
273.9766,1.1833,0.2411,-62.4733,-16.4255,0.0000,-0.0000,136.1659,-23.8875,1.1851,1500,1499,0.0237,0.1396,0.4578,9.9637,-15.9729,-1.4472,-2.2525,0.0300,-0.0258,9.5572,-16.8782,1.8146,-1.5663
273.9950,0.8107,0.1874,-62.5012,-20.2729,-0.1135,-5.5344,91.0176,-16.4420,0.0000,1500,1500,0.0000,0.0199,0.2064,10.0666,-19.0339,-1.1342,-1.5731,0.4705,0.1945,9.9187,-21.5118,-3.1854,-1.4518
274.0135,0.5058,0.0575,-62.5282,-20.6431,-5.9189,-140.3238,385.2781,-10.1209,112.6952,1561,1438,0.9978,0.4173,0.5297,10.1145,-20.5225,-3.2182,-1.6724,0.0850,-0.4975,9.6697,-20.7637,-0.7808,-1.2915
274.0319,0.1234,-0.0262,-62.5568,-21.5706,-8.2750,-127.1953,317.1034,-2.4696,90.0238,1549,1450,1.0000,0.3575,0.1657,9.7889,-20.9805,-0.0350,-1.4968,-0.0658,-0.2820,10.1557,-22.1606,-0.6663,-1.6961
274.0504,-0.2844,0.0101,-62.5863,-20.3950,-10.0930,-98.4356,250.7695,5.6908,67.3701,1537,1462,1.0000,-0.2507,-0.1144,9.5184,-19.5454,-2.6991,-1.8021,-0.0514,-0.4735,10.2180,-21.2446,0.6390,-1.4442
274.0688,-0.6514,-0.0871,-62.6176,-22.1507,-11.9017,-97.8920,206.9783,13.0336,51.4371,1528,1471,1.0000,0.3072,0.1466,9.5064,-22.1026,-0.5769,-1.8861,-0.0035,-0.0737,9.8085,-22.1988,-2.6663,-1.6121
274.0873,-0.9966,-0.1090,-62.6508,-18.3110,-12.8631,-52.1704,35.5776,19.9411,-0.0088,1499,1500,1.0000,-0.1118,-0.1551,10.3683,-18.3927,-3.1189,-2.1304,0.1066,-0.2197,9.7678,-18.2294,-1.9030,-1.5740
274.1057,-1.3957,-0.1555,-62.6808,-20.3797,-13.9906,-61.3033,15.9555,27.9272,-9.4961,1494,1505,1.0000,0.1731,-0.2868,9.7386,-19.7286,-0.4014,-1.9853,0.2359,-0.1192,9.9498,-21.0309,-0.9259,-1.3831
274.1241,-1.8114,-0.2367,-62.6906,-20.7500,-15.0045,-54.9983,-50.0420,36.2600,-32.1418,1482,1517,1.0000,0.2569,-0.4089,10.2725,-20.5912,-1.9510,-1.8327,-0.1376,-0.5549,9.6601,-20.9087,-1.8953,0.5863
274.1426,-2.3142,-0.2480,-62.7141,-21.2919,-15.9476,-50.9273,-119.6288,46.3398,-56.6660,1468,1531,1.0000,-0.0328,-0.8015,9.6692,-20.9576,-1.6380,-1.7182,-0.1209,-0.9188,9.8445,-21.6263,-1.2389,-1.0702
274.1611,-2.7743,-0.2520,-62.7395,-19.1202,-16.4235,-25.8103,-244.9091,55.5692,-96.3592,1447,1552,1.0000,-0.0735,-0.9236,10.1097,-19.4538,-1.1800,-1.6342,0.0132,-0.9835,9.3225,-18.7866,-1.7350,-1.3831
274.1794,-3.1532,-0.3118,-62.7824,-17.1087,-16.5263,-5.5949,-346.7266,63.1779,-128.6724,1429,1570,1.0000,0.1300,-0.7465,9.4489,-17.4461,-2.2640,-1.7029,0.2526,-0.9380,9.5188,-16.7713,-1.7961,-3.2992
274.1979,-3.4444,-0.3932,-62.8150,-13.3950,-16.0566,25.4678,-469.6981,69.0364,-166.0337,1408,1591,1.0000,0.3096,-0.7752,10.1600,-14.0492,-1.5693,-1.9090,0.3269,-0.6411,9.1837,-12.7408,-1.2999,-1.8793
274.2163,-3.7512,-0.3278,-62.8542,-9.0324,-15.0030,57.0976,-596.0967,75.2097,-204.5120,1387,1612,1.0000,-0.2555,-1.2923,10.1816,-10.3393,0.4154,-1.9624,0.4226,-1.2564,9.4662,-7.7255,-0.0175,-2.3984
274.2353,-4.0507,-0.1762,-62.9062,-6.5057,-13.7284,67.1856,-659.6252,81.2417,-225.3159,1376,1623,1.0000,-0.5859,-1.4240,9.4681,-7.3164,1.6902,-2.7334,-0.2932,-0.1431,9.1932,-5.6950,-0.5671,-2.8030
274.2540,-4.1572,-0.1661,-62.9817,-3.1622,-12.1434,84.8037,-722.6130,83.4118,-244.0375,1365,1634,1.0000,-0.1884,-0.9332,10.0978,-4.3240,-2.4090,-3.2525,-0.4058,-1.1056,8.8628,-2.0003,-0.9793,-5.1312
274.2725,-4.0971,-0.1981,-63.0474,2.2691,-9.9816,116.8581,-808.0129,82.2507,-267.3690,1352,1647,1.0000,0.0127,-0.6267,9.8248,2.6607,-1.9892,-3.8708,-0.2980,-0.8159,9.6410,1.8775,-1.4602,-3.4976
274.2910,-3.9706,-0.2612,-63.1293,5.6317,-7.6396,126.4924,-821.2019,79.7604,-269.8167,1351,1648,1.0000,0.2066,-0.6435,10.3851,4.6149,-0.7754,-4.3823,-0.1256,-0.1838,9.1406,6.6485,-1.8266,-4.6732
274.3095,-3.6846,-0.2719,-63.2180,12.0706,-2.7680,94.6344,-696.5458,74.0786,-232.0721,1372,1627,1.0000,-0.0855,-0.4017,9.9996,10.6836,-1.6915,-4.5197,0.1305,-0.0498,9.6505,13.4577,-1.7274,-5.3602
274.3280,-3.2182,-0.2846,-63.3170,13.2920,0.0000,0.0000,-370.3194,64.7816,-136.0802,1425,1574,1.0000,-0.1190,0.3908,9.8655,14.3019,-1.8212,-5.0159,-0.2334,0.1035,10.2323,12.2821,-2.8343,-5.9709
274.3465,-2.8303,-0.2854,-63.4257,10.7691,0.0000,0.0000,-325.6814,57.0519,-117.2763,1435,1564,0.9796,-0.0927,0.3333,9.7362,10.7523,-1.6533,-5.8479,0.1593,-0.3778,9.9450,10.7859,-1.0251,-6.0473
274.3649,-2.4383,-0.2780,-63.5359,14.7081,0.0000,0.0000,-280.5791,49.2374,-83.3381,1454,1545,0.8077,-0.0974,0.0748,9.3005,14.4394,-0.6075,-6.1456,0.0084,0.0412,9.6793,14.9768,-1.5671,-5.9480
274.3834,-1.9135,-0.2973,-63.6481,13.6165,0.7782,18.7507,-274.1853,38.7596,-41.8518,1476,1523,0.4353,-0.0232,0.8050,9.4346,14.4088,-1.5235,-5.9243,0.0779,1.4897,9.4758,12.8241,-1.7503,-6.3450
274.4019,-1.4765,-0.3276,-63.7511,7.1432,1.8666,11.4220,-202.7994,30.0355,-10.2863,1494,1505,0.1433,0.1109,1.0660,9.3699,8.3172,-0.8365,-5.8708,0.3891,-0.0498,9.9283,5.9691,-0.4908,-5.2381
274.4203,-1.2516,-0.3800,-63.8550,6.3951,2.7079,9.6449,-171.7996,25.5496,-2.6482,1498,1501,0.0435,0.2282,0.2447,9.7578,5.9508,-0.8823,-5.6113,-0.1616,0.1442,9.2507,6.8394,-0.6816,-5.6656
274.4387,-1.0857,-0.3836,-63.9499,7.2195,3.8393,15.8889,-170.6932,22.2426,-11.2537,1493,1506,0.1910,0.2306,-0.0617,9.6189,7.1340,1.3544,-5.1991,-0.1544,0.0125,9.4758,7.3050,2.2650,-5.0473
274.4572,-1.0120,-0.2802,-64.0376,1.3340,2.2200,-14.8818,-73.5893,20.7781,-0.0033,1499,1500,0.0001,-0.3704,0.0365,9.2957,2.2561,0.8429,-4.8785,-0.1616,0.0029,10.2012,0.4119,-0.0633,-4.5663
274.4756,-0.9885,-0.2124,-64.1140,-1.7385,0.3199,-4.5584,-100.6190,20.3184,-0.0000,1500,1500,0.0000,-0.1932,0.0819,9.1089,-1.5988,1.1559,-4.2296,0.2383,-0.1742,9.4997,-1.8782,0.5627,-3.9938
274.4942,-1.0208,-0.2386,-64.1820,-0.1927,0.0000,-0.0000,-117.4668,20.4269,-0.0139,1499,1500,0.0003,0.3048,-0.2963,9.6117,-0.6446,1.6597,-3.6037,0.2095,-0.2724,9.5284,0.2592,2.0283,-3.6503
274.5127,-1.0652,-0.1419,-64.2323,-0.6507,0.0000,-0.0000,-122.5673,21.3241,-0.1401,1499,1500,0.0031,-0.3297,-0.3131,9.4058,-0.2706,0.9421,-2.8327,-0.1185,-0.2868,9.7990,-1.0309,0.7230,-2.5892
274.5312,-1.1248,-0.0698,-64.2701,-1.2080,0.0000,-0.0000,-129.4292,22.5280,-0.5318,1499,1500,0.0112,-0.1956,-0.3514,9.6548,-1.4232,1.0337,-2.2067,0.0635,-0.2964,9.5596,-0.9927,1.7993,-1.8411
274.5496,-1.1979,0.0062,-64.2938,-1.1049,0.0000,-0.0000,-137.8440,24.0025,-1.3885,1499,1500,0.0274,-0.1381,-0.4448,9.7554,-2.2171,2.5147,-1.3899,-0.1592,0.1083,9.5835,0.0073,2.2573,-1.0854
274.5680,-1.2297,0.0856,-64.3025,-1.0324,0.0000,-0.0000,-141.5003,24.6503,-1.8981,1498,1501,0.0365,-0.1980,-0.2676,9.5519,-0.9805,1.8505,-0.4434,-0.2382,0.2208,9.6793,-1.0843,2.0741,-0.4213
274.5864,-1.2738,0.1441,-64.2977,-1.0515,0.0000,-0.0000,-146.5772,25.5455,-2.7499,1498,1501,0.0511,-0.1190,-0.3323,9.7051,-1.3087,1.9116,0.0986,-0.2118,0.1801,9.6840,-0.7942,1.9291,0.5176
274.6052,-1.2839,0.2666,-64.2817,-2.9179,0.0000,-0.0000,-147.7399,25.7604,-2.9693,1498,1501,0.0547,-0.4063,-0.0114,9.7697,-1.5530,2.1177,0.6177,-0.0873,-0.3059,9.8492,-4.2828,2.0512,1.1741
274.6246,-1.3701,0.3148,-64.2566,-3.0515,0.0000,-0.0000,-157.6565,27.4976,-5.2136,1497,1502,0.0901,-0.0591,-0.3370,9.7075,-2.8660,2.3925,1.3734,-0.1352,-0.2724,9.4781,-3.2370,2.1428,1.3192
274.6431,-1.4558,0.3579,-64.2283,-3.8339,0.0000,-0.0000,-167.5211,29.2267,-8.1301,1495,1504,0.1322,-0.0711,-0.3059,9.8751,-3.6523,2.0795,1.4956,0.0970,-0.3011,9.7966,-4.0156,2.1886,1.6779
274.6616,-1.5201,0.3677,-64.1944,-3.1393,0.0000,-0.0000,-174.9141,30.5269,-10.7723,1494,1505,0.1677,0.0965,-0.2820,9.9780,-3.8584,2.2398,1.9231,0.1760,-0.3251,9.9714,-2.4202,2.4100,1.8688
274.6800,-1.6276,0.3757,-64.1550,-5.9981,0.0000,-0.0000,-187.2882,32.6939,-16.0699,1491,1508,0.2336,0.0534,-0.2532,9.9326,-5.1790,1.9269,2.0910,0.0994,-0.2126,10.0719,-6.8171,1.5321,2.2810
274.6984,-1.7928,0.3629,-64.1102,-8.3950,0.0000,-0.0000,-206.2958,36.0154,-26.2784,1485,1514,0.3468,0.1563,-0.3275,9.7362,-8.1942,1.6292,2.2818,0.0803,-0.3921,9.9330,-8.5958,1.9825,2.7008
274.7167,-1.9571,0.3648,-64.0496,-7.8874,-0.3980,-4.5077,-212.2240,39.3217,-37.0003,1479,1520,0.4679,0.1372,-0.3993,9.8152,-7.7210,2.1101,2.3429,0.2143,-0.4017,9.8612,-8.0538,2.5703,4.4566
274.7352,-2.1516,0.3536,-64.0009,-9.9332,-2.4328,-27.3918,-168.7015,43.2336,-42.1975,1476,1523,0.6129,0.2330,-0.3921,9.8320,-9.2858,2.7360,2.6788,0.2191,-0.3921,9.9618,-10.5805,2.7230,2.7924
274.7536,-2.3777,0.3550,-63.9491,-10.6316,-5.0322,-45.3555,-142.9738,47.7776,-49.2052,1472,1527,0.7698,0.1324,-0.5094,9.8512,-10.7439,2.2475,2.9002,0.0803,-0.5980,9.8708,-10.5194,2.1428,2.8840
274.7720,-2.6303,0.3824,-63.8930,-10.3874,-6.2124,-40.0090,-187.4465,52.8571,-78.9136,1456,1543,1.0000,-0.0017,-0.7010,9.8895,-10.1561,2.1253,2.9002,0.0252,-0.6890,9.8181,-10.6187,1.9596,3.3879
274.7904,-2.8907,0.3979,-63.8373,-11.1660,-6.9554,-40.4248,-216.2091,58.0931,-89.5851,1450,1549,1.0000,0.0247,-0.7177,9.9158,-11.1179,1.8658,3.0681,-0.0395,-0.7010,9.9809,-11.2141,1.5779,3.1818
274.8088,-3.1680,0.3541,-63.7819,-11.1889,-7.5904,-34.5041,-265.1703,63.6706,-106.0830,1441,1558,1.0000,0.2952,-0.8494,10.0331,-11.0721,1.4994,3.0376,0.1377,-0.8255,9.8062,-11.3057,1.6466,3.1512
274.8272,-3.3907,0.3799,-63.7221,-11.6278,-8.1960,-32.8655,-295.5238,68.1597,-116.8265,1435,1564,1.0000,-0.0496,-0.5956,10.0594,-11.2019,1.5147,3.3734,-0.0371,-0.7728,10.0168,-12.0538,1.2039,3.2657
274.8457,-3.6282,0.3627,-63.6649,-11.1774,-8.6433,-24.2823,-347.5775,72.9465,-133.7949,1426,1573,1.0000,0.0821,-0.7393,10.0068,-11.2935,0.5605,3.1444,0.0036,-1.0074,9.8684,-11.0614,0.5398,3.1436
274.8641,-3.8764,0.3817,-63.6066,-9.8110,-8.8184,-9.5060,-418.6852,77.9474,-156.2056,1414,1585,1.0000,-0.1118,-0.9595,10.0642,-9.7744,-0.7144,3.2055,-0.1185,-1.0745,9.7631,-9.8477,1.2726,3.1894
274.8825,-4.1320,0.3736,-63.5561,-10.1202,-9.0137,-10.6041,-444.9416,83.1014,-166.1344,1408,1591,1.0000,0.0247,-1.0098,10.0235,-9.8049,0.6139,2.7322,0.2981,-1.1487,10.2970,-10.4355,0.3260,2.8459
274.9009,-4.3945,0.3282,-63.5093,-9.9217,-9.1499,-7.4101,-484.3524,88.3959,-179.8166,1401,1598,1.0000,0.2928,-1.0816,9.7961,-10.6599,1.3849,2.7169,0.0874,-1.2181,9.6673,-9.1835,1.4787,2.6169
274.9193,-4.6123,0.3390,-63.4682,-7.5362,-8.9078,13.1030,-568.4972,92.7983,-205.5784,1386,1613,1.0000,-0.0280,-1.1439,9.9685,-7.5912,0.9727,2.2131,0.0252,-0.9835,10.0480,-7.4813,0.5321,2.3879
274.9378,-4.7551,0.3433,-63.4315,-7.9752,-8.7679,7.5884,-569.0498,95.7020,-207.1849,1386,1613,1.0000,0.0103,-0.7824,9.9014,-8.0874,0.8047,1.9536,0.0443,-0.6627,10.1342,-7.8629,0.9367,2.1741
274.9562,-4.8946,0.3109,-63.3984,-6.4484,-8.4200,18.8833,-617.6296,98.5402,-222.2064,1377,1622,1.0000,0.1109,-0.9212,9.8799,-6.9271,1.0795,1.8009,-0.1592,-0.8207,9.5500,-5.9698,-1.1015,1.8077
274.9746,-5.0022,0.2622,-63.3680,-6.3034,-8.1025,17.2557,-625.3230,100.7418,-225.4613,1375,1624,1.0000,0.1707,-0.8063,9.8272,-6.1408,-0.2792,1.3276,0.2048,-0.6387,9.9450,-6.4660,-0.0785,1.9375
274.9930,-5.1247,0.2105,-63.3455,-5.7232,-7.7456,19.4054,-645.6166,103.2438,-232.3945,1372,1627,1.0000,0.1994,-0.9476,9.7961,-6.6523,0.4154,1.3200,0.0587,-0.4903,9.5955,-4.7942,-0.6282,1.1131
275.0115,-5.1782,0.1911,-63.3226,-4.5286,-7.2631,26.1187,-671.1097,104.3658,-240.0936,1367,1632,1.0000,0.1037,-0.7704,10.1528,-4.4538,0.0185,1.2895,-0.3124,-0.4951,9.7080,-4.6034,0.6466,1.2428
275.0299,-5.1929,0.0634,-63.3018,-5.7652,-7.0384,12.1713,-632.6265,104.7106,-229.4907,1373,1626,1.0000,0.4341,-0.4735,10.1121,-5.3316,-2.5159,0.9307,0.7411,-0.5358,9.7918,-6.1988,-0.7808,0.9909
275.0483,-5.2436,0.0139,-63.2819,-3.4904,-6.5062,28.9639,-686.8319,105.7783,-245.2021,1365,1634,1.0000,0.2186,-0.8757,10.4210,-5.0187,0.2246,1.3429,0.1712,-1.0529,8.9299,-1.9622,-0.7656,0.7848
275.0667,-5.2295,-0.0247,-63.2647,0.5325,-4.9686,52.2797,-752.3541,105.5479,-263.4331,1355,1644,1.0000,0.0366,-0.8877,9.8105,0.0806,-1.4701,0.8467,-0.0562,-0.5501,9.9737,0.9844,-2.0022,0.7161
275.0851,-5.1092,-0.0813,-63.2358,0.5210,-2.4018,25.6745,-661.8918,103.1940,-236.9267,1369,1630,1.0000,0.2952,-0.3777,9.6644,1.6226,-0.1571,0.6864,0.0779,-0.1359,9.7080,-0.5805,0.5016,2.4718
275.1035,-5.0758,-0.0833,-63.2186,1.8111,-0.3742,5.3962,-599.6376,102.5752,-219.1861,1379,1620,1.0000,-0.0567,-0.8901,9.8512,0.5462,-0.9205,0.9918,0.0515,-0.4137,9.4015,3.0760,-1.0404,0.7161
275.1219,-4.8853,-0.1229,-63.2019,5.0096,0.0000,0.0000,-562.1770,98.8149,-206.8170,1386,1613,1.0000,0.1180,-0.4184,10.1911,4.5920,-1.0350,0.8162,0.0587,-0.8207,9.8900,5.4271,-1.1396,0.8230
275.1403,-4.7428,-0.1254,-63.1866,2.2310,0.0000,0.0000,-545.7755,96.0120,-200.8231,1389,1610,1.0000,-0.0184,-0.3706,9.9373,2.7065,-0.3556,0.7246,0.0731,-0.3131,9.8732,1.7554,-0.9259,0.8535
275.1587,-4.7250,-0.0878,-63.1674,1.5477,0.0000,0.0000,-543.7242,95.7028,-200.0942,1389,1610,1.0000,-0.2435,-0.8638,9.7267,1.4928,-1.3327,1.1215,-0.2094,-0.4879,9.5811,1.6027,-0.9488,0.7695
275.1771,-4.6241,-0.0554,-63.1515,3.5630,0.0000,0.0000,-532.1190,93.7322,-195.8594,1392,1607,1.0000,-0.0424,-0.6339,9.5902,4.1722,1.1482,0.6940,-0.2310,-0.5789,10.3281,2.9539,0.7764,1.2047
275.1955,-4.5047,-0.0658,-63.1262,1.4142,0.0000,0.0000,-518.3714,91.3881,-190.8381,1395,1604,1.0000,-0.0376,-0.3394,9.4489,1.3248,-1.3708,1.3353,0.0348,-0.5070,9.3321,1.5035,-1.0709,1.2276
275.2139,-4.4260,-0.0820,-63.0950,1.8722,0.0000,0.0000,-509.3122,89.8580,-187.5364,1396,1603,1.0000,-0.0136,-0.5813,10.0882,2.6149,-1.2563,1.5261,0.1832,-0.6028,9.8923,1.1294,-1.2389,1.6856
275.2325,-4.3657,-0.1222,-63.0589,1.3607,0.0000,0.0000,-502.3829,88.6975,-185.0159,1398,1601,1.0000,0.0869,-0.5741,9.4992,0.9966,-1.6915,1.8620,-0.0347,-0.7943,9.6026,1.7248,-1.2160,1.8153
275.2510,-4.3174,-0.1210,-63.0190,1.0592,0.0000,0.0000,-496.8241,87.7746,-182.9980,1399,1600,1.0000,0.0079,-0.6004,9.6141,2.1035,-0.2334,2.1673,0.0036,-0.7728,9.7224,0.0149,-0.2694,2.1131
275.2699,-4.3537,-0.0968,-62.9732,-0.4675,0.0000,-0.0000,-500.9954,88.5431,-184.5503,1398,1601,1.0000,-0.1405,-0.8518,9.6644,-0.6446,-0.9357,2.3963,-0.0706,-0.8638,9.6074,-0.2904,-0.6358,2.3268
275.2884,-4.3869,-0.0666,-62.9267,-0.2347,0.0000,-0.0000,-504.8170,89.2511,-185.9743,1397,1602,1.0000,-0.1310,-0.8686,9.6333,-0.1255,0.1864,2.5643,-0.0347,-0.7273,9.7798,-0.3439,-0.7503,2.4489
275.3070,-4.3652,-0.0535,-62.8768,0.3455,0.0000,0.0000,-502.3218,88.8611,-185.0806,1398,1601,1.0000,-0.0831,-0.6722,9.7147,0.5386,-0.9128,2.6940,-0.0610,-0.8350,9.8325,0.1523,-0.2923,2.5863
275.3255,-4.3978,-0.0739,-62.8228,0.3226,0.0000,0.0000,-506.0717,89.5568,-186.4785,1397,1602,1.0000,0.0845,-0.9284,9.7889,0.2180,-0.3937,2.8467,0.1760,-0.8518,9.8804,0.4271,-0.4679,2.9527
275.3439,-4.4426,-0.0966,-62.7676,0.7424,0.0000,0.0000,-511.2226,90.4963,-188.3905,1396,1603,1.0000,0.1300,-1.0266,9.7841,0.4928,0.0643,3.0299,0.0348,-0.9284,9.6290,0.9920,-0.2923,2.9375
275.3623,-4.4219,-0.0770,-62.7108,0.7882,0.0000,0.0000,-508.8475,90.1278,-187.5412,1396,1603,1.0000,-0.0831,-0.7345,9.8727,1.9279,-0.5311,3.1292,-0.1687,-0.8374,9.6697,-0.3515,-0.1778,3.0138
275.3808,-4.4291,-0.0429,-62.6550,0.7958,0.0000,0.0000,-509.6731,90.3156,-187.8663,1396,1603,1.0000,-0.1286,-0.8470,9.6429,0.9355,0.1177,3.0910,-0.2238,-0.8039,9.9522,0.6561,-0.2770,2.9375
275.3992,-4.4169,0.0148,-62.5998,1.9065,0.0000,0.0000,-508.2725,90.1163,-187.3745,1396,1603,1.0000,-0.2842,-0.8662,9.7937,1.6531,-0.5540,3.0452,-0.2406,-0.8614,9.8636,2.1600,-0.4221,2.8917
275.4176,-4.3933,-0.0205,-62.5488,2.6737,0.0000,0.0000,-505.5531,89.6877,-186.3987,1397,1602,1.0000,0.1587,-0.8638,9.6476,1.8592,-0.0426,2.9460,0.1425,-0.8614,9.7295,3.4882,-0.4068,2.5863
275.4360,-4.3787,-0.0259,-62.5006,2.1508,0.0000,0.0000,-503.8766,89.4401,-185.8055,1397,1602,1.0000,0.0462,-0.8757,9.8607,1.9890,-0.4166,2.8620,0.1090,-0.8518,9.8109,2.3126,0.4405,2.3955
275.4544,-4.3776,-0.0012,-62.4587,2.2004,0.0000,0.0000,-503.7508,89.4620,-185.7812,1397,1602,1.0000,-0.0496,-0.9452,9.8966,2.2180,0.6750,2.3734,0.0539,-0.8901,9.9139,2.1829,0.4558,2.2734
275.4728,-4.3467,0.0243,-62.4200,2.2958,0.0000,0.0000,-500.1861,88.8860,-184.4951,1398,1601,1.0000,-0.0855,-0.7991,9.7889,2.3477,0.0948,2.2284,-0.2094,-0.9524,9.8301,2.2439,0.2955,2.0215
275.4912,-4.3175,0.0615,-62.3876,2.5325,0.0000,0.0000,-496.8327,88.3464,-183.2863,1399,1600,1.0000,-0.1405,-0.8302,9.8775,2.6073,0.5528,1.9231,-0.0514,-0.9572,9.8636,2.4577,0.1276,1.6703
275.5096,-4.3158,0.0817,-62.3603,2.0019,0.0000,0.0000,-496.6342,88.3550,-183.2351,1399,1600,1.0000,-0.1262,-0.8901,9.6788,2.1111,-0.2258,1.4803,-0.2190,-1.0481,9.8038,1.8928,-0.5595,1.4489
275.5280,-4.3243,0.0750,-62.3392,2.2806,0.0000,0.0000,-497.6173,88.5691,-183.6174,1399,1600,1.0000,0.0127,-0.9907,9.9397,2.3706,-0.2869,1.3734,-0.1687,-0.9404,9.8181,2.1905,-0.0862,0.9146
275.5464,-4.2862,0.1299,-62.3278,3.0935,0.0000,0.0000,-493.2231,87.8483,-182.0266,1399,1600,1.0000,-0.2579,-0.8446,10.0906,3.2638,-0.2945,0.7627,0.0539,-1.2062,9.7870,2.9233,0.7459,0.5253
275.5648,-4.2954,0.1776,-62.3227,3.1432,0.0000,0.0000,-494.2865,88.0761,-182.4383,1399,1600,1.0000,-0.2100,-1.0649,9.9397,3.3096,0.5605,0.5032,-0.3746,-0.9907,9.8612,2.9768,0.2268,0.1360
275.5832,-4.2543,0.2212,-62.3214,3.2615,0.0000,0.0000,-489.5572,87.2967,-180.7244,1400,1599,1.0000,-0.2459,-0.8302,9.8727,3.2332,-0.0655,0.1444,-0.3794,-0.8518,9.7631,3.2897,-0.2465,-0.0167
275.6015,-4.1995,0.2947,-62.3242,4.1203,0.0000,0.0000,-483.2557,86.2436,-178.4334,1401,1598,1.0000,-0.4278,-0.8135,9.6764,4.0653,-0.6227,0.0376,-0.2908,-0.9979,9.8756,4.1752,-0.4831,-0.4060
275.6199,-4.1540,0.3469,-62.3369,3.8111,0.0000,0.0000,-478.0148,85.3743,-176.5313,1402,1597,1.0000,-0.3081,-0.8255,9.7195,4.0119,-0.0273,-0.4586,-0.4177,-0.8877,9.8062,3.6103,-0.2923,-0.9251
275.6383,-4.1297,0.4139,-62.3512,3.6355,0.0000,0.0000,-475.2197,84.9299,-175.5265,1403,1596,1.0000,-0.3464,-0.8997,9.6692,3.6989,1.1635,-0.6495,-0.3268,-0.8350,9.7583,3.5722,-0.4602,-0.8259
275.6567,-4.0705,0.4364,-62.3714,4.7271,0.0296,0.1398,-468.8059,83.7860,-173.1586,1404,1595,1.0000,-0.2291,-0.8398,9.8751,5.5462,-0.6304,-1.0235,-0.2358,-0.7896,9.6457,3.9081,-0.4144,-1.2381
275.6751,-4.0035,0.4710,-62.3923,4.4409,0.1345,0.4143,-461.8849,82.4858,-170.5707,1406,1593,1.0000,-0.2914,-0.7584,9.7434,4.5462,-0.3861,-1.1609,-0.3411,-0.8374,9.4518,4.3355,-0.7885,-1.1923
275.6935,-3.9274,0.5022,-62.4163,4.3645,0.2717,0.6311,-453.7577,81.0041,-167.5542,1407,1592,1.0000,-0.3297,-0.6962,9.7219,4.5386,-1.0884,-1.2449,-0.3483,-0.8542,9.6074,4.1905,-1.2160,-1.5129
275.7119,-3.8757,0.4871,-62.4412,4.5401,0.4618,1.0561,-449.0339,80.0092,-165.7341,1408,1591,1.0000,-0.1166,-0.8039,9.6022,4.4546,-1.3556,-1.3212,-0.1903,-0.8279,9.6410,4.6256,-0.9106,-1.5129
275.7303,-3.7725,0.4724,-62.4665,4.8226,0.7337,1.8033,-439.3020,77.9816,-161.9954,1410,1589,1.0000,-0.0879,-0.5860,9.6955,4.7523,-0.7373,-1.2983,0.0563,-0.6914,9.5548,4.8928,-0.7350,-1.5663
275.7487,-3.7039,0.5151,-62.4918,5.3455,1.1739,3.5389,-436.4048,76.6464,-160.5165,1411,1588,1.0000,-0.3225,-0.7704,9.5974,5.1722,-0.5693,-1.3365,-0.2166,-0.6842,9.6386,5.5187,-0.3534,-1.4595
275.7671,-3.6077,0.5211,-62.5134,4.7997,1.4209,2.0360,-421.0041,74.7582,-155.2602,1414,1585,1.0000,-0.1908,-0.5908,9.7290,4.9050,-0.8060,-1.1227,-0.1161,-0.6507,9.4973,4.6943,-0.7808,-1.3373
275.7855,-3.5365,0.4980,-62.5321,4.8378,1.6598,2.0944,-412.9888,73.3713,-152.3225,1416,1583,1.0000,-0.0591,-0.6866,9.6141,4.5081,-0.9052,-1.0769,-0.0514,-0.7489,9.4925,5.1676,-0.7961,-1.0549
275.8039,-3.4805,0.5211,-62.5538,5.8455,2.2788,6.4703,-419.1410,72.2851,-153.5020,1415,1584,1.0000,-0.2411,-0.8422,9.6860,5.7371,-0.5464,-1.0846,-0.1256,-0.5046,9.3800,5.9539,-0.4373,-1.2839
275.8229,-3.3526,0.5327,-62.5701,4.8340,2.4139,1.3573,-389.7042,69.7619,-143.9981,1420,1579,1.0000,-0.1645,-0.4137,9.4585,5.1264,-0.4472,-0.8937,-0.2525,-0.5023,9.6745,4.5416,-0.1702,-0.9175
275.8413,-3.2072,0.5443,-62.5840,4.5745,2.4204,0.0667,-369.2521,66.8854,-136.8333,1424,1575,1.0000,-0.1070,-0.2772,9.4154,3.8287,0.5452,-0.8708,-0.0993,-0.5501,9.7822,5.3203,0.3413,-0.6579
275.8597,-3.1591,0.5293,-62.5958,2.6126,1.6453,-6.1225,-345.8869,65.9541,-129.8254,1428,1571,1.0000,0.0079,-0.5382,9.6141,2.9050,0.3620,-0.7334,-0.1352,-0.4975,9.6649,2.3203,0.3795,-0.5205
275.8781,-3.0972,0.5119,-62.6047,2.1584,0.9421,-4.1022,-344.5845,64.7475,-128.8574,1429,1570,1.0000,0.0007,-0.4352,9.7865,2.0729,0.2856,-0.4739,0.0491,-0.5023,9.6074,2.2439,0.0360,-0.4976
275.8966,-3.0517,0.5165,-62.6066,1.2386,0.3089,-1.9252,-345.6203,63.8683,-128.7079,1429,1570,1.0000,-0.0639,-0.4232,9.7458,1.5615,0.3849,-0.0769,-0.0059,-0.3730,9.8947,0.9157,0.7001,-0.0931
275.9150,-3.0355,0.5303,-62.6201,-0.4446,0.0000,-0.0000,-349.3026,63.5750,-129.5922,1428,1571,1.0000,-0.0783,-0.4017,9.5974,-0.0721,0.9116,-1.6113,-0.0562,-0.2820,9.6410,-0.8171,0.8680,0.1665
275.9334,-3.0055,0.5678,-62.6115,-1.2118,0.0000,-0.0000,-345.8440,63.0040,-128.3383,1429,1570,1.0000,-0.1812,-0.2676,9.6883,-0.8965,1.0795,0.5566,-0.0562,-0.5310,9.5117,-1.5271,0.8375,0.4260
275.9518,-3.0406,0.5462,-62.5968,-2.3148,0.0000,-0.0000,-349.8871,63.7371,-129.8369,1428,1571,1.0000,0.1037,-0.4759,9.6788,-2.0721,1.0108,0.8238,0.1233,-0.4017,9.8109,-2.5576,1.2802,0.8917
275.9702,-3.0827,0.5663,-62.5764,-3.2042,0.0000,-0.0000,-354.7257,64.6088,-131.6276,1427,1572,1.0000,-0.0352,-0.4400,9.7338,-3.1408,1.6673,1.1444,-0.0035,-0.4161,9.6960,-3.2675,1.7611,1.2352
275.9886,-3.1421,0.6037,-62.5534,-4.1126,0.0000,-0.0000,-361.5690,65.8296,-134.1541,1426,1573,1.0000,-0.1693,-0.4448,9.6381,-3.7897,1.1711,1.2360,-0.1041,-0.5286,9.8301,-4.4355,1.0436,1.3726
276.0069,-3.2526,0.5837,-62.5285,-4.3110,0.0000,-0.0000,-374.2823,68.0717,-138.8349,1423,1576,1.0000,0.0247,-0.6890,9.8081,-4.3087,-0.6609,1.4116,0.0563,-0.5477,9.8038,-4.3133,1.3184,1.3726
276.0254,-3.3499,0.5753,-62.4989,-4.8950,0.0000,-0.0000,-385.4825,70.0517,-142.9610,1421,1578,1.0000,0.0582,-0.5956,9.8679,-4.8507,1.3849,1.6635,0.0396,-0.6100,9.9139,-4.9393,1.1810,1.7008
276.0438,-3.4707,0.5885,-62.4714,-5.4637,0.0000,-0.0000,-399.3841,72.5025,-148.0788,1418,1581,1.0000,-0.0065,-0.6770,9.9086,-5.4309,1.4383,1.5719,0.0060,-0.6459,9.6122,-5.4965,1.9673,1.6398
276.0621,-3.5821,0.6234,-62.4438,-5.9752,0.0000,-0.0000,-412.1962,74.7650,-152.7974,1415,1584,1.0000,-0.1334,-0.6076,9.8775,-5.6141,1.6444,1.6177,-0.0969,-0.6004,9.8995,-6.3362,1.2497,1.5711
276.0807,-3.7122,0.6247,-62.4181,-6.4294,-0.0016,-0.0171,-427.1207,77.4044,-158.2960,1412,1587,1.0000,0.0151,-0.6770,10.0068,-6.4843,1.2475,1.5490,-0.0371,-0.7010,9.7678,-6.3744,1.5245,1.3955
276.0991,-3.8432,0.6085,-62.3962,-6.8187,-0.3831,-3.2701,-432.8275,80.0629,-161.2231,1411,1588,1.0000,0.0917,-0.6650,9.8320,-6.4538,1.3925,1.1902,0.0036,-0.6675,9.8756,-7.1835,1.2650,1.3726
276.1175,-4.0031,0.5820,-62.3808,-7.9026,-1.6018,-13.2028,-422.6223,83.3009,-159.9847,1412,1587,1.0000,0.1420,-0.7417,9.9685,-8.0874,1.3315,0.8238,-0.0299,-0.6268,10.0216,-7.7179,1.2726,1.0291
276.1359,-4.1463,0.5649,-62.3704,-7.3339,-2.8570,-15.2319,-433.2564,86.2060,-164.4148,1409,1590,1.0000,0.0845,-0.7321,9.8966,-7.2706,1.4765,0.5872,0.0659,-0.7608,10.3736,-7.3973,0.8451,0.7161
276.1543,-4.2594,0.6051,-62.3634,-7.7003,-4.1777,-19.7220,-433.3422,88.5108,-165.5912,1408,1591,1.0000,-0.2052,-0.5908,10.0235,-7.3240,0.5147,0.4803,0.0180,-0.6100,9.9187,-8.0767,1.4863,0.3955
276.1727,-4.3864,0.6209,-62.3645,-7.4904,-5.1194,-17.6720,-453.8620,91.0947,-172.6287,1405,1594,1.0000,-0.0232,-0.7105,10.1768,-6.1713,1.9269,0.1521,-0.1448,-0.4735,10.0743,-8.8095,1.6466,-0.0244
276.1911,-4.5127,0.6295,-62.3667,-8.6049,-5.9738,-25.1989,-446.7234,93.6666,-171.9158,1405,1594,1.0000,-0.0663,-0.6243,10.2151,-8.8355,0.7208,-0.0617,-0.0897,-0.7393,9.8229,-8.3744,1.2115,-0.0778
276.2095,-4.6709,0.6196,-62.3723,-7.2156,-6.1612,-10.1136,-508.3783,96.8778,-190.7848,1395,1604,1.0000,0.1013,-0.9284,10.1768,-7.2782,1.7360,-0.1915,-0.0682,-0.8303,9.9642,-7.1530,1.9291,-0.1083
276.2278,-4.8122,0.6550,-62.3835,-7.4866,-6.3600,-10.8376,-522.5456,99.7503,-196.1879,1392,1607,1.0000,-0.1214,-0.8614,10.3324,-7.1255,1.0872,-0.3747,-0.1640,-0.9356,10.3018,-7.8477,2.6466,-0.5434
276.2463,-4.9712,0.6765,-62.3992,-7.4103,-6.5175,-8.5049,-547.5672,102.9808,-204.8092,1387,1612,1.0000,-0.1358,-0.9643,10.2270,-7.7820,0.9269,-0.6953,-0.3627,-1.0074,9.9714,-7.0385,1.0131,-0.8259
276.2648,-5.1132,0.7116,-62.4195,-5.7652,-6.4047,6.1206,-606.0330,105.8722,-222.6253,1377,1622,1.0000,-0.2411,-1.0505,10.1313,-5.8813,0.9345,-0.9777,-0.1616,-1.1559,9.9570,-5.6492,0.3718,-1.0854
276.2832,-5.2397,0.7202,-62.4407,-5.4446,-6.2607,7.8357,-625.5265,108.4538,-229.3743,1373,1626,1.0000,-0.1765,-1.0362,10.1528,-5.6675,0.1101,-1.1456,-0.1903,-1.0002,10.0192,-5.2217,-0.0938,-1.1312
276.3016,-5.3282,0.7046,-62.4873,-3.3683,-5.7708,23.3296,-680.3378,110.2777,-245.6334,1364,1635,1.0000,-0.0927,-1.0745,10.2917,-3.8736,-0.0579,-3.5426,0.0228,-0.8734,9.6338,-2.8629,-0.2847,-1.5511
276.3200,-5.3948,0.6537,-62.5217,-2.0515,-4.4592,26.0717,-695.8995,111.6635,-250.6836,1362,1637,1.0000,0.1109,-1.0769,10.0499,-2.4156,0.0337,-1.8021,-0.0873,-0.8949,9.5883,-1.6874,0.0283,-1.9098
276.3384,-5.3982,0.6236,-62.5563,-0.0019,-2.1726,20.8441,-681.2305,111.7847,-246.6369,1364,1635,1.0000,-0.0065,-0.9691,10.1361,-0.4767,-0.0350,-1.7945,-0.0562,-1.0386,9.6912,0.4729,-0.4373,-2.0320
276.3568,-5.3994,0.6176,-62.5957,2.2768,-0.2186,3.4710,-631.3402,111.8637,-232.7071,1372,1627,1.0000,-0.1453,-1.1606,10.0642,1.7905,-0.5617,-2.1991,-0.2501,-0.9236,9.4351,2.7630,-0.5289,-2.1465
276.3752,-5.3226,0.5820,-62.6375,4.9561,0.0000,0.0000,-612.5036,110.3807,-226.6914,1375,1624,1.0000,0.0031,-1.0122,9.9852,4.4775,-0.6304,-2.2602,-0.0514,-0.9117,9.8492,5.4348,-0.2999,-2.3755
276.3936,-5.2042,0.5680,-62.6802,6.5745,0.0000,0.0000,-598.8726,108.0640,-221.7163,1378,1621,1.0000,-0.1190,-0.9667,10.2007,6.0195,-0.4548,-2.2449,-0.1065,-0.5813,9.7032,7.1294,-0.9717,-2.5511
276.4120,-5.0546,0.5264,-62.7250,7.9027,0.0000,0.0000,-581.6602,105.1234,-215.4265,1381,1618,1.0000,-0.0472,-0.9021,10.1528,7.2103,-1.1342,-2.3899,-0.0706,-0.8255,9.6912,8.5951,-1.7503,-2.7877
276.4304,-4.8162,0.5091,-62.7683,10.5096,0.0000,0.0000,-554.2244,100.4037,-205.3847,1387,1612,1.0000,-0.0448,-0.6794,10.2342,9.6913,-1.0197,-2.3289,0.0396,-0.7201,9.7224,11.3279,0.7077,-2.4900
276.4487,-4.6419,0.4520,-62.8067,9.7653,0.0146,0.2981,-535.0256,96.9646,-198.2894,1390,1609,1.0000,0.0175,-0.8662,9.9493,9.6455,-1.8518,-2.2220,-0.2837,-0.5837,9.8109,9.8852,-1.7121,-2.2763
276.4672,-4.4704,0.5604,-62.8432,10.8378,1.6667,24.4342,-584.8015,93.5794,-210.5341,1384,1615,1.0000,-0.7271,-0.9140,9.6117,10.1416,-1.3861,-2.2144,-0.4848,-0.6698,9.6888,11.5340,-1.8495,-2.0244
276.4857,-4.3291,0.5889,-62.8805,11.0363,4.5453,46.9324,-633.3364,90.7969,-222.7327,1377,1622,1.0000,-0.3991,-1.0625,9.7075,10.4775,-2.0884,-2.0464,-0.1879,-0.4041,9.8109,11.5951,-1.5518,-2.2228
276.5042,-4.1272,0.5488,-62.9301,12.2577,6.3364,56.6968,-638.2194,86.7996,-222.1012,1377,1622,1.0000,-0.0280,-0.8686,9.9469,11.8745,-0.9892,-3.5350,0.0515,-0.6028,9.4566,12.6409,-1.2160,-2.0091
276.5226,-3.8149,0.5568,-62.9666,12.7119,7.2927,51.8447,-588.3028,80.5913,-205.0204,1387,1612,1.0000,-0.3560,-0.3442,10.0954,12.6760,-1.5235,-1.2067,-0.0275,-0.7704,9.7846,12.7477,-3.1091,-3.2915
276.5410,-3.6053,0.5221,-62.9877,13.3760,8.2052,49.5313,-557.5169,76.4349,-194.3222,1393,1606,1.0000,-0.0663,-0.8159,9.6979,13.2867,-1.4701,-1.0235,-0.2837,-0.7848,9.6362,13.4653,-1.5900,-1.4595
276.5594,-3.3794,0.4786,-63.0113,14.4371,9.1400,50.8008,-535.1808,71.9513,-185.8263,1397,1602,1.0000,-0.0280,-0.8039,9.8344,14.2943,-1.4090,-1.1762,-0.1472,-0.8087,9.4279,14.5798,-1.7885,-1.5816
276.5779,-3.1658,0.5378,-63.0364,15.1279,10.0382,48.7857,-504.7977,67.7111,-175.1989,1403,1596,1.0000,-0.4470,-0.8542,9.4992,14.6378,-1.1266,-1.0388,-0.0490,-0.8135,9.8205,15.6180,-0.9182,-1.8106
276.5965,-2.9268,0.5768,-63.0616,15.4294,10.8468,43.3563,-461.6533,62.9596,-160.7428,1411,1588,1.0000,-0.3010,-0.7441,9.4753,15.2103,-0.0502,-1.3976,-0.3603,-0.5190,9.6074,15.6485,-0.7808,-1.3373
276.6150,-2.7322,0.5883,-63.0871,14.8836,11.4524,32.8087,-408.8838,59.0952,-144.0350,1420,1579,1.0000,-0.2195,-0.8374,9.3819,14.3096,-0.8747,-1.3441,-0.0227,-0.6866,9.6984,15.4577,-0.6740,-1.4366
276.6334,-2.5463,0.5640,-63.0958,15.0325,11.9894,29.1915,-377.0809,55.4038,-133.2846,1426,1573,1.0000,-0.0376,-0.8638,9.4513,14.8592,-0.1571,-1.4128,-0.0131,-0.6411,9.8492,15.2058,-1.0327,0.5863
276.6518,-2.3582,0.5300,-63.1268,13.4142,12.2031,11.5825,-304.7115,51.6636,-111.1510,1438,1561,1.0000,-0.0448,-0.6938,9.5495,13.6531,-1.2182,-1.7182,0.1736,-0.6603,9.7774,13.1752,-1.0327,-1.6961
276.6706,-2.1583,0.4910,-63.1748,11.4447,12.0893,-6.0583,-230.9123,47.6889,-88.4999,1451,1548,1.0000,0.0390,-0.4568,9.4585,11.5615,-0.3556,-3.5579,-0.0419,-0.3275,9.5236,11.3279,-0.5824,-1.5053
276.6893,-1.9510,0.4416,-63.2038,10.4218,11.8392,-13.3453,-186.0665,43.5615,-73.8794,1459,1540,1.0000,0.0869,-0.3131,9.7267,10.5920,-0.2563,-1.5426,0.1880,-0.2317,9.7942,10.2516,-0.8724,-1.6274
276.7080,-1.7257,0.3933,-63.2257,7.1813,11.1405,-37.3500,-91.0101,39.0732,-45.0195,1475,1524,1.0000,0.1348,0.0748,9.3627,7.9813,-0.0273,-1.2296,0.2024,0.2016,9.7774,6.3813,0.0360,-1.1923
276.7269,-1.5542,0.3681,-63.2437,3.8455,10.0463,-58.1610,-11.3331,35.6576,-21.0021,1488,1511,1.0000,0.0893,0.1490,9.5591,4.6607,0.6902,-0.9701,-0.0323,0.2232,9.5763,3.0302,0.3260,-1.0015
276.7457,-1.4825,0.3241,-63.2519,-0.5400,8.4583,-84.2834,72.1442,34.2395,3.0806,1501,1498,1.0000,0.1468,0.0987,9.4872,0.3630,0.0643,-0.4434,0.0132,0.1729,9.9498,-1.4431,0.2421,-0.4747
276.7642,-1.4528,0.3182,-63.2509,-4.5629,6.5051,-105.3086,136.1176,33.6594,21.2832,1511,1488,1.0000,0.0103,0.2663,9.5399,-3.5530,0.2475,0.0605,0.0970,0.1298,9.8588,-5.5729,0.7230,-0.0015
276.7826,-1.4970,0.2935,-63.2378,-8.6393,1.5585,-45.4798,-41.2758,34.5585,-4.4569,1497,1502,0.1546,0.1635,0.2783,9.6309,-7.6904,1.2933,0.5108,0.2622,0.2304,10.1006,-9.5881,1.1810,0.9298
276.8011,-1.6040,0.2681,-63.2123,-12.4752,0.0000,-0.0000,-184.5713,36.7147,-15.3048,1491,1508,0.2185,0.1539,0.3022,9.4322,-11.5225,0.9421,1.1292,0.3580,0.1969,9.9115,-13.4278,1.2421,1.6321
276.8195,-1.7718,0.2551,-63.1739,-14.9103,0.0000,-0.0000,-203.8858,40.0894,-25.5968,1485,1514,0.3319,0.0845,0.2232,9.8368,-14.1484,0.6597,1.7169,0.2335,-0.0402,10.0528,-15.6721,0.9215,2.4718
276.8380,-2.0173,0.2311,-63.1224,-17.0362,-0.0444,-1.8245,-226.8773,45.0188,-44.1344,1475,1524,0.5130,0.1372,0.0197,9.9326,-16.5454,0.7666,2.5872,0.0731,-0.1072,9.9546,-17.5271,0.6008,2.9680
276.8565,-2.3815,0.1951,-63.0590,-19.7652,-5.5245,-130.4366,101.6121,52.3273,2.1335,1501,1498,0.9326,0.1420,-0.3706,10.0618,-17.9347,-0.1037,3.2055,0.1688,0.3213,10.3927,-21.5958,0.1047,3.6092
276.8749,-2.7889,0.1756,-62.9833,-17.8988,-7.5231,-99.4510,-34.5036,60.5025,-39.9123,1478,1521,1.0000,0.1492,-0.7800,10.0164,-19.4385,0.9803,3.8773,0.1305,-0.6746,9.4470,-16.3591,0.6695,4.4108
276.8933,-3.1297,0.1460,-62.8972,-17.8377,-9.0703,-84.1382,-117.8182,67.3492,-66.6637,1463,1536,1.0000,0.2377,-0.5358,9.4609,-16.7286,1.2475,4.3887,0.2431,0.0101,9.9043,-18.9469,1.5016,5.1054
276.9117,-3.4982,0.1238,-62.7995,-19.8645,-10.6894,-88.0212,-149.0382,74.7536,-79.1075,1456,1543,1.0000,0.1013,-0.5717,10.2246,-20.0721,-0.3098,5.0223,-0.0323,-0.5932,9.8157,-19.6568,0.0894,5.5787
276.9301,-3.8339,0.1270,-62.6991,-17.3416,-11.6872,-54.2077,-285.0599,81.5072,-120.5703,1433,1566,1.0000,0.1539,-0.6962,10.0594,-17.3698,1.5681,5.4498,0.0060,-0.5597,9.6769,-17.3133,2.0207,5.6627
276.9484,-4.1549,0.1839,-62.5906,-17.4942,-12.5583,-47.4165,-341.5542,87.9678,-139.6191,1423,1576,1.0000,-0.2148,-0.6627,9.8128,-16.6675,0.6902,5.8009,-0.1544,-0.5693,9.8540,-18.3210,0.1581,6.0902
276.9668,-4.4899,0.1799,-62.4754,-18.8225,-13.4979,-51.1086,-369.4783,94.7134,-150.8106,1417,1582,1.0000,0.0821,-0.6627,9.8966,-18.9729,0.7055,6.1444,0.1138,-0.8470,9.8421,-18.6721,0.5245,6.4718
276.9853,-4.8133,0.1736,-62.3563,-15.6011,-13.8134,-17.0609,-504.7577,101.2302,-191.9473,1394,1605,1.0000,0.0749,-0.9571,10.0930,-16.0874,0.2322,6.2360,0.0036,-0.9548,9.7678,-15.1148,0.4100,6.7314
277.0037,-5.0863,0.2619,-62.2554,-13.4065,-13.7524,3.3150,-594.8550,106.7403,-219.9296,1379,1620,1.0000,-0.3895,-0.9547,9.8823,-13.6294,0.9650,6.4040,0.1473,-0.9619,9.8564,-13.1835,-0.4831,4.5100
277.0222,-5.3212,0.1510,-62.1358,-12.1355,-13.5098,13.1225,-650.1361,111.4918,-237.7840,1369,1630,1.0000,0.5227,-0.9404,9.9685,-12.5148,-0.3479,6.3047,0.2311,-0.7273,9.7583,-11.7561,0.0589,6.6321
277.0407,-5.5734,0.1342,-62.0006,-8.3912,-12.7420,41.6155,-761.2214,116.5914,-271.4377,1350,1649,1.0000,0.0438,-1.3833,9.8871,-9.5377,-0.4319,6.3353,-0.3052,-0.9093,9.7535,-7.2446,-1.4373,8.3879
277.0591,-5.6838,0.0344,-61.8789,-5.6545,-11.6789,57.6926,-820.2312,118.8565,-289.0930,1340,1659,1.0000,0.3814,-1.0050,9.9445,-5.6217,-1.9205,6.4040,0.0994,-0.7800,9.8995,-5.6874,-0.9869,6.5634
277.0775,-5.7116,0.0746,-61.7635,-4.4332,-10.5920,59.0159,-827.2374,119.4688,-291.3609,1339,1660,1.0000,-0.2531,-0.7417,10.0331,-4.7362,-0.5693,6.3047,0.0252,-0.5621,9.9235,-4.1301,-1.9335,6.0138
277.0959,-5.7368,-0.0278,-61.6275,-3.4255,-9.5171,58.5244,-828.7237,120.0304,-292.0579,1339,1660,1.0000,0.3575,-0.8398,10.2199,-3.4614,-2.4319,8.1521,0.4945,-0.7129,10.1868,-3.3897,-1.7885,6.1283
277.1142,-5.7370,-0.1778,-61.5191,-2.3110,-8.4362,58.7999,-829.5469,120.0930,-292.3196,1339,1660,1.0000,0.7190,-0.8279,10.3037,-2.3393,-0.3098,5.9383,0.6501,-0.6435,9.5404,-2.2828,-1.5060,5.7085
277.1327,-5.6443,-0.3003,-61.4109,0.5401,-7.0897,73.0798,-860.0019,118.2951,-299.9481,1335,1664,1.0000,0.5777,-0.6124,10.1887,0.3248,-1.6456,5.8391,0.0060,-0.8566,9.9283,0.7554,-0.7503,5.7314
277.1511,-5.5005,-0.5589,-61.3096,0.9142,-5.8656,64.9161,-819.9408,115.4742,-287.3205,1341,1658,1.0000,1.0877,-0.3825,10.3228,0.5920,-2.2792,5.2589,0.7315,-0.5262,10.1078,1.2363,-4.4526,5.2199
277.1695,-5.5144,-0.5751,-61.2113,0.3416,-3.5688,36.6417,-740.1108,115.8074,-265.1347,1354,1645,1.0000,0.0845,-1.0146,9.9206,-2.2095,-0.7754,5.6559,-0.2813,-0.9500,9.4327,2.8928,-2.7656,4.6092
277.1879,-5.3658,-0.5455,-61.1215,10.1317,0.0000,0.0000,-617.4743,112.8881,-229.3368,1373,1626,1.0000,-0.2483,-1.1247,9.8105,9.3859,-3.9815,4.6559,-0.3507,-0.7273,9.6601,10.8775,-1.5900,4.5024
277.2063,-5.0622,-0.5144,-61.0375,7.2768,0.0000,0.0000,-582.5332,106.8667,-216.5426,1380,1619,1.0000,-0.1860,-0.1192,9.3986,7.1722,-1.5617,4.5719,-0.2454,-0.2102,10.1126,7.3813,-2.7350,4.2886
277.2247,-4.8181,-0.6251,-60.9528,9.3645,0.0000,0.0000,-554.4413,102.0330,-206.2601,1386,1613,1.0000,0.5514,-0.5310,10.3731,7.6836,-1.4930,4.3811,0.0922,-1.0290,8.7934,11.0455,-1.4068,4.7085
277.2431,-4.5872,-0.7597,-60.8655,11.8722,0.0000,0.0000,-527.8714,97.4615,-196.5347,1391,1608,1.0000,0.5729,-0.8255,10.3444,12.9737,-2.9663,4.7093,0.4394,-0.2772,10.2203,10.7706,-2.2770,4.3421
277.2616,-4.3476,-0.7453,-60.7701,8.4332,0.0035,0.0587,-500.4686,92.7134,-186.4879,1397,1602,1.0000,0.0175,-0.3777,9.6405,8.0271,-0.4395,5.3353,0.1138,-0.5070,9.7511,8.8394,-1.4602,4.9604
277.2800,-4.1683,-0.6823,-60.6692,8.3187,0.7483,8.3375,-503.6700,89.1678,-185.6115,1397,1602,1.0000,-0.2459,-0.5932,9.5615,8.5081,-1.5922,5.4498,0.1952,-1.1463,9.8947,8.1294,-0.9717,5.3497
277.2984,-3.9546,-0.6216,-60.5613,9.5363,2.8205,27.8162,-535.1748,84.9331,-192.3155,1394,1605,1.0000,-0.2866,-0.5358,9.9062,9.6531,-1.5006,5.7933,-0.1735,-0.6100,9.6026,9.4195,-2.0709,5.7161
277.3168,-3.7936,-0.7349,-60.4649,8.2348,4.3765,24.0986,-505.9449,81.7519,-182.5405,1399,1600,1.0000,0.5298,-0.6267,9.7051,8.3859,-1.7296,4.3276,0.3556,-0.4831,9.9785,8.0836,-1.3457,6.1131
277.3353,-3.6813,-0.7661,-60.3563,9.0210,5.7255,30.3005,-510.8861,79.5433,-182.8198,1399,1600,1.0000,0.0558,-0.8757,9.6285,8.0882,-2.3556,6.6024,0.1425,-0.8494,9.5596,9.9539,-3.4297,4.5024
277.3538,-3.5305,-0.7950,-60.2229,9.7806,6.3968,32.2968,-499.2810,76.5625,-178.0799,1402,1597,1.0000,0.0606,-0.7512,9.6476,10.0424,-2.7754,7.0681,0.2095,-0.8159,9.6481,9.5187,-2.8037,6.9604
277.3722,-3.4095,-0.8015,-60.0834,10.4905,7.0108,33.2684,-488.1533,74.1763,-173.7711,1404,1595,1.0000,0.0199,-0.9284,9.7506,10.0042,-2.0350,7.4040,0.1114,-0.8087,9.4853,10.9768,-2.2465,7.3497
277.3906,-3.2966,-0.8044,-59.9399,8.9294,7.2986,15.6677,-424.4673,71.9506,-154.8262,1414,1585,1.0000,0.0725,-0.7728,9.2765,9.2943,-1.2105,7.7246,0.1329,-0.8135,9.4925,8.5645,-1.4144,7.6779
277.4090,-3.1292,-0.7900,-59.8070,9.7577,7.6675,20.0729,-417.8952,68.6348,-151.3281,1416,1583,1.0000,-0.0448,-0.6052,9.7745,9.3859,-1.4624,6.2131,0.0539,-0.7297,9.5883,10.1294,-2.0327,8.2276
277.4274,-2.9606,-0.7541,-59.6506,9.4752,7.9386,14.7384,-383.1312,65.2926,-139.9230,1423,1576,1.0000,-0.0184,-0.5334,9.4154,9.5539,-1.1037,8.4116,0.1138,-0.4999,9.5787,9.3966,0.7459,8.5634
277.4458,-2.8020,-0.7691,-59.4889,8.1470,7.9699,1.6997,-327.3219,62.1474,-122.7238,1432,1567,1.0000,0.1516,-0.4496,9.5806,8.4317,-0.8594,8.9383,0.2957,-0.3945,9.6721,7.8623,-0.9869,8.5405
277.4641,-2.6806,-0.7983,-59.3217,4.9103,7.5110,-24.9981,-236.4696,59.7475,-96.0852,1447,1552,1.0000,0.2617,-0.3155,9.3627,5.7829,-0.2640,9.1521,0.2909,-0.3754,9.8588,4.0378,-0.4679,9.0673
277.4826,-2.5935,-0.8580,-59.1439,2.3951,6.7436,-41.5721,-178.7035,58.0297,-79.0518,1456,1543,1.0000,0.4101,-0.2461,9.5710,3.0653,-0.5693,9.7856,0.3436,-0.3323,9.7200,1.7248,-0.1549,9.4871
277.5010,-2.5668,-0.8834,-58.9552,0.5706,5.7558,-49.7781,-152.0039,57.5224,-69.9811,1461,1538,0.9812,0.2928,-0.3610,9.6596,1.1951,0.0490,10.2818,0.2981,-0.1000,9.7583,-0.0538,-0.2465,10.2505
277.5194,-2.5911,-0.8944,-58.7588,-2.7729,2.3303,-36.0175,-194.4311,58.0344,-74.4195,1459,1540,0.8917,0.1468,-0.2939,9.4370,-2.0110,-1.0731,10.7322,0.1090,-0.3993,9.8612,-3.5347,-1.0785,10.5329
277.5378,-2.6802,-0.9289,-58.5547,-5.3645,0.0020,-0.0539,-308.2592,59.8431,-108.2696,1440,1559,0.9315,0.3000,-0.3730,9.4274,-4.6981,-0.5769,11.0757,0.2024,-0.3969,9.8229,-6.0309,-0.5366,11.0291
277.5562,-2.7954,-0.9407,-58.3451,-8.1431,0.0000,-0.0000,-321.6687,62.1747,-117.6101,1435,1564,0.9707,0.2808,-0.2700,9.3747,-7.7133,0.1101,11.3124,0.2000,-0.3730,9.6481,-8.5729,0.6772,11.5863
277.5746,-2.9385,-0.9089,-58.1245,-9.0820,0.0000,-0.0000,-338.1339,65.0657,-126.8567,1430,1569,0.9972,0.1037,-0.3466,9.6213,-8.7439,0.3696,12.0070,0.0826,-0.3969,9.7966,-9.4202,0.5856,12.1512
277.5931,-3.1327,-0.8614,-57.8969,-11.6813,0.0000,-0.0000,-360.4788,68.9806,-135.4243,1425,1574,1.0000,0.0366,-0.3873,9.7362,-11.0874,0.4307,12.2055,-0.0945,-0.4017,9.8732,-12.2752,0.5627,12.5558
277.6115,-3.3603,-0.7771,-57.6619,-12.5362,-0.2748,-6.7660,-367.1941,73.5679,-139.5983,1423,1576,1.0000,-0.1142,-0.5070,9.8559,-12.6217,0.6368,12.7093,-0.1448,-0.4999,9.6362,-12.4507,0.9749,12.9604
277.6298,-3.5933,-0.6878,-57.4146,-12.3988,-3.2503,-48.6340,-273.4228,78.2630,-115.6899,1436,1563,1.0000,-0.1812,-0.5836,9.7290,-12.2248,0.8276,13.3887,-0.2047,-0.4137,9.8133,-12.5729,-0.2694,13.6169
277.6482,-3.8094,-0.6381,-57.1589,-11.7843,-5.8638,-56.3193,-276.1530,82.6223,-118.6340,1434,1565,1.0000,-0.0448,-0.6028,9.8559,-11.8584,-0.1495,13.9383,-0.0059,-0.4065,9.8804,-11.7103,-0.0404,13.8535
277.6666,-4.0173,-0.5941,-56.8965,-11.0897,-6.6681,-42.4194,-340.1106,86.8206,-138.6413,1423,1576,1.0000,0.0366,-0.6722,10.0810,-11.2935,0.4612,14.2284,-0.0706,-0.6675,9.6912,-10.8858,0.5932,14.4108
277.6850,-4.2308,-0.5117,-56.6306,-10.1622,-7.1922,-28.5368,-404.6629,91.1329,-158.8721,1412,1587,1.0000,-0.1525,-0.8039,9.8512,-10.3545,0.7131,14.4727,-0.2549,-0.7201,9.6553,-9.9698,0.1047,14.5787
277.7034,-4.4612,-0.4308,-56.3610,-9.9981,-7.6131,-22.8885,-447.4466,95.7858,-173.1780,1404,1595,1.0000,-0.1812,-0.9284,9.7650,-9.9805,0.2246,14.5566,-0.1879,-0.8758,9.6649,-10.0156,0.0131,14.8153
277.7218,-4.7199,-0.3875,-56.0920,-9.6278,-7.9153,-16.3949,-495.9173,101.0065,-189.3601,1395,1604,1.0000,-0.0376,-1.1247,9.7386,-9.8507,0.0337,14.5643,-0.0849,-1.1056,9.6697,-9.4049,-0.3686,14.5787
277.7402,-5.0073,-0.3728,-55.8268,-9.5782,-8.1647,-13.5681,-537.1426,106.8059,-203.8029,1387,1612,1.0000,0.1420,-1.3378,9.8559,-9.0492,0.3773,14.4192,0.0036,-1.2109,9.7176,-10.1072,0.3947,14.4642
277.7586,-5.2267,-0.3201,-55.5705,-7.0897,-8.0035,8.7565,-626.6797,111.2448,-231.0927,1372,1627,1.0000,-0.0831,-1.2660,9.8224,-7.3469,0.2475,13.9994,-0.1089,-1.3211,9.7846,-6.8324,-0.5518,13.8077
277.7770,-5.4291,-0.2920,-55.3264,-6.2729,-7.7439,14.1016,-665.3693,115.3473,-243.9771,1365,1634,1.0000,0.0414,-1.2995,9.8200,-6.4690,0.0795,13.3582,-0.1400,-1.2373,9.7104,-6.0767,0.0665,13.1818
277.7955,-5.6050,-0.2651,-55.0941,-4.7500,-7.2948,24.3733,-715.2054,118.9229,-259.7190,1357,1642,1.0000,0.0151,-1.3689,10.0618,-4.8507,-0.1418,12.6788,-0.1328,-1.7018,10.0025,-4.6492,-0.2923,12.5100
277.8139,-5.7664,-0.2459,-54.8793,-3.1278,-6.6698,33.9489,-761.3597,122.2087,-274.2851,1349,1650,1.0000,0.0271,-1.4719,10.0259,-3.2858,-0.2716,11.8849,-0.1855,-1.7496,9.9785,-2.9698,-0.5518,11.3421
277.8323,-5.8889,-0.2489,-54.6648,-1.5477,-5.8827,41.5878,-797.4498,124.7160,-285.6439,1342,1657,1.0000,0.1252,-1.4384,9.9493,-1.7362,-0.1800,11.0986,-0.1304,-1.9124,10.1246,-1.3591,-0.8495,12.2886
277.8507,-6.0567,-0.2407,-54.4629,0.1737,-3.6746,36.4565,-801.9885,128.1332,-288.6234,1341,1658,1.0000,-0.0663,-1.8837,10.1456,-0.2095,-1.5159,12.0605,-0.0538,-1.6371,10.3233,0.5569,-2.4373,9.1665
277.8691,-6.1387,-0.2561,-54.3023,2.0134,-0.9173,13.3007,-744.7355,129.8342,-273.4430,1349,1650,1.0000,0.0390,-1.7329,10.6221,1.9584,-2.1800,9.0452,-0.1616,-1.6132,9.6817,2.0684,-1.4908,7.9375
277.8875,-6.0873,-0.2150,-54.1652,3.8493,0.0000,0.0000,-700.5189,128.8680,-260.5793,1356,1643,1.0000,-0.1884,-1.1774,10.2007,3.5615,-1.0502,7.7627,-0.0634,-1.6491,10.1270,4.1371,-1.2465,6.8840
277.9058,-6.0916,-0.1648,-54.0493,5.4790,0.0000,0.0000,-701.0073,129.0138,-260.7890,1356,1643,1.0000,-0.2507,-1.5294,9.6860,5.3477,-1.2945,6.4879,-0.2813,-1.1295,9.6793,5.6103,-1.2923,5.8077
277.9242,-6.0767,-0.2514,-53.9516,4.6623,0.0000,0.0000,-699.2987,128.7777,-260.1925,1356,1643,1.0000,0.2641,-1.3881,9.8919,4.3935,-2.6915,5.4192,-0.2358,-1.4240,9.6553,4.9310,-2.6740,4.5940
277.9426,-5.9903,-0.2695,-53.8755,8.0363,0.0000,0.0000,-689.3493,127.1087,-256.5722,1358,1641,1.0000,0.0534,-1.4001,10.3707,7.6302,-1.1571,4.2971,-0.0802,-1.5389,9.6074,8.4424,-1.6053,3.6245
277.9610,-5.9207,-0.2585,-53.8047,7.9790,0.0000,0.0000,-681.3405,125.7762,-253.6635,1360,1639,1.0000,-0.1094,-1.4575,10.2007,8.2867,-1.3021,3.1139,-0.0299,-1.1391,10.1629,7.6714,-1.8037,4.4031
277.9794,-5.9210,-0.2881,-53.7670,7.6050,0.0000,0.0000,-681.3696,125.8405,-253.7037,1360,1639,1.0000,0.0606,-1.7209,10.0571,7.1645,-1.6838,2.2131,0.0228,-1.6132,9.8109,8.0455,-1.6205,1.4031
277.9978,-5.8315,-0.3822,-53.7481,8.8645,0.3605,5.0765,-685.6969,124.1102,-254.0502,1360,1639,1.0000,0.3646,-1.3642,9.8535,8.5539,-1.6456,0.9460,0.0419,-1.5677,9.6745,9.1752,-1.6587,0.7161
278.0162,-5.8400,-0.4931,-53.7441,9.8493,2.3272,26.1930,-747.4857,124.3377,-271.4649,1350,1649,1.0000,0.4508,-1.9052,9.7458,9.1569,-1.6609,0.1215,0.0012,-0.9524,9.8133,10.5416,-1.7198,-0.2152
278.0346,-5.7332,-0.5093,-53.7534,10.7195,4.9845,46.0248,-792.3154,122.2601,-282.9784,1344,1655,1.0000,0.0031,-1.4360,9.8512,10.3401,-1.7754,-0.3670,0.0755,-1.3450,9.5931,11.0989,-1.7121,-1.1770
278.0530,-5.5152,-0.4892,-53.7772,12.8378,6.5638,60.2820,-808.2794,117.9542,-285.2953,1343,1656,1.0000,-0.1429,-1.0457,9.7985,12.5233,-1.5006,-1.2907,0.0108,-1.9747,9.5117,13.1523,-1.3228,-1.6732
278.0714,-5.4430,-0.4483,-53.8177,14.3149,7.7265,63.2826,-808.6197,116.5660,-284.6965,1343,1656,1.0000,-0.2363,-1.7999,9.4848,13.5539,-1.5235,-2.0235,-0.3866,-1.3857,9.4207,15.0760,-1.1778,-2.9175
278.0898,-5.3033,-0.4874,-53.8722,15.5363,8.8980,63.7000,-793.7416,113.8247,-279.1600,1346,1653,1.0000,0.1085,-1.6467,9.9134,15.1416,-1.6075,-2.7792,-0.3268,-1.4121,9.5021,15.9310,-1.5824,-3.6732
278.1082,-4.9514,-0.4495,-53.9416,19.2882,10.4565,84.7197,-813.7767,106.8359,-281.2754,1345,1654,1.0000,-0.2842,-0.9188,9.9757,18.7752,-1.5235,-3.6495,0.0132,-1.8526,9.6912,19.8012,-2.0404,-4.3831
278.1266,-4.7293,-0.5051,-54.0281,20.7500,12.0005,83.9442,-785.9794,102.4406,-271.2945,1350,1649,1.0000,0.1635,-1.5509,9.4465,19.9813,-1.4548,-4.4892,0.0156,-1.1631,9.5069,21.5187,-1.7579,-5.4518
278.1450,-4.4192,-0.5199,-54.1295,22.4142,13.5626,84.5903,-752.1503,96.2825,-258.7433,1357,1642,1.0000,0.0989,-1.2947,9.8033,21.9890,-1.0884,-5.0769,0.0084,-1.3929,9.4734,22.8394,0.7535,-6.2228
278.1634,-4.0622,-0.5726,-54.2455,24.0859,15.1411,85.7638,-714.4525,89.1843,-244.6388,1365,1634,1.0000,0.1707,-1.1559,9.7410,23.8287,-1.0655,-6.2449,0.2095,-1.1822,9.2722,24.3432,-1.8724,-6.7953
278.1819,-3.7257,-0.6114,-54.3733,24.2348,16.5051,74.0347,-641.9409,82.4903,-220.9886,1378,1621,1.0000,0.1156,-1.2133,9.7195,23.8134,-1.6838,-6.7411,-0.0514,-0.6603,9.2387,24.6561,-1.2083,-7.6045
278.2003,-3.2704,-0.6510,-54.5120,23.6584,17.5781,58.1794,-543.8817,73.4168,-188.9953,1396,1603,1.0000,0.1683,-0.5477,9.8368,23.7523,-1.0044,-7.2907,-0.0826,-1.0122,9.4255,23.5645,-1.0556,-8.0396
278.2194,-2.8969,-0.6932,-54.6632,24.1508,18.5640,51.6567,-482.1156,65.9758,-167.9803,1407,1592,1.0000,0.0893,-0.9260,9.3915,23.7829,-0.9815,-7.7182,0.4250,-0.4879,9.5260,24.5187,-3.1091,-8.6121
278.2380,-2.4887,-0.7250,-54.8044,23.5058,19.3053,39.8512,-401.1465,57.8374,-141.2397,1422,1577,1.0000,0.2114,-0.6459,9.8320,23.7752,-0.5693,-8.0082,0.1066,-0.3849,9.4853,23.2363,-0.0098,-7.2381
278.2576,-2.0381,-0.7090,-54.9750,22.2310,19.7441,22.3426,-298.8669,48.8453,-108.1054,1440,1559,1.0000,-0.0017,-0.3801,10.0355,22.3172,0.0261,-8.4892,-0.0562,-0.4448,9.6074,22.1447,-0.8037,-9.0625
278.2761,-1.6371,-0.6279,-55.1379,21.8645,20.0622,17.2571,-198.4043,40.8431,-75.9748,1458,1541,1.0000,-0.2890,-0.3634,9.5423,23.0882,0.0414,-8.7029,0.0276,-0.4759,9.7343,20.6409,-0.3534,-9.1541
278.2945,-1.3224,-0.5188,-55.3024,19.4638,19.9724,-4.8664,-115.1316,34.5625,-49.5181,1472,1527,1.0000,-0.4207,-0.4831,9.4968,19.2561,-0.1800,-8.8556,0.0611,-0.0809,9.3082,19.6714,0.0512,-9.1618
278.3131,-1.0383,-0.4766,-55.4675,17.6775,19.6282,-18.5621,-55.0173,28.8905,-29.8501,1483,1516,1.0000,-0.1190,-0.4424,9.5279,19.1874,-0.3174,-8.9243,0.0826,-0.0498,10.1677,16.1676,0.4558,-8.9862
278.3315,-0.7551,-0.4660,-55.6324,14.1355,18.8043,-44.6454,34.7426,23.2333,-1.8887,1498,1501,1.0000,0.0486,-0.0809,9.6620,14.4546,0.2169,-8.8327,0.0084,-0.0713,9.9809,13.8165,0.4405,-9.0854
278.3499,-0.5156,-0.4621,-55.7957,11.5516,17.7164,-59.0775,92.3460,10.3169,20.6984,1511,1488,1.0000,0.0223,-0.0114,9.5064,12.0424,-0.3250,-8.9319,0.0898,-0.1503,10.2419,11.0607,-0.3839,-8.8106
278.3683,-0.3279,-0.4841,-55.9558,9.1623,16.4333,-69.6853,135.8008,6.5616,34.7434,1519,1480,1.0000,0.1492,-0.0042,9.4178,9.0958,-0.6151,-8.7029,0.1856,-0.0162,10.1461,9.2287,0.2115,-8.6961
278.3870,-0.2216,-0.5141,-56.1112,3.5935,14.5073,-103.1746,226.3743,4.4332,61.1682,1533,1466,1.0000,0.1827,0.1083,9.4681,4.2332,-0.1037,-8.3670,0.3604,0.1490,10.1677,2.9539,-0.5137,-8.2534
278.4057,-0.1690,-0.5725,-56.2620,1.0592,12.4901,-107.9255,242.8163,3.3816,66.2978,1536,1463,1.0000,0.3886,0.0963,9.6668,1.7600,-0.0044,-8.2220,0.4107,0.1849,10.1892,0.3584,1.0665,-7.8488
278.4241,-0.1471,-0.6609,-56.4013,-2.7881,10.1984,-124.6851,285.1365,2.9439,78.3663,1543,1456,1.0000,0.5059,0.2974,9.7243,-2.0874,0.2398,-7.6113,0.5519,0.2471,10.1318,-3.4889,-0.2465,-7.4671
278.4425,-0.1637,-0.7495,-56.5322,-6.0324,7.7637,-132.3867,302.0264,3.2765,82.9291,1545,1454,1.0000,0.5274,0.3908,9.5255,-5.3316,-0.0273,-7.1762,0.7291,0.3022,9.8540,-6.7332,0.6161,-6.9251
278.4608,-0.2107,-0.8199,-56.6555,-8.5706,4.6064,-115.5889,257.2047,4.2171,38.6670,1521,1478,0.5531,0.4891,0.4818,9.9302,-7.8126,0.5147,-6.7869,0.5567,0.3118,9.8852,-9.3286,0.1276,-6.4442
278.4792,-0.3159,-0.9393,-56.7712,-11.4637,0.0000,-0.0000,-30.2876,6.3203,-0.0000,1500,1500,0.0000,0.7238,0.4339,9.5854,-10.7668,0.1024,-6.4052,0.6501,0.3477,10.0144,-12.1606,1.0054,-5.9938
278.4977,-0.4963,-0.9813,-56.8785,-14.2919,0.0000,-0.0000,-47.5881,9.9304,-0.0000,1500,1500,0.0000,0.4365,0.3142,9.6716,-13.6752,1.1482,-5.8403,0.3915,0.2591,9.7487,-14.9087,0.9215,-5.6503
278.5161,-0.7390,-0.9598,-56.9984,-16.9026,0.0000,-0.0000,-70.8596,14.7866,-0.0000,1500,1500,0.0000,0.3359,0.2208,10.1863,-16.6065,3.6368,-7.3976,0.5759,0.6254,10.3760,-17.1988,2.4940,-5.3221
278.5348,-1.0507,-0.9842,-57.0946,-15.7690,-1.8540,-45.9173,11.3381,21.0246,-0.0139,1499,1500,0.0019,0.1946,-0.2197,10.5096,-15.6446,-0.4701,-5.3747,-0.3028,-0.6483,10.1342,-15.8935,-1.9030,-4.9938
278.5546,-1.3369,-1.0067,-57.1976,-16.0629,-6.1083,-88.7266,101.6958,26.7620,15.0938,1508,1491,1.0000,0.1970,-0.0641,9.6237,-14.0568,-1.5769,-5.3747,0.1688,-0.0641,10.3520,-18.0690,0.4405,-5.0167
278.5739,-1.6464,-1.0003,-57.2943,-17.2271,-7.7761,-86.0474,58.3630,32.9688,-0.1428,1499,1500,1.0000,0.1970,-0.1264,9.8751,-17.2019,0.5528,-5.1838,-0.0083,-0.3466,9.8923,-17.2523,0.8604,-4.7190
278.5928,-1.9689,-0.9653,-57.3874,-16.2996,-9.0546,-67.8247,-31.2284,39.4384,-28.4632,1484,1515,1.0000,0.1228,-0.3562,9.7219,-16.1484,0.5528,-4.9777,0.1138,-0.4400,9.7463,-16.4507,2.6085,-4.8793
278.6117,-2.2708,-0.9572,-57.4834,-15.5744,-10.0326,-51.8436,-111.9885,45.4981,-54.1058,1470,1529,1.0000,0.1611,-0.3825,9.9397,-15.6294,0.6215,-5.2144,0.1042,-0.5932,9.9187,-15.5194,0.4329,-4.9556
278.6311,-2.5920,-0.9241,-57.5827,-14.0057,-10.6286,-30.7017,-209.8390,51.9481,-84.7290,1453,1546,1.0000,0.0127,-0.6243,10.0140,-14.3316,-0.0121,-5.2449,0.0348,-0.6435,9.7607,-13.6797,0.3947,-5.0854
278.6507,-2.9199,-0.8985,-57.6901,-12.9599,-10.9783,-17.8322,-284.6400,58.5360,-108.9672,1440,1559,1.0000,0.1013,-0.7728,9.7817,-13.1408,0.6521,-5.4128,0.1377,-0.7513,9.8588,-12.7790,1.2573,-5.6503
278.6701,-3.2128,-0.9172,-57.8014,-11.5706,-11.0671,-4.5785,-356.5150,64.4258,-132.0371,1427,1572,1.0000,0.2904,-0.8135,9.8512,-11.6523,0.9040,-5.7792,0.0826,-0.8710,9.6026,-11.4889,0.8451,-5.7801
278.6889,-3.4793,-0.9064,-57.9186,-11.0515,-11.0648,0.1246,-400.7284,69.7907,-147.0993,1419,1580,1.0000,0.1827,-0.8207,9.7051,-10.9271,0.9650,-6.2449,0.0898,-0.8279,9.6194,-11.1759,1.5932,-6.2228
278.7078,-3.7616,-0.8482,-58.0480,-10.9637,-11.0496,0.8014,-435.1670,75.4748,-159.5842,1412,1587,1.0000,-0.0903,-0.9476,9.7913,-10.9576,0.9574,-6.9624,-0.1568,-0.9069,10.0192,-10.9698,0.2497,-6.7953
278.7273,-4.0332,-1.0032,-58.1926,-9.6278,-10.8363,10.9518,-495.6539,80.9468,-179.2565,1401,1598,1.0000,0.7573,-1.0936,10.3994,-9.6752,-2.7144,-7.6113,0.4705,-0.9284,9.6649,-9.5805,1.3642,-7.6121
278.7469,-4.3349,-0.8945,-58.3577,-9.7576,-10.6745,8.2523,-522.5986,87.0239,-189.8396,1395,1604,1.0000,-0.2411,-1.1630,9.5543,-9.8584,1.7208,-8.1609,-0.2071,-1.0146,9.4327,-9.6568,0.8069,-8.8259
278.7664,-4.5929,-0.9269,-58.5327,-8.5858,-10.3612,16.1011,-574.8910,92.2292,-207.0841,1386,1613,1.0000,0.2976,-1.1966,10.0427,-8.8584,0.3315,-8.8861,0.2862,-0.7106,10.1725,-8.3133,1.0054,-9.2915
278.7854,-4.7708,-0.7443,-58.7235,-6.7919,-9.8258,28.1100,-629.9562,95.8359,-224.3057,1376,1623,1.0000,-0.4159,-0.9739,9.3867,-7.1713,4.1406,-9.8098,-0.6955,-1.1343,9.6553,-6.4126,2.6772,-9.8259
278.8042,-4.8947,-0.8730,-58.9209,-4.7843,-9.0696,40.2091,-679.0580,98.3624,-239.3174,1368,1631,1.0000,0.6855,-1.0122,10.0403,-4.8889,-1.9052,-10.4892,-0.3076,-0.8734,9.3680,-4.6797,2.4711,-10.6656
278.8236,-5.1761,-0.9278,-59.1429,-4.4790,-8.3810,35.4896,-697.8500,104.0419,-247.4189,1363,1636,1.0000,0.4987,-1.5150,8.5559,-5.7057,4.2856,-11.3518,-0.4584,-1.2660,8.8341,-3.2523,1.2268,-11.5129
278.8432,-5.2522,-0.8784,-59.3834,-3.5019,-7.6491,37.3292,-711.9121,105.6174,-252.1441,1361,1638,1.0000,-0.0663,-0.9500,9.9062,-3.0568,0.1940,-12.2983,-0.4896,-0.9141,9.8157,-3.9469,1.7077,-12.2076
278.8627,-5.3519,-0.8381,-59.6368,-0.8377,-6.6274,52.5347,-767.1707,107.6636,-268.6396,1352,1647,1.0000,0.0247,-1.3163,9.9780,-2.3851,1.8429,-12.7029,-0.1376,-0.8542,9.1717,0.7096,1.6924,-13.3221
278.8817,-5.3568,-0.7471,-59.8984,-0.0973,-5.4328,49.5980,-759.2832,107.8162,-266.5074,1353,1646,1.0000,-0.2339,-0.8973,9.1999,0.6378,1.3696,-13.6037,-0.0395,-0.7225,9.8684,-0.8324,1.7459,-13.8182
278.9005,-5.3205,-0.6916,-60.1753,-1.1126,-3.6076,26.2204,-687.7767,107.1432,-246.1491,1364,1635,1.0000,-0.0831,-0.6555,9.6453,-1.5912,1.5452,-14.4205,-0.2645,-0.8925,9.4398,-0.6339,2.0360,-14.7266
278.9199,-5.2749,-0.7530,-60.4658,2.2119,-0.8252,11.7720,-640.9151,106.2836,-232.5980,1372,1627,1.0000,0.4293,-0.9643,10.3300,2.1264,0.7971,-14.5044,0.5064,-0.9619,9.6529,2.2974,2.4940,-15.3602
278.9395,-5.2377,-0.6643,-60.7893,-0.2423,-0.1214,1.0144,-605.6503,105.5917,-222.3779,1377,1622,1.0000,-0.2004,-0.7058,9.3771,0.0042,2.8887,-17.1762,-0.1975,-0.7273,9.2818,-0.4889,1.2421,-15.5434
278.9590,-5.0964,-0.6733,-61.1040,-0.5591,0.0000,0.0000,-586.4741,102.8179,-215.6217,1381,1618,1.0000,0.1659,-0.2509,10.1528,-0.1561,0.9040,-16.0846,0.2646,-0.3658,9.8014,-0.9622,2.2497,-15.8946
278.9779,-5.0484,-0.6041,-61.4082,-1.7042,0.0000,0.0000,-580.9463,101.9078,-213.6189,1382,1617,1.0000,-0.1836,-0.5070,9.3412,-1.7897,2.0414,-15.5960,0.1162,-0.1383,10.4454,-1.6187,1.0207,-16.3908
278.9966,-4.9709,-0.6058,-61.7104,-1.5553,0.0000,0.0000,-572.0255,100.4073,-210.3708,1384,1615,1.0000,0.1013,-0.3873,9.7362,-0.9423,0.6139,-16.1609,0.3221,-0.5310,9.8708,-2.1683,2.1581,-15.9480
279.0159,-4.8868,-0.5873,-62.0311,-1.8835,0.0000,0.0000,-562.3529,98.7752,-206.8464,1386,1613,1.0000,0.1061,-0.3251,9.6117,-1.1255,2.7208,-16.2525,-0.3579,-0.3490,10.4358,-2.6416,1.9138,-16.6045
279.0355,-4.8894,-0.5582,-62.3509,-2.5400,0.0000,-0.0000,-562.6491,98.8756,-206.9795,1386,1613,1.0000,-0.1549,-0.6459,9.7458,-2.8431,-0.3021,-16.3365,-0.0754,-0.4113,9.6697,-2.2370,0.1123,-16.3908
279.0551,-4.9006,-0.5153,-62.6678,-1.7500,0.0000,0.0000,-563.9308,99.1473,-207.4743,1385,1614,1.0000,-0.0543,-0.7680,10.0235,-1.8202,2.6292,-16.3289,-0.3148,-0.7082,9.7798,-1.6797,0.9291,-15.9938
279.0740,-4.8670,-0.4867,-62.9751,-2.2919,0.0000,0.0000,-560.0679,98.5247,-206.0814,1386,1613,1.0000,-0.0520,-0.4951,9.5854,-2.6981,-0.0655,-16.3976,0.1210,-0.3251,10.4167,-1.8858,2.6772,-15.9556
