timestamp,roll_deg,pitch_deg,yaw_deg,omega_raw,omega_filtered,alpha,tau_ff,tau_pid,tau_total,pwm_left,pwm_right,deadzone_factor,accel1_x,accel1_y,accel1_z,gyro1_x,gyro1_y,gyro1_z,accel2_x,accel2_y,accel2_z,gyro2_x,gyro2_y,gyro2_z
453.5475,-2.4663,-0.9315,-68.4047,-3.5820,0.0000,-0.0000,-283.7951,53.2565,-87.4572,1451,1548,0.8244,0.0510,-0.4903,9.8105,-3.6752,-0.1037,5.9994,0.0970,-0.5980,9.8923,-3.4889,-0.3839,5.9146
453.5668,-2.5912,-0.9278,-68.2935,-3.2538,0.0000,-0.0000,-298.1689,55.7806,-99.3190,1445,1554,0.8917,0.1396,-0.6866,9.7458,-3.3087,-0.1647,5.7704,0.1449,-0.6579,9.8325,-3.1988,-0.4068,5.6245
453.5864,-2.6871,-0.9280,-68.1874,-2.1622,0.0000,-0.0000,-309.2074,57.7260,-107.8487,1440,1559,0.9342,0.1851,-0.6794,9.9038,-2.3774,-0.0044,5.5185,0.3364,-0.6722,9.7367,-1.9469,0.1123,5.2734
453.6051,-2.7409,-0.9061,-68.0911,-0.7690,0.0000,0.0000,-315.3991,58.8295,-112.3114,1438,1561,0.9540,0.0845,-0.6315,9.7410,-0.8889,0.1788,5.3200,0.0419,-0.6244,9.7439,-0.6492,-0.0327,4.9756
453.6235,-2.7553,-0.8821,-68.0000,0.2958,0.0000,0.0000,-317.0547,59.1448,-113.4664,1437,1562,0.9588,0.0414,-0.5621,9.9302,0.2256,-0.4395,4.9536,-0.0586,-0.6148,10.0264,0.3661,-0.1931,4.8688
453.6422,-2.7229,-0.8765,-67.9124,1.5019,0.0000,0.0000,-313.3206,58.5231,-110.8742,1439,1560,0.9477,0.1276,-0.4448,9.7697,1.2409,-0.2182,4.7551,0.1736,-0.5406,9.8014,1.7630,-0.1473,4.6627
453.6606,-2.6916,-0.8729,-67.8254,3.3035,0.0000,0.0000,-309.7292,57.9258,-108.2850,1440,1559,0.9360,0.1300,-0.6076,9.8703,2.9966,-0.2640,4.7246,0.0156,-0.5645,9.7631,3.6103,-0.3305,4.6245
453.6790,-2.6200,-0.8704,-67.7452,4.0592,0.0000,0.0000,-301.4899,56.5200,-102.0221,1443,1556,0.9054,0.1228,-0.4783,9.9445,3.9355,-0.3021,4.3811,0.0348,-0.4568,9.8923,4.1829,-0.5060,4.3115
453.6975,-2.5282,-0.8651,-67.6691,5.1508,0.0000,0.0000,-290.9185,54.7080,-93.5009,1448,1551,0.8593,0.1228,-0.4663,9.8942,4.7065,-0.1953,4.2513,-0.0802,-0.5549,9.6314,5.5951,-0.3152,3.9985
453.7159,-2.4286,-0.8482,-67.5949,5.9943,0.0000,0.0000,-279.4560,52.7400,-83.8767,1453,1546,0.8017,0.0845,-0.4855,9.9038,5.9203,0.1101,4.0986,-0.0730,-0.4113,9.6960,6.0684,-0.1625,3.9527
453.7343,-2.3133,-0.8333,-67.5251,6.2386,0.0000,0.0000,-266.1932,50.4581,-72.5571,1460,1539,0.7273,0.0390,-0.4089,9.8009,6.2409,-0.5006,3.9841,0.1281,-0.4041,9.7343,6.2363,-0.6129,3.6016
453.7527,-2.2026,-0.8673,-67.4563,6.2348,0.0000,0.0000,-253.4584,48.2667,-61.8067,1466,1533,0.6499,0.2952,-0.4089,9.7530,6.1493,-0.3632,3.9994,-0.0730,-0.3993,9.6864,6.3203,-0.2083,3.4795
453.7712,-2.1091,-0.8661,-67.3889,6.4600,0.2626,2.1199,-248.8013,46.4173,-54.0066,1470,1529,0.5815,0.1516,-0.4927,9.7674,6.4852,0.1711,3.8391,0.1042,-0.3514,9.7702,6.4348,-0.2160,3.4566
453.7896,-2.0091,-0.8493,-67.3213,6.2081,0.8590,4.8422,-245.1343,44.4374,-46.0492,1474,1525,0.5068,0.0510,-0.4232,9.7697,6.1798,-0.2258,3.7933,0.0970,-0.3586,9.7008,6.2363,-0.4373,3.5253
453.8080,-1.9077,-0.8338,-67.2564,5.9790,1.5247,6.0859,-237.0421,42.4275,-37.7446,1479,1520,0.4309,0.0606,-0.3777,9.7027,5.9890,-0.1724,3.6406,0.0970,-0.3203,9.7152,5.9691,-0.3228,3.3879
453.8265,-1.8000,-0.8475,-67.1959,6.5287,2.4331,10.0020,-235.9349,40.2928,-30.3471,1483,1516,0.3520,0.2066,-0.3730,9.8081,7.4852,-0.1266,3.5643,0.1497,-0.5214,9.6864,5.5722,-0.1015,3.0138
453.8449,-1.7308,-0.8504,-67.1361,4.9180,2.5828,1.6064,-203.7843,38.9246,-23.1822,1487,1512,0.3029,0.1611,-0.3993,9.7051,4.8745,-0.1495,3.5566,0.0659,-0.3802,9.6888,4.9615,-0.0098,2.9527
453.8633,-1.6767,-0.8395,-67.0783,4.4981,2.5313,-0.5411,-191.3748,37.8595,-19.2852,1489,1510,0.2659,0.0989,-0.4208,9.6716,4.6149,0.0414,3.2589,0.0539,-0.3442,9.6170,4.3813,-0.1091,2.9909
453.8816,-1.6286,-0.8388,-67.0225,3.6928,2.1528,-3.5707,-177.1195,36.9147,-15.9417,1491,1508,0.2343,0.1731,-0.3682,9.6764,3.8821,0.2017,3.1750,0.0946,-0.4424,9.6577,3.5035,0.3871,2.8993
453.9002,-1.6115,-0.8150,-66.9515,3.2157,1.6654,-3.9236,-174.1316,36.5881,-14.9703,1491,1508,0.2233,0.0773,-0.4615,9.6045,3.2943,0.3849,3.0452,-0.0466,-0.4209,9.6984,3.1371,0.3947,4.4642
453.9188,-1.6054,-0.7923,-66.9002,2.5668,1.0793,-3.7184,-174.0248,36.4829,-14.6940,1491,1508,0.2194,0.0989,-0.4496,9.5040,2.7447,0.7284,2.9612,0.0970,-0.4448,9.6697,2.3890,0.6848,2.5787
453.9372,-1.6296,-0.7634,-66.8532,1.8493,0.5028,-2.4002,-180.6007,36.9823,-16.2207,1491,1508,0.2349,0.0797,-0.5334,9.6572,1.9050,0.7208,2.5872,0.1760,-0.5717,9.7271,1.7935,1.0207,2.4718
453.9556,-1.6716,-0.7073,-66.8145,2.5287,0.2805,-0.7569,-190.1741,37.8403,-18.9498,1489,1510,0.2626,-0.0400,-0.6842,9.6620,1.5997,1.0795,2.2437,-0.0897,-0.6914,9.6888,3.4577,0.8833,1.8993
453.9741,-1.7477,-0.6514,-66.7839,1.3722,0.0399,-0.2172,-200.4848,39.3797,-23.8706,1486,1513,0.3148,-0.0496,-0.7536,9.7721,1.3630,0.8734,1.9383,-0.2358,-0.7345,9.8014,1.3813,0.9902,1.3726
453.9926,-1.9563,-0.5878,-66.7683,-0.0248,0.0000,-0.0000,-225.1115,43.5708,-39.6303,1478,1521,0.4672,-0.0879,-1.2540,9.6740,-0.1866,1.1177,1.0605,-0.1400,-1.2612,9.7487,0.1371,1.0360,0.5024
454.0111,-2.1813,-0.5170,-66.7700,1.6508,0.0000,-0.0000,-251.0002,48.0922,-59.8472,1467,1532,0.6345,-0.1190,-1.5629,9.9062,1.0119,1.2322,0.0452,-0.2334,-1.2732,9.5212,2.2897,1.3413,-0.3908
454.0295,-2.2794,-0.4256,-66.7849,2.3416,0.0000,-0.0000,-262.2871,50.0766,-69.3362,1461,1538,0.7041,-0.2435,-1.0266,9.7386,2.7600,1.2398,-0.6189,-0.1663,-0.8159,9.8253,1.9233,1.0283,-1.0015
454.0479,-2.3689,-0.3370,-66.8122,1.0935,0.0000,-0.0000,-272.5859,51.8903,-78.1439,1457,1542,0.7641,-0.2722,-0.8997,9.7961,1.1569,0.7666,-1.3212,-0.3459,-1.0146,9.8181,1.0302,0.8985,-1.6274
454.0664,-2.5067,-0.2286,-66.8531,1.7310,0.0000,-0.0000,-288.4487,54.6723,-91.6172,1449,1550,0.8475,-0.3536,-1.2133,9.8559,1.5539,1.3696,-1.9548,-0.2645,-1.0362,9.6433,1.9081,1.1505,-2.4366
454.0848,-2.6409,-0.1153,-66.9135,1.6203,0.0000,-0.0000,-303.8879,57.3821,-104.0917,1442,1557,0.9149,-0.4422,-1.1918,9.7674,1.7752,0.8658,-2.9472,-0.3124,-1.1319,9.7750,1.4653,0.6085,-3.5053
454.1033,-2.7408,-0.0797,-66.9861,2.7119,0.0000,0.0000,-315.3906,59.4087,-112.5825,1438,1561,0.9540,-0.0496,-1.1583,9.8009,2.3325,0.9116,-3.5121,-0.2956,-1.1439,9.6673,3.0913,1.5016,-4.1847
454.1217,-2.8087,-0.0162,-67.0786,3.7958,0.0000,0.0000,-323.1968,60.7935,-117.7845,1435,1564,0.9743,-0.2052,-1.1247,9.8871,3.8287,1.3009,-4.6037,-0.4752,-1.0697,9.8923,3.7630,0.9673,-5.2610
454.1401,-2.8795,0.0568,-67.1852,3.2997,0.0000,0.0000,-331.3521,62.2397,-122.6043,1432,1567,0.9896,-0.3297,-1.1104,9.9278,3.4852,0.4383,-5.5197,-0.4082,-1.0290,9.7750,3.1142,0.4176,-5.9785
454.1586,-2.9149,0.0892,-67.3083,4.1317,0.0000,0.0000,-335.4258,62.9768,-124.7465,1431,1568,0.9947,-0.0927,-1.0385,10.0116,3.6989,0.5910,-6.2296,-0.2621,-1.0769,9.5691,4.5645,1.5092,-6.9251
454.1770,-2.8963,0.1638,-67.4484,5.7004,0.0625,0.4513,-334.5784,62.6326,-124.0247,1431,1568,0.9922,-0.3584,-0.8997,9.7937,5.7905,1.1177,-7.2678,-0.3842,-0.8997,9.9307,5.6103,-0.1091,-7.8030
454.1955,-2.8903,0.1303,-67.6004,3.7653,0.1086,0.1377,-332.9835,62.5413,-123.4229,1432,1567,0.9913,0.1444,-0.8159,10.1600,3.9813,-0.1495,-7.9548,0.0132,-0.7872,9.8038,3.5493,1.0360,-8.4289
454.2139,-2.8933,0.2332,-67.7707,5.6966,0.4825,2.5254,-340.2096,62.6310,-125.5321,1430,1569,0.9918,-0.4997,-0.9954,9.6836,4.9890,0.9574,-8.9395,-0.5231,-0.9141,9.6745,6.4042,0.0054,-9.4137
454.2326,-2.8346,0.2622,-67.9532,5.2806,0.8812,2.8925,-334.5111,61.4852,-121.9940,1432,1567,0.9806,-0.2890,-0.6866,10.0906,5.9584,-0.8060,-9.6189,-0.2885,-0.6435,10.0599,4.6027,-0.7350,-10.0015
454.2511,-2.8424,0.2535,-68.1455,2.9256,0.6199,-1.3272,-323.2501,61.6686,-119.2014,1434,1565,0.9823,-0.0615,-0.7800,9.7889,1.7371,-0.2182,-10.1991,-0.2142,-0.8853,9.5859,4.1142,-0.1549,-10.5816
454.2695,-2.7932,0.2500,-68.3490,5.6088,1.1348,4.1849,-333.4734,60.7143,-120.0361,1433,1566,0.9701,-0.0855,-0.7560,10.0810,5.4546,-0.3327,-10.9548,-0.3579,-0.8638,9.9833,5.7630,-0.0633,-11.1007
454.2880,-2.7279,0.2573,-68.5606,3.7462,1.0410,-0.6366,-312.0716,59.4353,-111.1863,1438,1561,0.9495,-0.1860,-0.4831,9.7961,4.3401,-0.5082,-11.3212,-0.2932,-0.5046,9.9211,3.1523,-0.9259,-11.7037
454.3064,-2.7048,0.2374,-68.7787,2.3760,0.5985,-2.1117,-305.1572,58.9990,-108.1687,1440,1559,0.9411,-0.0974,-0.5525,9.9062,3.1111,-1.5846,-11.8937,-0.1903,-0.6363,9.9785,1.6409,-0.8343,-11.9556
454.3249,-2.6475,0.2469,-69.0101,4.2348,0.7165,0.7223,-306.7319,57.8806,-105.3827,1442,1557,0.9178,-0.1788,-0.5549,9.7745,4.3325,-0.3479,-12.3365,-0.3004,-0.4735,9.7200,4.1371,-0.7045,-12.6885
454.3434,-2.5731,0.2300,-69.2433,2.4714,0.4075,-1.2358,-292.5247,56.4172,-97.2042,1446,1553,0.8827,-0.1238,-0.3083,9.7674,2.9508,-1.2334,-12.5121,-0.0562,-0.3227,10.0264,1.9920,-1.3076,-12.8030
454.3619,-2.4705,0.1698,-69.4775,2.3493,0.1951,-0.5900,-282.5796,54.3902,-87.9056,1451,1548,0.8268,0.1252,-0.1575,9.6764,2.2943,-1.1342,-12.7792,-0.0682,-0.2461,9.8780,2.4042,-0.5824,-12.7724
454.3803,-2.3981,0.1817,-69.7137,1.5974,0.0256,-0.1214,-275.6011,52.9667,-81.1389,1455,1544,0.7828,-0.1310,-0.2078,9.6692,2.2561,-0.0808,-12.8556,-0.1711,-0.1910,9.8780,0.9386,0.0131,-12.8717
454.3988,-2.3640,0.2331,-69.9517,-0.6545,0.0000,-0.0000,-272.0295,52.3089,-77.8636,1457,1542,0.7610,-0.3129,-0.1838,9.6764,-0.2324,-1.0273,-12.9243,-0.2645,-0.1910,9.9522,-1.0767,0.7153,-12.8946
454.4173,-2.3830,0.2319,-70.1913,-2.1087,0.0000,-0.0000,-274.2118,52.7120,-79.7442,1456,1543,0.7732,-0.1262,-0.3083,9.8176,-1.8278,-1.0121,-13.0311,-0.2214,-0.1958,9.8947,-2.3897,-0.1702,-12.9785
454.4357,-2.3833,0.2179,-70.4293,-3.0248,0.0000,-0.0000,-274.2490,52.7423,-79.7853,1456,1543,0.7734,-0.0591,-0.1431,9.7578,-2.6294,-0.4853,-13.0540,-0.0682,-0.1240,9.8708,-3.4202,-0.4221,-12.9404
454.4541,-2.4126,0.1907,-70.6663,-5.0133,0.0000,-0.0000,-277.6192,53.3522,-82.6810,1454,1545,0.7919,-0.0113,-0.1048,9.6764,-4.4996,-0.8060,-13.0082,0.0467,-0.1455,9.9785,-5.5271,-0.4526,-12.7724
454.4726,-2.4591,0.1722,-70.9056,-6.3492,0.0000,-0.0000,-282.9657,54.3060,-87.2464,1452,1547,0.8201,-0.0017,-0.0737,9.6022,-5.8126,-0.4395,-13.0922,0.1066,-0.2173,9.7990,-6.8858,0.2497,-12.9709
454.4909,-2.5536,0.1665,-71.1415,-7.8530,0.0000,-0.0000,-293.8443,56.2222,-96.3445,1447,1552,0.8728,-0.0184,-0.1790,9.6812,-7.2935,0.4460,-12.8861,-0.1256,-0.2461,9.8852,-8.4126,0.2879,-12.8335
454.5094,-2.6909,0.1898,-71.3744,-9.2729,0.0000,-0.0000,-309.6462,58.9955,-108.7311,1440,1559,0.9357,-0.2124,-0.2700,9.6740,-8.8813,-0.4548,-12.8327,-0.0610,-0.4017,9.9259,-9.6645,-0.1625,-12.5663
454.5278,-2.8503,0.1815,-71.6108,-9.5897,-0.9192,-12.5892,-291.7243,62.2107,-110.9859,1438,1561,0.9840,-0.0496,-0.3754,9.7458,-9.5988,-0.4090,-12.9166,0.0563,-0.3083,9.8852,-9.5805,0.3337,-12.7648
454.5463,-3.0158,0.1689,-71.8497,-10.1774,-3.3358,-34.6763,-247.1684,65.5525,-101.9834,1443,1556,1.0000,-0.0136,-0.3777,9.8009,-9.8660,0.0032,-12.9243,-0.1137,-0.5166,9.8445,-10.4889,0.3031,-13.0167
454.5647,-3.1848,0.1742,-72.0914,-10.3263,-5.5276,-43.1686,-242.1517,68.9632,-102.2841,1443,1556,1.0000,-0.0855,-0.4113,9.7027,-10.0950,0.0185,-13.3289,-0.1520,-0.4137,9.6864,-10.5576,0.5779,-13.0320
454.5831,-3.3529,0.1737,-72.3366,-10.1126,-6.3565,-35.9103,-282.4079,72.3601,-115.2543,1436,1563,1.0000,-0.0807,-0.4591,9.8607,-10.0950,0.1330,-13.3899,-0.1400,-0.5094,9.7631,-10.1301,0.1428,-13.2610
454.6016,-3.4893,0.1778,-72.5816,-9.6622,-6.8523,-26.8860,-324.0858,75.1215,-128.3048,1429,1570,1.0000,-0.0855,-0.3658,9.6165,-9.3622,0.2475,-13.5350,-0.0754,-0.4999,9.7248,-9.9622,0.4482,-13.1236
454.6200,-3.6507,0.1516,-72.8278,-9.5973,-7.2641,-22.4222,-355.5232,78.3874,-138.7402,1423,1576,1.0000,0.0031,-0.5238,9.7530,-9.5072,-0.1876,-13.5426,0.1784,-0.5166,9.7248,-9.6874,-0.1167,-13.3984
454.6385,-3.7942,0.1137,-73.0929,-8.8568,-7.5030,-12.9122,-399.4163,81.2937,-152.4834,1416,1583,1.0000,0.1228,-0.5166,9.5758,-8.8889,0.0948,-13.5579,0.0922,-0.5358,9.5236,-8.8248,1.1428,-15.0396
454.6569,-3.9306,0.0958,-73.3408,-7.7996,-7.5475,-2.4173,-445.3460,84.0623,-166.7280,1408,1591,1.0000,0.0390,-0.6172,9.7554,-8.1637,0.6444,-13.5350,-0.0586,-0.5118,9.5380,-7.4355,0.5703,-13.4289
454.6753,-4.0399,0.0826,-73.5918,-7.4637,-7.5349,0.6831,-466.8525,86.2885,-173.8629,1404,1595,1.0000,0.0749,-0.5406,9.7410,-6.8202,1.0185,-13.6800,-0.0275,-0.3083,9.3345,-8.1072,1.5245,-13.5434
454.6937,-4.0857,0.0609,-73.8454,-5.5324,-7.2345,16.3204,-517.1595,87.2455,-188.4274,1396,1603,1.0000,0.0941,-0.4376,9.9469,-5.7668,1.1101,-13.8021,-0.0921,-0.4185,9.7367,-5.2981,0.9062,-13.7266
454.7124,-4.1426,0.0398,-74.1085,-4.1126,-6.7662,24.9378,-548.5186,88.4237,-197.7970,1391,1608,1.0000,0.0630,-0.6220,9.9349,-4.6294,0.4536,-14.1685,-0.0371,-0.3347,9.4351,-3.5958,0.9444,-13.8793
454.7310,-4.1565,0.0121,-74.3713,-2.0858,-6.0642,37.9138,-587.4922,88.7438,-208.8697,1385,1614,1.0000,0.1348,-0.6148,10.0092,-2.6904,0.9956,-14.2220,0.0467,-0.3323,9.5548,-1.4813,1.2650,-14.1083
454.7494,-4.1183,-0.0196,-74.6373,-1.1011,-4.6231,35.0169,-574.7583,88.0219,-204.9433,1387,1612,1.0000,0.1132,-0.4448,9.8583,-1.1484,0.6292,-14.3747,0.0994,-0.3418,9.6457,-1.0538,0.6848,-14.4289
454.7679,-4.0500,-0.0549,-74.9052,0.5096,-2.1012,22.3530,-530.4190,86.6951,-191.8649,1394,1605,1.0000,0.1611,-0.4496,10.0666,-0.0950,0.8353,-14.4739,0.0826,-0.2676,9.6960,1.1142,0.9520,-14.4824
454.7864,-3.9523,-0.1077,-75.1708,2.5248,-0.1650,2.7537,-462.7371,84.7819,-171.9574,1405,1594,1.0000,0.2354,-0.4568,9.6668,2.3554,0.8582,-14.4586,0.1593,-0.1719,9.6098,2.6943,0.7459,-14.3526
454.8050,-3.7710,-0.1625,-75.4410,4.0935,0.0000,0.0000,-433.9367,81.1927,-162.0986,1410,1589,1.0000,0.2425,-0.1958,9.9661,4.0882,0.2704,-14.5808,0.1018,-0.2293,9.7463,4.0989,0.8451,-14.4747
454.8234,-3.6138,-0.1491,-75.7087,4.0706,0.0000,0.0000,-415.8471,78.0850,-155.4797,1414,1585,1.0000,-0.0998,-0.2676,9.6836,3.6455,0.7131,-14.3518,0.3149,-0.1383,9.7678,4.4958,-0.1778,-14.7037
454.8419,-3.3928,-0.1907,-75.9748,5.6775,0.0000,0.0000,-390.4174,73.6993,-146.1665,1419,1580,1.0000,0.2066,-0.0785,9.8033,5.7600,0.2475,-14.4434,0.4873,-0.1503,9.9019,5.5951,1.3184,-14.3831
454.8603,-3.2392,-0.2684,-76.2394,4.2844,0.0000,0.0000,-372.7384,70.6592,-139.6963,1423,1576,1.0000,0.3598,-0.2389,9.6476,4.5462,0.7284,-14.3365,0.2024,0.0005,9.8492,4.0226,0.2344,-14.2992
454.8788,-3.0554,-0.3071,-76.4990,4.8416,0.0000,0.0000,-351.5943,67.0149,-131.9539,1427,1572,1.0000,0.1779,-0.1192,9.8392,4.7447,-0.0884,-13.9395,0.1784,-0.2485,9.7080,4.9386,0.4787,-14.1847
454.8972,-2.8610,-0.3344,-76.7576,4.1317,0.0000,0.0000,-329.2175,63.1545,-122.0478,1432,1567,0.9862,0.1803,0.0245,9.8200,4.6913,0.8353,-14.0006,0.1042,0.0029,10.1126,3.5722,0.5856,-13.9862
454.9157,-2.7509,-0.3546,-77.0128,1.8455,0.0000,0.0000,-316.5501,60.9804,-114.0413,1437,1562,0.9573,0.0414,-0.1479,9.8966,2.0500,-0.4472,-13.9853,0.1976,0.1083,9.7702,1.6409,-0.6816,-13.8106
454.9341,-2.6238,-0.3948,-77.2598,1.4867,0.0000,-0.0000,-301.9238,58.4646,-103.2097,1443,1556,0.9072,0.1994,-0.0138,9.8296,1.4470,-0.1876,-13.5731,0.2742,-0.0019,9.7726,1.5264,0.3108,-13.2534
454.9525,-2.5120,-0.4154,-77.4989,1.2424,0.0000,-0.0000,-289.0533,56.2528,-92.7486,1448,1551,0.8504,0.1013,-0.0450,10.0786,1.3783,0.0032,-12.9701,0.1641,0.0963,9.7870,1.1065,-0.3152,-13.0473
454.9709,-2.3975,-0.4683,-77.7321,0.8378,0.0000,-0.0000,-275.8758,53.9865,-81.5555,1455,1544,0.7824,0.2808,0.0221,9.9278,0.1264,-0.1495,-12.7563,0.0946,-0.0426,10.0456,1.5493,0.2039,-12.5434
454.9893,-2.3354,-0.4930,-77.9581,-0.9370,0.0000,-0.0000,-268.7300,52.7679,-75.4171,1458,1541,0.7421,0.1228,-0.0497,10.0523,-0.7897,-0.3327,-12.4663,0.0539,-0.0976,9.9714,-1.0843,-0.4373,-12.0778
455.0077,-2.2577,-0.5310,-78.1766,-2.0553,0.0000,-0.0000,-259.7971,51.2379,-67.7730,1462,1537,0.6890,0.1755,0.1346,9.8942,-1.5988,-0.7449,-12.0006,0.1664,-0.0067,10.1749,-2.5118,-0.3610,-11.7037
455.0262,-2.2420,-0.5655,-78.3872,-3.4752,0.0000,-0.0000,-257.9909,50.9464,-66.2457,1463,1536,0.6780,0.1803,-0.0258,9.9709,-3.4919,-0.6685,-11.6495,0.1186,-0.0234,9.9426,-3.4584,-0.2160,-11.2228
455.0446,-2.2442,-0.5714,-78.5915,-3.8950,0.0000,-0.0000,-258.2441,51.0129,-66.4682,1463,1536,0.6795,0.0725,-0.0689,9.8727,-3.4309,-0.2869,-11.2373,0.0683,-0.0378,10.0863,-4.3591,-0.0785,-10.9404
455.0630,-2.2637,-0.5756,-78.7893,-5.5477,0.0000,-0.0000,-260.4852,51.4250,-68.3826,1462,1537,0.6932,0.0103,-0.0090,10.0140,-5.2782,-1.0121,-11.0082,-0.0802,-0.0474,10.0288,-5.8171,-0.6816,-10.4976
455.0814,-2.3255,-0.6029,-78.9787,-5.5095,0.0000,-0.0000,-267.5909,52.6832,-74.4792,1459,1540,0.7355,0.1372,-0.2173,9.9876,-5.3622,-0.9052,-10.4281,0.1138,-0.1647,9.9139,-5.6568,-0.3915,-10.1770
455.0999,-2.3966,-0.6395,-79.1650,-5.8339,0.0000,-0.0000,-275.7820,54.1308,-81.5377,1455,1544,0.7819,0.1420,-0.2461,10.0331,-5.7133,-1.0044,-10.3212,0.1808,-0.1216,9.9330,-5.9545,-1.2770,-9.9022
455.1184,-2.4799,-0.6773,-79.3476,-5.9752,-0.0036,-0.0331,-285.2691,55.8211,-89.7101,1450,1549,0.8323,0.1707,-0.2987,9.8559,-6.0492,-1.0044,-9.9395,0.1880,-0.1719,9.8038,-5.9011,-0.8114,-9.9022
455.1368,-2.5472,-0.6921,-79.5263,-5.3645,-0.1701,-0.9368,-290.4055,57.1916,-95.5571,1447,1552,0.8694,0.1252,-0.2892,9.8176,-5.3469,-1.3174,-9.7029,0.0850,-0.2604,9.8876,-5.3820,0.7382,-9.7190
455.1553,-2.5956,-0.7388,-79.7027,-4.2309,-0.2911,-0.5533,-297.0839,58.1863,-100.3618,1444,1555,0.8939,0.2306,-0.3107,9.7961,-4.6217,-0.9281,-9.7869,0.2718,-0.2341,9.6793,-3.8400,-0.6282,-9.4137
455.1741,-2.6263,-0.7698,-79.8792,-3.4332,-0.2753,0.0601,-302.3851,58.8269,-103.6219,1443,1556,0.9083,0.1611,-0.3011,9.7554,-3.5606,-0.6151,-9.4434,0.1976,-0.2054,9.5979,-3.3057,-0.9793,-9.3602
455.1938,-2.6280,-0.8237,-80.0604,-2.3377,-0.1179,0.3161,-303.3180,58.8872,-103.9750,1442,1557,0.9091,0.2545,-0.2700,9.8081,-2.4538,-1.0350,-9.3823,0.3005,-0.1623,9.6050,-2.2217,-0.6969,-9.0396
455.2132,-2.5581,-0.8722,-80.2386,-1.2118,-0.0004,0.0021,-294.3715,57.5150,-97.2985,1446,1553,0.8751,0.2808,-0.0473,9.8559,-1.2706,-0.5540,-9.2754,0.3077,-0.0785,9.8014,-1.1530,-0.3839,-9.1007
455.2320,-2.4898,-0.9118,-80.4108,-0.0820,0.0000,0.0000,-286.5077,56.1742,-90.7631,1450,1549,0.8380,0.2569,-0.1359,9.8679,-0.5072,-0.3861,-9.1227,0.0898,0.0221,9.6864,0.3432,-0.6282,-9.1694
455.2510,-2.3589,-0.9354,-80.6040,0.7195,0.0000,0.0000,-271.4417,53.5793,-77.8793,1457,1542,0.7576,0.1516,0.0891,9.7482,0.8134,-0.9128,-9.1227,0.1928,-0.0282,9.6529,0.6256,-0.7732,-11.0320
455.2705,-2.2068,-0.9943,-80.7767,0.9905,0.0000,0.0000,-253.9313,50.5580,-62.9220,1465,1534,0.6529,0.2808,0.1705,9.8176,0.9661,-1.4472,-8.7411,0.2071,0.0532,9.7463,1.0149,-1.1244,-8.8793
455.2901,-2.1075,-1.0358,-80.9484,1.4409,0.0000,0.0000,-242.5148,48.5949,-53.5086,1470,1529,0.5803,0.2258,-0.0785,9.6860,1.5462,-1.1266,-8.8021,0.2048,-0.0952,9.6050,1.3355,-1.0938,-8.7190
455.3095,-2.0169,-1.0913,-81.1136,1.3187,0.0000,0.0000,-232.0835,46.8020,-45.3117,1475,1524,0.5127,0.2928,-0.0857,9.7314,1.3096,-1.2945,-8.5960,0.3676,-0.0426,9.6529,1.3279,-1.0556,-8.4824
455.3282,-1.9455,-1.1745,-81.2682,1.1584,0.0000,0.0000,-223.8645,45.3930,-39.2007,1478,1521,0.4591,0.4652,-0.1311,9.7219,1.2485,-1.0808,-8.3670,0.3723,-0.0402,9.4949,1.0684,-0.7121,-8.1541
455.3472,-1.8781,-1.2152,-81.4185,0.6852,0.0000,0.0000,-216.1077,44.0636,-33.7594,1481,1518,0.4090,0.3886,-0.1000,9.5638,0.6073,1.1864,-8.0693,0.3436,-0.0881,9.6649,0.7630,-0.2847,-7.6274
455.3668,-1.8133,-1.2294,-81.5670,0.5019,0.0000,0.0000,-208.6595,42.7872,-28.8642,1484,1515,0.3616,0.2186,-0.0904,9.5734,0.5386,-0.2563,-7.6342,0.3340,-0.1766,9.6721,0.4653,-0.2847,-7.4824
455.3863,-1.7740,-1.2507,-81.7272,0.0019,0.0000,0.0000,-204.1341,42.0184,-26.0598,1485,1514,0.3334,0.2617,-0.1503,9.6429,0.2027,-0.3708,-7.1533,0.3077,-0.1407,9.6888,-0.1988,0.0054,-9.0778
455.4057,-1.7359,-1.2688,-81.8619,-0.6545,0.0000,-0.0000,-199.7460,41.2731,-23.4680,1487,1512,0.3065,0.2784,-0.0857,9.4633,-0.3011,0.0414,-6.9777,0.3101,-0.1886,9.7391,-1.0080,0.2573,-6.8030
455.4246,-1.7114,-1.2689,-81.9861,-1.0019,0.0000,-0.0000,-196.9347,40.8016,-21.8760,1487,1512,0.2896,0.1994,-0.1096,9.7267,-0.9194,-0.1113,-6.5121,0.2024,-0.2197,9.7295,-1.0843,0.1047,-6.5434
455.4436,-1.6873,-1.2741,-82.1039,-1.0782,0.0000,-0.0000,-194.1587,40.3360,-20.3569,1488,1511,0.2731,0.2258,-0.0928,9.6548,-0.8813,-0.0121,-6.1227,0.2814,-0.4903,9.6505,-1.2752,0.1352,-6.2305
455.4631,-1.6801,-1.2915,-82.2169,-1.7805,0.0000,-0.0000,-193.3249,40.2079,-19.9126,1489,1510,0.2682,0.2737,-0.1120,9.6165,-1.5072,-0.0808,-5.8708,0.2526,-0.1288,9.7391,-2.0538,0.0436,-5.6121
455.4827,-1.7245,-1.3189,-82.3259,-1.9981,0.0000,-0.0000,-198.4361,41.1135,-22.7286,1487,1512,0.2986,0.3335,-0.3203,9.6117,-1.9194,0.0337,-5.6266,0.2598,-0.0833,9.6003,-2.0767,0.2268,-5.5511
455.5020,-1.7864,-1.3460,-82.4301,-2.5744,0.0000,-0.0000,-205.5615,42.3698,-26.9488,1485,1514,0.3422,0.3407,-0.3538,9.5806,-2.4309,0.1024,-5.4434,0.3029,-0.1838,9.6745,-2.7179,0.2726,-5.3373
455.5211,-1.8507,-1.3375,-82.5266,-2.5744,0.0000,-0.0000,-212.9572,43.6737,-31.6769,1482,1517,0.3888,0.2066,-0.3777,9.5375,-2.4996,0.2933,-5.1456,0.2526,-0.1695,9.6864,-2.6492,0.5092,-5.0091
455.5400,-1.8708,-1.3281,-82.6188,-2.7271,0.0000,-0.0000,-215.2745,44.0952,-33.2304,1481,1518,0.4037,0.1946,-0.1814,9.6860,-2.6981,0.2704,-4.8861,0.2814,-0.2078,9.7008,-2.7561,0.3337,-4.7877
455.5595,-1.9530,-1.3241,-82.7091,-2.6469,0.0000,-0.0000,-224.7368,45.7593,-39.8835,1478,1521,0.4648,0.2234,-0.4544,9.4441,-2.5377,0.3849,-4.6800,0.2646,-0.1431,9.7942,-2.7561,0.4482,-4.6808
455.5791,-2.0106,-1.3217,-82.7949,-3.0820,0.0000,-0.0000,-231.3546,46.9296,-44.8206,1475,1524,0.5079,0.2234,-0.3299,9.7793,-3.0492,-0.0044,-4.4281,0.2598,-0.2748,9.6817,-3.1148,0.4863,-4.2915
455.5985,-2.0578,-1.3632,-82.8767,-3.0744,0.0000,-0.0000,-236.7884,47.8946,-49.0303,1473,1526,0.5433,0.4293,-0.2939,9.7003,-2.9805,0.3696,-4.2220,0.3149,-0.2868,9.6649,-3.1683,0.4405,-4.1541
455.6175,-2.1068,-1.3553,-82.9534,-2.9294,0.0000,-0.0000,-242.4318,48.8965,-53.5333,1470,1529,0.5798,0.2354,-0.3299,9.7338,-2.9042,0.4765,-4.0846,0.2143,-0.3107,9.7056,-2.9545,0.7153,-3.9938
455.6362,-2.1575,-1.3757,-83.0258,-2.8416,0.0000,-0.0000,-248.2590,49.9309,-58.3040,1467,1532,0.6171,0.3144,-0.3490,9.5758,-2.8736,0.1711,-3.9853,0.2526,-0.3418,9.7200,-2.8095,0.0131,-3.7572
455.6555,-2.2278,-1.3974,-83.0959,-2.7614,0.0000,-0.0000,-256.3557,51.3604,-65.0943,1464,1535,0.6679,0.3431,-0.4400,9.5136,-2.6217,0.3467,-3.7487,0.4705,-0.3323,9.6817,-2.9011,0.4863,-3.5282
455.6752,-2.2872,-1.4028,-83.1668,-2.7194,0.0000,-0.0000,-263.1934,52.5716,-70.9363,1460,1539,0.7095,0.2880,-0.4161,9.7889,-2.8431,0.3544,-3.5350,0.2598,-0.3634,9.6122,-2.5958,0.5092,-3.6579
455.6947,-2.3122,-1.3820,-83.2348,-2.6813,0.0000,-0.0000,-266.0628,53.0935,-73.4114,1459,1540,0.7265,0.1827,-0.2724,9.6524,-2.6370,0.6444,-3.4510,0.3269,-0.3754,9.7463,-2.7255,0.5703,-3.4289
455.7136,-2.3896,-1.3855,-83.2973,-2.6278,0.0000,-0.0000,-274.9767,54.6666,-81.1079,1455,1544,0.7774,0.2880,-0.5286,9.7674,-2.6523,0.6368,-5.4205,0.2502,-0.3873,9.6481,-2.6034,0.4787,-1.4671
455.7324,-2.4158,-1.4003,-83.3607,-1.3148,0.0000,0.0000,-277.9881,55.2142,-83.7101,1453,1546,0.7939,0.3431,-0.4304,9.8512,-2.2248,0.4689,-3.4968,0.3412,-0.4113,9.7128,-0.4049,0.6543,-3.2381
455.7518,-2.4560,-1.3930,-83.4466,-2.2232,0.0000,0.0000,-282.6169,56.0432,-87.6860,1451,1548,0.8183,0.2473,-0.4065,9.7099,-2.1790,0.7208,-5.4663,0.3173,-0.3873,9.7511,-2.2675,0.6772,-3.4747
455.7714,-2.4609,-1.3845,-83.5330,-1.9713,0.0000,0.0000,-283.1749,56.1648,-88.1720,1451,1548,0.8212,0.2186,-0.2796,9.8631,-1.9958,0.2322,-3.3823,0.2215,-0.4879,9.8349,-1.9469,0.4940,-5.2152
455.7909,-2.4894,-1.3810,-83.6000,-1.9294,0.0000,0.0000,-286.4613,56.7609,-90.9730,1449,1550,0.8378,0.2449,-0.3873,9.7314,-1.8736,0.5910,-3.4281,0.2598,-0.2964,9.6840,-1.9851,0.3184,-3.3984
455.8099,-2.5070,-1.3754,-83.6835,-2.1316,0.0000,0.0000,-288.4829,57.1373,-92.6880,1449,1550,0.8477,0.2210,-0.3323,9.8057,-2.0797,0.1101,-3.4510,0.2287,-0.3155,9.7774,-2.1835,0.4787,-5.1770
455.8286,-2.5234,-1.3804,-83.7448,-2.0706,0.0000,0.0000,-290.3642,57.4895,-94.2749,1448,1551,0.8567,0.2784,-0.3275,9.6333,-2.0568,0.4536,-3.2754,0.2455,-0.3275,9.8157,-2.0843,0.4024,-3.1847
455.8480,-2.5492,-1.3771,-83.8080,-2.4599,0.0000,-0.0000,-293.3326,58.0309,-96.7508,1446,1553,0.8705,0.2497,-0.3442,9.7674,-2.1637,0.4765,-3.2525,0.2885,-0.1000,9.8900,-2.7561,0.4940,-3.1923
455.8675,-2.5654,-1.3858,-83.8685,-2.6736,0.0000,-0.0000,-295.1972,58.3807,-98.2945,1445,1554,0.8788,0.3048,-0.2844,9.7554,-2.9118,0.4307,-3.0159,0.2646,-0.2964,9.8133,-2.4355,0.5703,-3.0473
455.8870,-2.5711,-1.3692,-83.9267,-2.5095,0.0000,-0.0000,-295.8554,58.5208,-98.8437,1445,1554,0.8817,0.1970,-0.2532,9.8655,-2.3622,0.4078,-2.9930,0.2191,-0.4017,9.7822,-2.6568,0.5932,-2.8411
455.9060,-2.5919,-1.3602,-83.9800,-2.5935,0.0000,-0.0000,-298.2565,58.9640,-100.8022,1444,1555,0.8921,0.2162,-0.3203,9.8200,-2.6141,0.1940,-2.7716,0.2311,-0.2221,9.9426,-2.5729,0.5474,-2.7419
455.9247,-2.6251,-1.3589,-84.0300,-2.5095,0.0000,-0.0000,-302.0743,59.6538,-103.8559,1442,1557,0.9078,0.2473,-0.3825,9.6716,-2.5148,0.3085,-2.7105,-0.0323,-0.3131,9.8564,-2.5042,0.3566,-2.5816
455.9442,-2.6670,-1.3593,-84.0793,-2.1660,0.0000,0.0000,-306.8975,60.5187,-107.6017,1440,1559,0.9261,0.2497,-0.4615,9.9254,-2.1866,0.2475,-2.5731,0.2646,-0.3754,9.9235,-2.1454,0.2726,-2.4976
455.9639,-2.6811,-1.3514,-84.1284,-1.6202,0.0000,0.0000,-308.5213,60.8278,-108.8403,1440,1559,0.9319,0.2114,-0.3897,9.8990,-1.7439,0.3315,-2.5502,0.2455,-0.3227,9.8109,-1.4965,0.1810,-2.3755
455.9836,-2.6896,-1.3335,-84.1751,-1.0400,0.0000,0.0000,-309.4997,61.0247,-109.5835,1439,1560,0.9352,0.1468,-0.4232,10.0283,-1.2553,0.0795,-2.3212,0.2550,-0.3682,9.9091,-0.8248,-0.0404,-2.3984
456.0021,-2.6717,-1.3370,-84.2193,-0.5897,0.0000,0.0000,-307.4354,60.6927,-108.0470,1440,1559,0.9280,0.2473,-0.3346,9.9349,-0.5912,0.0337,-2.3747,0.2885,-0.4256,10.0121,-0.5881,0.1886,-2.3068
456.0213,-2.6291,-1.3286,-84.2611,0.2271,0.0000,0.0000,-302.5338,59.8670,-104.2777,1442,1557,0.9096,0.1899,-0.2939,9.9972,0.2027,-0.0044,-2.1456,0.2383,-0.4185,9.8133,0.2516,0.0970,-2.1236
456.0410,-2.6023,-1.3233,-84.3059,0.5248,0.0000,0.0000,-299.4443,59.3561,-101.8393,1443,1556,0.8971,0.1827,-0.3897,9.9397,0.4775,-0.2640,-2.0769,0.1425,-0.3131,10.0504,0.5722,-0.1244,-2.4442
456.0606,-2.5788,-1.3280,-84.3457,1.0172,0.0000,0.0000,-296.7465,58.9130,-99.6742,1445,1554,0.8856,0.2354,-0.4400,9.9493,1.0195,0.0108,-1.9853,0.2814,-0.4639,9.8277,1.0149,-0.1549,-2.0778
456.0796,-2.5432,-1.3317,-84.3829,1.5019,0.0000,0.0000,-292.6509,58.2266,-96.3235,1447,1552,0.8673,0.2090,-0.4208,9.9062,1.4241,-0.4701,-1.9548,0.2335,-0.3227,9.9067,1.5798,-0.2236,-1.9709
456.0983,-2.5012,-1.3217,-84.4190,1.3378,0.0000,0.0000,-287.8131,57.4108,-92.2891,1449,1550,0.8444,0.1372,-0.3586,9.8081,1.4317,-0.1724,-1.9090,0.1449,-0.4975,9.9690,1.2439,-0.6969,-1.9480
456.1175,-2.4502,-1.2937,-84.4551,1.8684,0.0000,0.0000,-281.9428,56.4151,-87.3096,1451,1548,0.8148,0.0606,-0.3682,9.9326,1.9050,-0.5922,-1.9166,0.0755,-0.3849,9.7607,1.8317,-0.2236,-1.8564
456.1372,-2.4196,-1.3003,-84.4896,0.7691,0.0000,0.0000,-278.4243,55.8277,-84.2990,1453,1546,0.7962,0.1970,-0.3634,9.9373,-0.2706,-0.6151,-1.7411,0.2215,-0.3993,9.9091,1.8088,-0.5366,-1.7953
456.1568,-2.3810,-1.3105,-84.5226,1.6546,0.0000,0.0000,-273.9876,55.0804,-80.4811,1455,1544,0.7720,0.2306,-0.3897,9.8033,1.7829,-0.3174,-1.6495,0.1712,-0.4209,9.8612,1.5264,-0.4221,-1.7343
456.1760,-2.3542,-1.3290,-84.5551,1.8989,0.0000,0.0000,-270.8943,54.5664,-77.8160,1457,1542,0.7545,0.2569,-0.4591,9.9302,2.0042,-0.7831,-1.5502,0.1401,-0.4520,9.8947,1.7935,-0.3915,-1.8869
456.1951,-2.3345,-1.3214,-84.5890,2.6279,0.0000,0.0000,-268.6285,54.1959,-75.8657,1458,1541,0.7415,0.2018,-0.5453,9.7338,1.7371,1.1864,-1.6876,0.1832,-0.4520,9.8301,3.5187,-0.7274,-1.9251
456.2143,-2.3230,-1.3396,-84.6233,1.8798,0.0000,0.0000,-267.3030,53.9887,-74.7290,1458,1541,0.7338,0.2521,-0.5238,9.9062,1.7600,-0.6533,-1.8708,0.2024,-0.2796,9.8253,1.9997,-0.5900,-1.8106
456.2340,-2.3040,-1.3223,-84.6589,1.8607,0.0000,0.0000,-265.1240,53.6331,-72.8568,1459,1540,0.7210,0.0941,-0.4759,9.7290,1.7676,-0.3098,-1.8174,0.1832,-0.4568,9.8971,1.9539,-0.8572,-1.8793
456.2536,-2.3189,-1.3372,-84.6935,2.8951,0.0000,0.0000,-266.8381,53.9542,-74.3444,1459,1540,0.7311,0.2210,-0.7153,9.8057,3.6073,-0.7067,-1.8479,0.3149,-0.4209,9.5596,2.1829,-0.7579,-1.9175
456.2729,-2.3012,-1.3507,-84.7303,2.4561,0.0000,0.0000,-264.7956,53.6222,-72.5903,1460,1539,0.7190,0.2330,-0.5334,9.7865,2.2409,-0.5769,-1.9624,0.2814,-0.4783,9.6505,2.6714,-0.5366,-1.9785
456.2917,-2.2849,-1.3540,-84.7695,2.4981,0.0000,0.0000,-262.9273,53.3203,-70.9894,1460,1539,0.7079,0.1899,-0.5382,9.8176,2.5233,-0.3937,-1.9395,0.1928,-0.5693,9.6505,2.4729,-0.7579,-2.3526
456.3107,-2.2593,-1.3275,-84.8083,3.1966,0.0000,0.0000,-259.9829,52.8312,-68.4698,1462,1537,0.6901,0.0606,-0.5621,9.9254,3.0119,-0.5693,-1.9472,0.3508,-0.5023,9.5572,3.3813,-0.3610,-2.2534
456.3303,-2.2393,-1.3335,-84.8518,2.7233,0.0000,0.0000,-257.6770,52.4528,-66.5072,1463,1536,0.6761,0.2330,-0.5382,9.7793,1.6989,-0.2869,-2.1456,0.3412,-0.4807,9.7128,3.7477,0.0360,-2.3831
456.3498,-2.1796,-1.3291,-84.8948,3.8722,0.0000,0.0000,-250.8063,51.2804,-60.7070,1466,1533,0.6332,0.1755,-0.4520,9.6836,3.7981,-0.3479,-2.2449,0.0707,-0.4544,9.6912,3.9462,-0.2618,-2.2305
456.3691,-2.1204,-1.3182,-84.9403,3.9065,0.0000,0.0000,-243.9939,50.1176,-55.0793,1469,1530,0.5899,0.1348,-0.4496,9.7195,3.9126,-0.4853,-2.2754,0.1425,-0.2628,9.6984,3.9004,-0.3457,-2.5129
456.3880,-2.0775,-1.3226,-84.9851,3.5287,0.0000,0.0000,-239.0560,49.2802,-51.0989,1471,1528,0.5580,0.2162,-0.4663,9.6117,3.7294,-0.0960,-2.3136,0.1138,-0.4161,9.6936,3.3279,-0.3686,-2.5282
456.4070,-2.0429,-1.3139,-85.0321,3.2615,0.0000,0.0000,-235.0803,48.6096,-47.9640,1473,1526,0.5322,0.1683,-0.4807,9.7171,3.1493,-0.1800,-2.5655,0.1353,-0.4304,9.4494,3.3737,-0.0633,-2.4671
456.4265,-1.9916,-1.2915,-85.0810,2.9561,0.0000,0.0000,-229.1762,47.6034,-43.4330,1476,1523,0.4937,0.1396,-0.3777,9.6716,3.1111,0.2093,-2.5960,0.0922,-0.3706,9.8900,2.8012,0.2879,-2.4137
456.4461,-1.9593,-1.2646,-85.1321,2.5745,0.0000,-0.0000,-225.4580,46.9767,-40.6666,1477,1522,0.4695,0.1132,-0.4161,9.5830,2.6989,0.4154,-2.5197,0.0731,-0.3873,9.6074,2.4500,0.0360,-2.7343
456.4654,-1.9555,-1.2565,-85.1811,2.2806,0.0000,-0.0000,-225.0145,46.9192,-40.3454,1477,1522,0.4666,0.2018,-0.5094,9.6189,2.2485,0.3620,-2.4205,0.3340,-0.4807,9.5667,2.3126,0.4634,-2.7190
456.4842,-1.9321,-1.2507,-85.2318,2.3073,0.0000,-0.0000,-222.3313,46.4722,-38.4002,1478,1521,0.4492,0.2330,-0.4304,9.8224,2.3706,0.5223,-2.6571,0.3053,-0.5023,9.8732,2.2439,0.7077,-2.7572
456.5031,-1.9257,-1.2148,-85.2854,1.8149,0.0000,-0.0000,-221.5905,46.3627,-37.8731,1479,1520,0.4444,0.1851,-0.4615,9.7817,1.9126,0.7742,-2.6724,0.1425,-0.4711,9.6553,1.7172,2.6466,-2.9633
456.5226,-1.9360,-1.1870,-85.3388,1.7729,0.0000,-0.0000,-222.7726,46.5875,-38.7270,1478,1521,0.4520,0.1252,-0.5310,9.7602,1.8745,0.5605,-2.6800,0.1401,-0.4759,9.7846,1.6714,0.5474,-2.8640
456.5422,-1.9311,-1.1611,-85.3956,1.3340,0.0000,-0.0000,-222.2159,46.5100,-38.3302,1478,1521,0.4484,0.1324,-0.4280,9.7410,1.5004,0.6902,-2.8479,0.0850,-0.4041,9.7678,1.1676,0.4863,-2.9709
456.5617,-1.9393,-1.1778,-85.4509,1.1966,0.0000,-0.0000,-223.1560,46.6928,-39.0130,1478,1521,0.4545,0.3144,-0.4735,9.8200,1.1722,0.4918,-2.8098,0.1377,-0.5454,9.8636,1.2210,0.5856,-2.9175
456.5805,-1.9386,-1.1525,-85.5063,0.9218,0.0000,-0.0000,-223.0720,46.6976,-38.9566,1478,1521,0.4540,0.1252,-0.4089,9.6740,1.0195,0.5681,-3.0311,0.1066,-0.3490,9.8038,0.8241,0.5703,-2.8564
456.5995,-1.9353,-1.1258,-85.5616,0.3187,0.0000,-0.0000,-222.6967,46.6517,-38.6897,1478,1521,0.4516,0.0965,-0.3442,9.6333,0.4470,0.4460,-2.9472,0.1281,-0.3275,9.8852,0.1905,0.2497,-2.8564
456.6189,-1.9383,-1.1374,-85.6178,-0.2423,0.0000,-0.0000,-223.0368,46.7302,-38.9398,1478,1521,0.4538,0.2162,-0.3323,9.8416,-0.1637,0.5070,-2.9472,0.1832,-0.2173,9.7918,-0.3210,-1.0633,-2.8411
456.6386,-1.9730,-1.1240,-85.6737,-0.8187,0.0000,-0.0000,-227.0319,47.4443,-41.8777,1476,1523,0.4797,0.1779,-0.4161,9.6955,-0.6981,0.6215,-2.9014,0.1066,-0.3011,9.8062,-0.9393,0.5550,-2.7877
456.6580,-1.9897,-1.0926,-85.7301,-1.3988,0.0000,-0.0000,-228.9489,47.7974,-43.3191,1476,1523,0.4922,0.0893,-0.2963,9.8607,-1.1866,0.5376,-2.8403,0.1808,-0.4041,9.8660,-1.6110,0.5092,-2.9175
456.6768,-2.0161,-1.0851,-85.7828,-2.2843,0.0000,-0.0000,-231.9971,48.3473,-45.6452,1474,1525,0.5121,0.1803,-0.2676,9.6596,-2.0721,0.3391,-2.7869,0.0683,-0.2413,9.9307,-2.4965,0.5092,-2.7648
456.6958,-2.0448,-1.0676,-85.8360,-2.9408,0.0000,-0.0000,-235.2895,48.9400,-48.2060,1473,1526,0.5335,0.1420,-0.2221,9.6860,-2.6752,0.5681,-2.8174,0.2071,-0.3945,9.8756,-3.2065,0.5245,-2.7114
456.7152,-2.0985,-1.0559,-85.8872,-3.9217,0.0000,-0.0000,-241.4772,50.0365,-53.1386,1470,1529,0.5737,0.1635,-0.2604,9.9038,-3.6828,0.5299,-2.6800,0.2095,-0.1719,9.8923,-4.1606,0.3947,-2.5129
456.7337,-2.1411,-1.0232,-85.9321,-4.7271,0.0000,-0.0000,-246.3710,50.9084,-57.1433,1468,1531,0.6051,0.0414,-0.1575,9.9038,-4.5606,0.2017,-2.3823,-0.0011,-0.1168,9.7726,-4.8935,0.2192,-2.3526
456.7521,-2.2112,-1.0253,-85.9795,-5.2423,0.0000,-0.0000,-254.4388,52.3328,-63.9022,1464,1535,0.6560,0.2090,-0.2485,9.8583,-5.1561,0.4078,-2.6266,0.1856,-0.2964,9.7918,-5.3286,0.3031,-2.4595
456.7706,-2.2758,-1.0156,-86.0253,-5.6774,0.0000,-0.0000,-261.8810,53.6490,-70.2691,1461,1538,0.7016,0.1683,-0.1958,9.8320,-5.5072,0.6750,-2.5502,0.1210,-0.2796,9.8828,-5.8477,0.3642,-2.2992
456.7890,-2.3797,-1.0126,-86.0666,-6.5935,-0.0165,-0.1748,-273.3247,55.7492,-80.5031,1455,1544,0.7711,0.1587,-0.3155,9.9349,-6.2248,-0.0044,-2.2449,0.1736,-0.2748,9.9091,-6.9622,0.1123,-2.1999
456.8077,-2.5099,-1.0287,-86.1037,-7.2614,-0.5823,-5.1711,-273.9174,58.3782,-89.9242,1450,1549,0.8493,0.2425,-0.3825,9.6596,-7.1866,-0.0350,-2.0464,0.2000,-0.3490,10.0049,-7.3362,0.1581,-1.9327
456.8261,-2.6518,-0.9965,-86.1405,-7.2996,-1.6737,-11.2971,-272.6087,61.2436,-98.3555,1445,1554,0.9196,0.0294,-0.4711,9.8751,-7.2248,0.1101,-2.1075,0.2000,-0.4424,9.8421,-7.3744,0.2115,-1.8946
456.8446,-2.7855,-0.9895,-86.1772,-7.0782,-2.8176,-13.6402,-281.2515,63.9465,-107.1775,1441,1558,0.9680,0.1348,-0.4735,9.8248,-7.1332,0.1024,-2.1685,0.1521,-0.4424,9.6362,-7.0232,0.0054,-1.8182
456.8630,-2.9123,-0.9889,-86.2145,-6.8874,-3.7872,-13.4204,-296.4651,66.5097,-115.6133,1436,1563,0.9944,0.1228,-0.4831,9.8823,-6.9500,-0.3861,-2.0998,0.2311,-0.4951,9.7631,-6.8248,-0.4068,-2.0091
456.8815,-3.0479,-1.0158,-86.2546,-6.6202,-4.4774,-10.9483,-319.1986,69.2538,-124.0025,1431,1568,1.0000,0.2880,-0.5669,9.8919,-6.7133,-0.0731,-2.1456,0.2838,-0.5573,9.5835,-6.5271,0.1123,-2.2152
456.9000,-3.1486,-1.0241,-86.2985,-5.8454,-4.7155,-4.1386,-350.3931,71.2983,-133.7592,1426,1573,1.0000,0.2042,-0.4975,9.9278,-5.8431,-0.0197,-2.3976,0.1593,-0.5310,9.8181,-5.8477,-0.0022,-2.3602
456.9184,-3.2484,-1.0399,-86.3443,-5.4408,-4.7505,-0.6258,-372.0002,73.3278,-140.8240,1422,1577,1.0000,0.2306,-0.5429,9.8488,-5.6675,-0.1724,-2.4434,-0.0371,-0.5214,9.7439,-5.2141,-0.1167,-2.5511
456.9368,-3.3180,-1.0682,-86.3932,-4.5095,-4.3965,5.8650,-398.6943,74.7515,-149.0102,1418,1581,1.0000,0.2832,-0.5022,9.8966,-4.5454,-0.1571,-2.6876,0.0970,-0.5118,9.7343,-4.4736,-0.3152,-2.6427
456.9553,-3.3900,-1.0823,-86.4433,-4.2996,-3.9909,5.9620,-407.2668,76.2267,-152.1480,1416,1583,1.0000,0.1994,-0.5501,9.9589,-4.2400,-0.4624,-2.7792,0.1712,-0.3897,9.8205,-4.3591,-0.4526,-2.6961
456.9738,-3.4564,-1.1039,-86.4962,-3.9446,-3.4796,6.6091,-416.7674,77.5885,-155.4891,1414,1585,1.0000,0.2401,-0.5549,9.7841,-3.9805,-0.5311,-2.7869,0.2048,-0.5142,9.9905,-3.9087,-0.1854,-2.9862
456.9922,-3.4915,-1.0969,-86.5524,-3.0744,-2.6639,8.6474,-426.6793,78.3258,-158.6331,1412,1587,1.0000,0.1492,-0.4998,9.8248,-3.0339,0.1482,-3.0006,0.1760,-0.4232,9.7295,-3.1148,0.0512,-3.0625
457.0107,-3.4995,-1.1042,-86.6088,-2.6431,-1.8406,6.9016,-422.5683,78.5202,-157.5792,1413,1586,1.0000,0.1827,-0.4208,9.9254,-2.5912,-0.4243,-3.0922,0.1688,-0.3131,9.8492,-2.6950,-0.1625,-2.9938
457.0291,-3.5135,-1.1178,-86.6648,-2.4179,-1.1563,4.4742,-417.1903,78.8356,-156.2311,1414,1585,1.0000,0.2090,-0.4591,9.7865,-2.4461,-0.2792,-2.9701,0.1521,-0.5813,9.8923,-2.3897,-0.3915,-3.0931
457.0474,-3.5067,-1.1656,-86.7247,-1.1889,-0.4089,2.6426,-411.1341,78.7349,-154.4850,1415,1584,1.0000,0.3527,-0.4735,9.8559,-1.4385,-0.8365,-3.2296,0.2071,-0.5501,9.7032,-0.9393,-0.2999,-3.3373
457.0658,-3.5144,-1.1908,-86.7884,-0.8339,-0.0441,0.3131,-405.3120,78.9242,-152.9495,1415,1584,1.0000,0.2569,-0.5549,9.4944,-0.6141,-0.2563,-3.4510,0.1569,-0.5406,9.8085,-1.0538,-0.5976,-3.5282
457.0843,-3.5241,-1.2254,-86.8558,0.1088,0.0000,0.0000,-405.5215,79.1526,-153.1223,1415,1584,1.0000,0.2904,-0.6674,9.9134,-0.1026,-0.9128,-3.6800,0.1712,-0.7584,9.5548,0.3203,-0.4908,-3.7648
457.1027,-3.5348,-1.2365,-86.9312,1.1928,0.0000,0.0000,-406.7551,79.4023,-153.5926,1415,1584,1.0000,0.2234,-0.7584,9.7003,0.9432,-0.2487,-3.9701,0.1928,-0.5908,9.7343,1.4424,-0.0862,-4.3602
457.1211,-3.5345,-1.2305,-87.0080,1.9294,0.0000,0.0000,-406.7188,79.4313,-153.5969,1415,1584,1.0000,0.1348,-0.7752,9.7650,1.6836,-0.2334,-4.1456,0.0970,-0.6866,9.6314,2.1752,-0.4221,-4.3450
457.1396,-3.5605,-1.2494,-87.0877,2.7004,0.0000,0.0000,-409.7117,79.9871,-154.7128,1414,1585,1.0000,0.1994,-0.9691,9.8081,2.3019,-0.9205,-4.5426,0.2455,-0.8039,9.6050,3.0989,-0.8190,-4.3602
457.1580,-3.5016,-1.2691,-87.1763,3.8226,0.0000,0.0000,-402.9383,78.8449,-152.2452,1416,1583,1.0000,0.2737,-0.6603,9.6405,3.8516,-0.1953,-4.8250,0.1449,-0.7177,9.5835,3.7935,0.0970,-4.8640
457.1764,-3.4577,-1.2627,-87.2836,4.1470,0.0000,0.0000,-397.8863,78.0015,-150.4089,1417,1582,1.0000,0.1061,-0.7680,9.8655,3.9050,-0.4777,-4.9014,0.1138,-0.6411,9.8852,4.3890,-0.7427,-7.1007
457.1949,-3.3687,-1.2836,-87.3620,4.7806,0.0000,0.0000,-387.6467,76.2556,-146.6689,1419,1580,1.0000,0.2425,-0.5980,9.8416,4.8974,-0.8670,-5.0617,0.0683,-0.6962,9.7008,4.6638,-0.3534,-3.4289
457.2133,-3.2915,-1.3055,-87.4610,5.4294,0.0000,0.0000,-378.7575,74.7436,-143.4239,1421,1578,1.0000,0.2952,-0.6866,9.7841,5.1493,-0.1113,-5.2525,0.1976,-0.8398,9.6410,5.7096,0.0894,-5.6198
457.2317,-3.1967,-1.3146,-87.5630,5.5935,0.0000,0.0000,-367.8526,72.8803,-139.4389,1423,1576,1.0000,0.1899,-0.5980,9.5375,5.7981,-0.3403,-5.6189,0.1760,-0.5932,9.8109,5.3890,-0.7350,-5.5587
457.2501,-3.0945,-1.3355,-87.6721,5.5592,0.0000,0.0000,-356.0902,70.8670,-135.1388,1425,1574,1.0000,0.2138,-0.5573,9.8368,5.3248,-1.0884,-5.9243,0.1856,-0.6483,9.5188,5.7935,-0.7808,-6.0778
457.2687,-3.0318,-1.3469,-87.7835,5.5897,0.0573,0.3952,-350.0061,69.6421,-132.8228,1426,1573,1.0000,0.2186,-0.7201,9.6476,5.5004,-0.3861,-5.9701,0.3556,-0.6842,9.4518,5.6790,-0.2847,-6.2076
457.2872,-2.8982,-1.4014,-87.9009,5.9752,0.4364,2.6627,-341.1668,66.9998,-128.0577,1429,1570,0.9925,0.4508,-0.4232,9.7697,6.0042,-0.0426,-6.2296,0.1880,-0.3682,9.6003,5.9462,-0.1702,-6.4976
457.3056,-2.8017,-1.4106,-88.0140,4.8111,0.7037,1.7449,-327.4203,65.0981,-120.8055,1433,1566,0.9725,0.2162,-0.4687,9.7051,4.8363,-0.5769,-6.1991,0.0635,-0.4089,9.6481,4.7859,-0.3686,-6.1389
457.3240,-2.6968,-1.4163,-88.1271,5.1584,1.0833,2.9309,-318.7606,63.0264,-113.2798,1437,1562,0.9380,0.2018,-0.4400,9.6453,5.1645,-0.6533,-6.0311,0.2048,-0.3921,9.7511,5.1523,-0.1778,-6.3221
457.3424,-2.6794,-1.4344,-88.2390,3.7081,0.9873,-0.6358,-306.4919,62.7062,-109.1047,1439,1560,0.9312,0.2904,-0.7129,9.7195,3.4928,0.1482,-6.1304,0.2071,-0.2844,9.6218,3.9233,-0.4679,-6.1847
457.3608,-2.6034,-1.4195,-88.3501,3.8607,0.9533,-0.2254,-298.9222,61.2111,-102.6004,1443,1556,0.8976,0.1204,-0.4496,9.7817,4.1340,-0.5235,-6.0998,0.1712,-0.4041,9.6960,3.5874,-0.1625,-6.0396
457.3792,-2.4960,-1.4183,-88.4598,2.0974,0.4801,-1.9765,-281.5216,59.0884,-91.1917,1449,1550,0.8415,0.2018,-0.1383,9.5591,2.4394,-0.2105,-5.9014,0.1856,-0.1024,9.7631,1.7554,0.0436,-5.8488
457.3977,-2.4574,-1.4047,-88.5637,1.1546,0.0926,-0.5771,-281.1074,58.3405,-88.3650,1451,1548,0.8191,0.1587,-0.3538,9.6524,1.3706,-0.0808,-5.6647,0.2526,-0.3921,9.7607,0.9386,0.2039,-5.5816
457.4160,-2.4468,-1.4422,-88.6658,-0.0858,0.0000,-0.0000,-281.5595,58.1547,-87.7156,1451,1548,0.8128,0.4125,-0.3706,9.5782,0.2103,0.1024,-5.7029,0.2502,-0.3394,9.8014,-0.3820,0.4863,-5.3450
457.4344,-2.4249,-1.4071,-88.7484,-1.0439,0.0000,-0.0000,-279.0335,57.7399,-85.5452,1452,1547,0.7995,0.0797,-0.2389,9.7889,-0.7897,0.2856,-5.3289,0.2167,-0.2173,9.8516,-1.2981,0.0436,-3.3450
457.4529,-2.4204,-1.3595,-88.8420,-1.9484,0.0000,-0.0000,-278.5206,57.6750,-85.1112,1453,1546,0.7967,0.0103,-0.2389,9.6955,-1.8278,-0.0655,-5.1227,0.2000,-0.1144,9.8804,-2.0690,0.4100,-4.9175
457.4713,-2.4323,-1.3464,-88.9290,-3.0782,0.0000,-0.0000,-279.8832,57.9361,-86.2991,1452,1547,0.8040,0.1851,-0.2125,9.5734,-2.6446,0.5834,-4.7334,0.3580,-0.2580,9.6625,-3.5118,0.2726,-4.5740
457.4897,-2.4605,-1.3163,-89.0075,-4.1813,0.0000,-0.0000,-283.1255,58.5242,-89.1019,1450,1549,0.8209,0.0965,-0.1958,9.7338,-4.1637,0.0108,-4.2373,0.1186,-0.2317,9.7990,-4.1988,0.5627,-4.1312
457.5082,-2.5237,-1.2709,-89.0813,-5.1774,0.0000,-0.0000,-290.4051,59.8147,-95.3023,1447,1552,0.8569,0.0318,-0.2820,9.7626,-4.8584,0.1940,-3.9777,0.0826,-0.1910,9.9019,-5.4965,0.6085,-3.9098
457.5266,-2.6078,-1.2265,-89.1472,-6.2538,0.0000,-0.0000,-300.0851,61.5231,-103.2761,1443,1556,0.8997,0.0175,-0.2892,9.6165,-6.0110,0.2017,-3.6800,0.1952,-0.3634,9.7415,-6.4965,0.3642,-3.3526
457.5450,-2.6899,-1.2107,-89.2066,-7.1240,0.0000,-0.0000,-309.5265,63.1910,-110.6143,1439,1560,0.9353,0.1707,-0.2245,9.6453,-6.8507,0.4689,-3.3518,0.1138,-0.1527,9.8038,-7.3973,0.6848,-2.9175
457.5634,-2.7824,-1.1702,-89.2594,-7.8148,-0.0284,-0.3995,-319.0234,65.0693,-117.8477,1435,1564,0.9671,0.0510,-0.2293,9.6979,-7.5377,0.4460,-2.9243,-0.0538,-0.1312,9.8181,-8.0919,0.5550,-2.6427
457.5822,-2.8944,-1.1479,-89.3090,-8.3263,-0.9198,-9.6043,-305.3993,67.3378,-118.2187,1434,1565,0.9919,0.1252,-0.2796,9.7793,-8.1713,0.2398,-2.7105,0.0659,-0.2317,9.8516,-8.4813,0.6543,-2.3984
457.6007,-3.0271,-1.1170,-89.3502,-9.0286,-2.8290,-24.7925,-276.9346,70.0233,-112.5533,1438,1561,1.0000,0.0941,-0.3418,9.8105,-8.9805,0.6826,-2.3212,0.1760,-0.3083,9.8876,-9.0767,0.5016,-1.9785
457.6192,-3.1641,-1.1060,-89.3877,-8.6469,-4.5565,-27.5693,-284.6999,72.7944,-116.1131,1436,1563,1.0000,0.1252,-0.4232,9.9062,-8.6752,0.6750,-2.1304,0.0826,-0.3035,9.7487,-8.6187,-1.0480,-1.8793
457.6376,-3.2692,-1.0288,-89.4211,-8.6202,-5.7161,-26.7180,-299.2457,74.9290,-121.2533,1433,1566,1.0000,-0.1310,-0.3035,9.8966,-8.4156,0.5757,-1.8021,0.1018,-0.1312,9.8133,-8.8248,0.6695,-1.6274
457.6560,-3.3680,-0.9898,-89.4472,-8.8110,-6.2467,-24.6041,-316.7068,76.9392,-127.1475,1430,1569,1.0000,0.0294,-0.2676,9.8033,-8.6828,0.4460,-1.4205,0.1018,-0.3227,9.7798,-8.9393,0.5779,-1.2305
457.6744,-3.4759,-0.9647,-89.4695,-8.9370,-6.6503,-21.9242,-336.8363,79.1311,-133.8797,1426,1573,1.0000,0.1061,-0.3203,9.9014,-8.8049,0.6215,-1.1685,0.1521,-0.2796,10.0144,-9.0690,0.7840,-1.0549
457.6928,-3.6017,-0.9449,-89.4870,-9.2232,-7.0362,-20.9465,-354.1332,81.6838,-139.9992,1423,1576,1.0000,0.1013,-0.3897,9.7123,-8.9881,0.4002,-1.0082,0.0994,-0.4209,9.8852,-9.4584,0.3795,-0.7419
457.7112,-3.7231,-0.9229,-89.4962,-9.3225,-7.3791,-18.6825,-374.6211,84.1485,-146.9682,1419,1580,1.0000,0.1061,-0.3921,9.9757,-9.1255,0.3696,-0.4968,-0.0203,-0.4879,9.8612,-9.5194,0.7306,-0.3373
457.7296,-3.8649,-0.9050,-89.5015,-8.8263,-7.5962,-11.7785,-410.8175,87.0222,-158.5400,1412,1587,1.0000,0.1252,-0.5453,9.8583,-8.7973,0.6368,-0.3670,0.0970,-0.4951,9.9450,-8.8553,0.5245,-0.0702
457.7480,-3.9705,-0.8745,-89.5039,-8.5210,-7.7349,-7.5298,-435.2067,89.1740,-166.4449,1408,1591,1.0000,0.1324,-0.4208,9.7650,-8.6141,0.5528,-0.0082,0.0707,-0.3730,9.8109,-8.4278,2.6466,0.0215
457.7664,-4.0825,-0.8285,-89.5061,-7.7003,-7.7297,0.2817,-470.6017,91.4564,-177.4967,1402,1597,1.0000,-0.0280,-0.5501,9.9709,-7.6828,0.4612,-0.1838,-0.0083,-0.6052,9.7678,-7.7179,0.4024,0.1207
457.7848,-4.2033,-0.8068,-89.5019,-6.6736,-7.5713,8.6099,-508.4855,93.9138,-189.3329,1395,1604,1.0000,0.0845,-0.6866,9.8320,-7.0263,0.3544,0.2589,0.0324,-0.6268,9.4877,-6.3210,0.6543,0.2581
457.8033,-4.3063,-0.7469,-89.4948,-5.2423,-7.2220,18.9327,-550.0665,96.0165,-202.0269,1388,1611,1.0000,-0.0807,-0.7465,9.8320,-5.4767,0.7666,0.3887,-0.0131,-0.7824,9.7056,-5.0080,0.5550,0.4947
457.8216,-4.3795,-0.7304,-89.4870,-3.8225,-6.7121,27.7655,-583.9323,97.5249,-212.2635,1383,1616,1.0000,0.0486,-0.7656,10.0690,-4.2019,-0.0426,0.4116,0.0252,-0.7417,9.7176,-3.4431,-0.1396,0.4337
457.8401,-4.4172,-0.7124,-89.4769,-1.8454,-5.9814,39.4688,-621.9727,98.3224,-223.3135,1377,1622,1.0000,0.0845,-0.7680,9.9086,-2.2782,0.4383,0.5185,0.0396,-0.7010,9.3704,-1.4126,0.4253,0.6627
457.8586,-4.3998,-0.6681,-89.4925,0.6852,-3.6502,39.5911,-620.3294,98.0196,-222.7020,1377,1622,1.0000,-0.0591,-0.7369,9.9852,0.0195,0.4612,-1.6113,-0.1209,-0.7800,9.3848,1.3508,0.1657,0.3802
457.8770,-4.2917,-0.6441,-89.4890,2.3531,-0.8088,12.4624,-529.7515,95.8993,-196.2801,1392,1607,1.0000,0.0031,-0.4568,9.9780,2.5081,-0.1342,0.1521,-0.1017,-0.6986,9.7367,2.1981,0.0970,0.3268
457.8955,-4.2422,-0.6542,-89.4877,3.8531,0.0000,0.0000,-488.1666,94.9524,-184.1628,1398,1601,1.0000,0.1946,-0.8255,9.7434,3.2256,0.3315,0.2513,-0.1903,-0.5621,9.3560,4.4806,0.3718,-0.1694
457.9139,-4.0908,-0.6859,-89.4885,6.7539,0.0000,0.0000,-470.7434,91.9653,-177.7908,1402,1597,1.0000,0.2904,-0.6052,10.0858,6.2332,0.1101,0.0452,0.2167,-0.7345,9.8612,7.2745,0.4482,-0.0931
457.9322,-3.9330,-0.5961,-89.4932,8.0477,0.0000,0.0000,-452.5792,88.8479,-171.1461,1405,1594,1.0000,-0.2363,-0.6243,9.3412,7.8210,0.8276,-0.0846,0.0779,-0.4807,9.9426,8.2745,0.5474,-0.3984
457.9506,-3.7568,-0.5527,-89.4983,7.7500,0.0000,0.0000,-432.3035,85.3617,-163.7258,1409,1590,1.0000,-0.0807,-0.5118,9.6261,7.7829,0.3315,-0.1838,-0.1472,-0.3059,9.8133,7.7172,0.0436,-0.3602
457.9691,-3.6434,-0.5524,-89.5023,7.4600,0.0000,0.0000,-419.2587,83.1310,-158.9579,1412,1587,1.0000,0.1300,-0.7584,9.8775,6.9126,0.4307,-0.1991,0.0276,-0.5693,9.6410,8.0073,0.3642,-0.2152
457.9875,-3.5352,-0.5487,-89.5069,8.2195,0.0076,0.1205,-407.1489,81.0014,-154.5024,1415,1584,1.0000,0.1252,-0.8255,9.7626,8.1035,0.7818,-0.1762,0.0539,-0.6100,9.7271,8.3355,0.2344,-0.3297
458.0059,-3.4145,-0.5424,-89.5109,6.9447,0.4609,3.9608,-404.3241,78.6224,-152.5220,1416,1583,1.0000,0.0773,-0.6339,9.6548,7.3706,0.1788,-0.0540,0.1329,-0.7249,10.0887,6.5187,0.2039,-0.4442
458.0245,-3.2803,-0.5151,-89.5163,7.8455,1.7034,13.3827,-416.0114,75.9705,-154.4684,1415,1584,1.0000,0.0941,-0.6196,9.5854,7.5615,0.7971,-0.1227,0.0132,-0.5837,9.6218,8.1294,2.6695,-0.3602
458.0429,-3.1513,-0.5167,-89.5145,8.1623,3.3261,21.4899,-424.5152,73.4220,-155.5753,1414,1585,1.0000,0.1348,-0.6650,9.7793,8.2103,0.2933,0.1673,0.1664,-0.4879,9.8828,8.1142,0.7459,0.0138
458.0616,-3.0092,-0.5072,-89.5086,7.4714,4.4651,17.7398,-397.3597,70.6096,-146.5655,1419,1580,1.0000,0.0654,-0.5142,9.5279,7.6836,0.2475,0.3429,0.2742,-0.6531,9.8373,7.2592,0.3642,0.2963
458.0802,-2.8963,-0.5067,-89.5019,8.0401,5.4984,21.7111,-395.8120,68.3818,-143.8898,1420,1579,0.9922,0.1827,-0.6818,9.8176,7.8668,1.0414,0.4574,0.1401,-0.6124,9.4614,8.2134,1.2344,0.2963
458.0987,-2.7512,-0.5020,-89.4933,8.1126,6.0443,19.6890,-373.2847,65.5062,-137.2728,1424,1575,1.0000,0.0845,-0.5142,9.6979,8.1264,0.9727,0.5948,0.0252,-0.5454,9.8397,8.0989,-1.1473,0.2428
458.1172,-2.5741,-0.4952,-89.4810,7.8913,6.3213,14.9527,-339.2627,61.9896,-125.9883,1430,1569,1.0000,0.0893,-0.3299,9.8224,8.1798,0.2627,0.8085,0.1664,-0.6004,9.8038,7.6027,0.6085,0.4795
458.1357,-2.3811,-0.4903,-89.4697,7.3111,6.4698,8.0365,-297.1421,58.1547,-112.2772,1438,1561,1.0000,0.1707,-0.1718,9.6907,7.4623,1.2398,0.6559,0.1617,-0.2580,9.7224,7.1600,1.3108,0.7390
458.1542,-2.2445,-0.4892,-89.4517,6.8340,6.5244,2.9531,-266.7845,55.4454,-102.4224,1443,1556,1.0000,0.1659,-0.3586,9.7817,6.8134,0.9879,0.9383,0.0707,-0.3730,9.9642,6.8546,0.8985,1.1436
458.1726,-2.1116,-0.4799,-89.4282,6.0706,6.4563,-3.6885,-232.3542,52.8069,-91.4626,1449,1550,1.0000,0.1444,-0.2892,9.7674,6.3096,1.0261,1.4040,-0.0586,-0.3538,9.6936,5.8317,1.2955,1.1894
458.1910,-2.0182,-0.4506,-89.4079,4.3569,6.1414,-17.1232,-182.9238,50.9607,-76.6990,1457,1542,1.0000,0.0749,-0.3131,9.7793,5.1264,1.6368,1.1826,-0.0083,-0.3730,9.8109,3.5874,1.1428,1.1131
458.2102,-1.9438,-0.3919,-89.3767,3.7157,5.6870,-18.6806,-169.8702,49.4909,-70.1120,1461,1538,0.9696,-0.1022,-0.3418,9.8440,4.1111,1.0108,1.6101,0.1090,-0.2245,9.8684,3.3203,0.8909,1.7314
458.2299,-1.9082,-0.4199,-89.3391,2.6584,4.5957,-20.5704,-160.3301,48.7979,-37.9564,1479,1520,0.5478,0.1899,-0.4041,9.7626,2.6531,-0.7296,1.9002,0.2167,-0.3347,9.8708,2.6638,1.0589,1.9146
458.2485,-1.8938,-0.4066,-89.3004,2.0019,3.1504,-17.4784,-167.5854,48.5301,-29.9474,1483,1516,0.4207,0.1228,-0.4328,9.7290,2.2714,1.2551,2.0070,0.3580,-0.4256,9.8109,1.7325,1.3871,2.2886
458.2672,-1.9055,-0.3791,-89.2555,0.2157,1.3026,-11.6461,-185.7193,48.7815,-32.7951,1481,1518,0.4293,0.0725,-0.3993,9.7362,0.5691,1.5299,2.4574,0.1042,-0.3347,9.8540,-0.1377,1.2955,2.4184
458.2858,-1.9531,-0.3501,-89.2055,-0.5133,0.1897,-2.0697,-218.7828,49.7541,-40.0408,1477,1522,0.4649,0.0318,-0.5022,9.7889,-0.5301,1.1482,2.6635,0.0491,-0.3490,9.7008,-0.4965,1.0054,2.7924
458.3042,-1.9823,-0.3485,-89.1496,-1.2461,0.0000,-0.0000,-228.1064,50.3584,-43.3444,1476,1523,0.4867,0.1683,-0.3682,9.8128,-0.9271,1.2551,3.0070,0.1425,-0.3227,9.9857,-1.5652,1.2115,3.1665
458.3227,-2.0588,-0.3569,-89.0883,-2.6278,0.0000,-0.0000,-236.9008,51.9075,-50.2049,1472,1527,0.5440,0.1276,-0.4687,9.6405,-2.1866,1.1711,3.2284,0.1712,-0.3514,9.8923,-3.0690,-1.1167,3.4337
458.3412,-2.1727,-0.3413,-89.0242,-3.7423,0.0000,-0.0000,-250.0094,54.2075,-61.0037,1466,1533,0.6282,0.0989,-0.5669,9.8081,-3.4996,1.1177,3.4498,0.1664,-0.3873,10.0432,-3.9851,1.2573,3.5787
458.3598,-2.2570,-0.3062,-88.9540,-4.3530,0.0000,-0.0000,-259.7135,55.9167,-69.3175,1461,1538,0.6885,0.0175,-0.3873,9.8152,-4.0874,1.4231,3.7856,0.1018,-0.4520,9.8660,-4.6187,1.0894,3.8688
458.3784,-2.3691,-0.2839,-88.8788,-5.4103,0.0000,-0.0000,-272.6076,58.1814,-80.5650,1455,1544,0.7642,0.0151,-0.4400,9.7889,-5.2019,0.6750,4.0376,0.1257,-0.3634,9.9977,-5.6187,0.5627,4.0902
458.3970,-2.4985,-0.2708,-88.8033,-5.8454,0.0000,-0.0000,-287.4981,60.7944,-93.4724,1448,1551,0.8429,0.0702,-0.4975,9.7626,-5.7897,0.7666,4.0681,0.1377,-0.5094,9.6912,-5.9011,0.8451,4.1131
458.4155,-2.6251,-0.2653,-88.7261,-5.6164,0.0000,-0.0000,-302.0720,63.3536,-105.5335,1441,1558,0.9078,0.1396,-0.5645,10.1073,-4.2782,1.3544,4.2742,0.0012,-0.3394,10.1868,-6.9545,0.8069,4.1054
458.4341,-2.7830,-0.2537,-88.6460,-6.8225,0.0000,-0.0000,-320.2367,66.5385,-118.9062,1434,1565,0.9672,0.0510,-0.5836,9.7386,-7.1103,0.4689,4.3734,0.2000,-0.7010,9.7655,-6.5347,0.6008,4.2886
458.4525,-2.9259,-0.2467,-88.5655,-6.2156,-0.0680,-0.5908,-334.9894,69.4275,-127.9951,1429,1570,0.9960,0.0941,-0.6124,9.7961,-5.9423,1.0872,4.3963,-0.0706,-0.4544,10.0743,-6.4889,0.2497,4.3955
458.4709,-3.0822,-0.2617,-88.5065,-5.5935,-0.3846,-2.0283,-348.8265,72.5827,-133.9628,1426,1573,1.0000,0.1252,-0.7656,10.0259,-5.6752,-0.1571,2.3582,0.2455,-0.6794,9.7942,-5.5118,0.1428,4.1894
458.4894,-3.2166,-0.2643,-88.4293,-6.1545,-1.0168,-5.2571,-354.9991,75.3038,-137.0517,1424,1575,1.0000,0.1635,-0.6076,9.5375,-5.7591,1.1864,4.2131,0.1257,-0.5884,9.7702,-6.5500,0.8985,4.2276
458.5079,-3.3558,-0.2651,-88.3543,-6.1889,-1.7727,-7.3237,-365.0609,78.1204,-141.2773,1422,1577,1.0000,0.0510,-0.6794,10.0427,-6.2706,-0.1495,4.0757,0.2071,-0.6746,9.8157,-6.1072,-0.2312,4.0062
458.5263,-3.4481,-0.2791,-88.2839,-4.9599,-2.0223,-2.3870,-389.9053,80.0018,-149.1744,1417,1582,1.0000,0.1204,-0.5884,10.0499,-5.1026,-0.1876,4.0452,0.1760,-0.6962,9.7511,-4.8171,-0.0709,3.5482
458.5447,-3.5343,-0.2785,-88.2172,-4.7271,-2.1477,-1.2216,-403.1766,81.7603,-153.7696,1415,1584,1.0000,0.0582,-0.5884,9.8679,-4.6599,0.2551,3.7017,-0.0395,-0.6627,10.0168,-4.7942,-0.5137,3.5329
458.5632,-3.6541,-0.2980,-88.1510,-4.8225,-2.2956,-1.4855,-416.2099,84.1941,-158.6358,1412,1587,1.0000,0.0462,-0.7632,10.0499,-4.9118,-1.2640,3.4879,0.2000,-0.8398,9.9737,-4.7332,-1.2923,3.5100
458.5817,-3.8042,-0.3320,-88.0918,-4.8683,-2.4428,-1.5281,-433.3614,87.2342,-164.9583,1409,1590,1.0000,0.2018,-0.9045,9.8703,-6.1484,-0.4395,3.2131,0.1688,-0.7417,9.6721,-3.5881,-0.1702,3.1131
458.6002,-3.9110,-0.3326,-88.0349,-3.0286,-1.8195,5.2396,-465.1348,89.4079,-174.9417,1403,1596,1.0000,0.0103,-0.8997,9.9780,-3.1179,-0.3174,3.0223,0.0252,-0.9595,9.9307,-2.9393,-1.3534,2.9985
458.6187,-3.9855,-0.3754,-87.9819,-2.4484,-1.1511,4.3414,-471.1277,90.9388,-177.3852,1402,1597,1.0000,0.1707,-0.8183,10.0211,-2.7439,-1.4701,2.8773,0.0635,-0.8422,9.6625,-2.1530,-0.9793,2.6321
458.6374,-4.0416,-0.4436,-87.9316,-1.6126,-0.4935,2.6263,-472.6470,92.1017,-178.3920,1401,1598,1.0000,0.3120,-0.8159,9.9757,-1.7668,-0.9739,2.6788,0.0156,-0.7153,9.8301,-1.4584,-1.2312,2.5329
458.6558,-4.0688,-0.4792,-87.8890,-0.2423,-0.0299,0.2638,-468.9663,92.6852,-177.6532,1402,1597,1.0000,0.1061,-0.8087,10.0116,-0.3545,-1.7373,2.3124,0.2143,-1.0026,9.9857,-0.1301,-1.7350,2.0215
458.6743,-4.0654,-0.5085,-87.8546,0.9905,0.0000,0.0000,-467.8141,92.6577,-177.3168,1402,1597,1.0000,0.1444,-0.7728,9.9565,0.9737,-1.1876,1.9612,0.0826,-0.9739,9.8062,1.0073,-0.8495,1.5863
458.6927,-4.0637,-0.5474,-87.8279,1.9180,0.0000,0.0000,-467.6215,92.6648,-177.2664,1402,1597,1.0000,0.1516,-0.8638,9.9230,1.8058,-1.3937,1.5643,0.1569,-0.8039,9.9426,2.0302,-1.5824,1.0520
458.7112,-4.0000,-0.5886,-87.8093,3.3531,0.0000,0.0000,-460.2900,91.4307,-174.5965,1403,1596,1.0000,0.1492,-0.6890,9.9110,3.3248,-1.5998,1.1139,0.0803,-0.9835,9.7319,3.3813,-1.7885,0.6245
458.7297,-3.9646,-0.6110,-87.7949,2.7653,0.0000,0.0000,-456.2133,90.7618,-173.1206,1404,1595,1.0000,0.0845,-0.7488,9.7937,1.6760,-1.4395,0.8009,0.1186,-0.7728,9.7295,3.8546,-1.4526,0.5176
458.7481,-3.9023,-0.6703,-87.7705,4.8722,0.0000,0.0000,-449.0446,89.5550,-170.5100,1406,1593,1.0000,0.2282,-0.8183,9.9637,4.8287,-1.9892,2.2666,0.2071,-0.8350,9.7678,4.9157,-1.8343,-0.0702
458.7665,-3.8187,-0.7259,-87.7737,5.4523,0.0000,0.0000,-439.4331,87.9228,-167.0027,1408,1591,1.0000,0.2856,-0.7560,9.9397,5.2256,-1.2029,-0.0540,0.2119,-0.8015,9.6505,5.6790,-0.9335,-0.4900
458.7850,-3.7427,-0.8054,-87.7821,6.3531,0.0000,0.0000,-430.6804,86.4391,-163.8100,1409,1590,1.0000,0.3718,-0.8614,9.9373,6.1798,-1.3174,-0.4510,0.0348,-0.6722,9.7224,6.5264,-1.7656,-0.7419
458.8034,-3.6532,-0.8702,-87.7959,6.9180,0.0000,0.0000,-420.3771,84.6850,-160.0481,1411,1588,1.0000,0.3144,-0.8111,9.7195,6.6302,-1.5311,-0.9243,0.1042,-0.7872,9.6122,7.2058,-1.3152,-0.8182
458.8218,-3.5655,-0.9147,-87.7984,7.4027,0.1166,1.3600,-414.2066,82.9675,-157.4616,1413,1586,1.0000,0.2066,-0.8542,9.7841,7.3706,-1.5617,-1.0235,0.1233,-0.7608,9.9019,7.4348,-1.9717,0.5634
458.8402,-3.4991,-0.9646,-87.8232,7.5821,0.9835,8.5827,-427.3625,81.6737,-160.4983,1411,1588,1.0000,0.2617,-0.9284,9.5184,7.2867,-1.3937,-1.3518,0.2431,-0.7489,9.5308,7.8775,-1.2389,-1.6579
458.8587,-3.3977,-0.9981,-87.8555,8.4790,2.6705,21.0022,-451.4688,79.6809,-166.2517,1408,1591,1.0000,0.1994,-0.8542,9.7482,8.3401,-1.1647,-1.7105,0.1904,-0.8398,9.6553,8.6180,-1.4526,-2.0854
458.8771,-3.2632,-1.0091,-87.8917,8.6203,4.4154,27.1882,-453.8066,77.0236,-165.5776,1408,1591,1.0000,0.0845,-0.6866,9.6716,8.5081,-1.3403,-1.9319,0.0563,-0.7896,9.6122,8.7325,-1.6511,-2.2534
458.8956,-3.1526,-1.0263,-87.9297,8.6661,5.6518,27.3442,-441.5233,74.8422,-161.0476,1411,1588,1.0000,0.0989,-0.7800,9.6692,8.4546,-1.6838,-2.0388,0.1617,-0.6866,9.4590,8.8775,-1.6053,-2.4137
458.9140,-2.9931,-1.0486,-87.9759,9.6317,6.3391,31.5810,-435.3739,71.6827,-157.7461,1413,1586,1.0000,0.1659,-0.6100,9.6524,9.3554,-1.3556,-2.4510,0.1329,-0.8566,9.5428,9.9081,-0.9564,-2.7724
458.9324,-2.8041,-1.0707,-88.0238,10.4409,6.9544,33.3867,-418.8214,67.9301,-151.2351,1416,1583,1.0000,0.1946,-0.5238,9.6812,10.3325,-0.8136,-2.5197,0.0826,-0.5597,9.4638,10.5493,-0.9717,-2.8182
458.9508,-2.6410,-1.1094,-88.0784,9.8073,7.3823,23.1981,-370.7067,64.6940,-136.1449,1425,1574,1.0000,0.2784,-0.5597,9.6117,9.9813,-0.8060,-2.9243,0.1281,-0.4448,9.6050,9.6332,-0.8343,-3.1465
458.9692,-2.4659,-1.1328,-88.1368,10.2348,7.8102,23.2458,-350.7024,61.2180,-128.8057,1429,1570,1.0000,0.2090,-0.5118,9.6931,9.9126,-0.8976,-3.1075,0.1018,-0.4951,9.6529,10.5569,-0.9182,-3.3984
458.9877,-2.3116,-1.1562,-88.1994,9.8722,8.1195,16.7394,-314.2038,58.1544,-117.0543,1435,1564,1.0000,0.2282,-0.5429,9.4824,9.8058,-0.5846,-3.2907,0.2239,-0.3634,9.5500,9.9386,-0.6969,-3.6427
459.0062,-2.1073,-1.1585,-88.2644,11.3493,8.6040,26.2468,-318.0804,54.0902,-116.1076,1436,1563,1.0000,0.1563,-0.4184,9.5806,11.4012,-0.3708,-3.6037,0.2024,-0.3083,9.6074,11.2974,-0.4831,-3.4976
459.0246,-1.9415,-1.1696,-88.3348,8.3493,8.5658,-2.0739,-217.4337,50.7930,-86.2779,1452,1547,1.0000,0.2114,-0.3035,9.4801,8.5691,-0.2640,-3.7792,0.0707,-0.2341,9.7583,8.1294,-0.2694,-3.8869
459.0430,-1.8059,-1.2040,-88.4032,7.0745,8.3421,-12.1301,-172.8664,48.0987,-72.4520,1460,1539,1.0000,0.3503,-0.3107,9.6860,7.3325,-0.1724,-3.7792,0.0683,-0.3993,9.6721,6.8165,0.1886,-3.6274
459.0616,-1.7545,-1.1823,-88.4730,5.4638,7.9103,-23.2788,-134.8434,47.0883,-61.3003,1466,1533,1.0000,0.0941,-0.5286,9.4106,5.7218,0.0566,-3.7487,-0.0371,-0.4232,9.6457,5.2058,-0.0862,-3.9251
459.0800,-1.6665,-1.1903,-88.5416,5.0287,7.4781,-23.4381,-124.2628,45.3457,-57.4664,1468,1531,1.0000,0.2114,-0.3275,9.6405,5.2103,-0.2563,-3.5731,0.1712,-0.1790,9.6098,4.8470,-0.1015,-3.9251
459.0984,-1.5838,-1.1716,-88.6112,2.4332,6.7213,-41.1227,-63.8178,43.7080,-39.7230,1478,1521,1.0000,0.1444,-0.1144,9.4513,3.2561,0.5452,-3.7258,0.2191,-0.2245,9.7295,1.6103,0.4711,-3.7343
459.1176,-1.5497,-1.1634,-88.6794,0.7882,5.7782,-45.9679,-45.9338,43.0405,-33.8456,1481,1518,0.9844,0.1731,-0.1886,9.6524,1.0500,0.2704,-3.6495,0.2359,-0.3107,9.7583,0.5264,0.2192,-3.3908
459.1363,-1.5214,-1.1772,-88.7453,-0.9026,3.1733,-35.6012,-72.5330,42.4897,-6.9996,1496,1503,0.1684,0.3048,-0.0641,9.6069,-0.2324,0.1253,-3.5197,0.2335,-0.2509,9.9618,-1.5729,1.2573,-3.4137
459.1548,-1.5757,-1.0867,-88.8065,-0.9675,0.9432,-11.1854,-149.1013,43.5919,-12.7644,1492,1507,0.2009,-0.0855,-0.4328,9.7697,-1.6752,2.1024,-3.3060,0.2981,-0.2221,9.2555,-0.2599,1.2650,-3.2915
459.1733,-1.5984,-1.0742,-88.8661,-2.6393,0.0000,-0.0000,-183.9231,44.0611,-15.8066,1491,1508,0.2150,0.1180,-0.1551,9.4609,-1.6981,0.3925,-3.3976,0.0683,-0.1168,9.9498,-3.5805,-0.4297,-2.9785
459.1917,-1.6812,-1.0755,-88.9219,-3.7958,0.0000,-0.0000,-193.4539,45.7344,-20.7217,1488,1511,0.2690,0.1899,-0.3466,10.1025,-4.0339,-0.7678,-3.1915,0.2598,-0.3514,9.6122,-3.5576,0.9596,-2.8793
459.2102,-1.7634,-1.0913,-88.9772,-4.0820,0.0000,-0.0000,-202.9191,47.3971,-26.2395,1485,1514,0.3259,0.4245,-0.3155,9.2526,-2.3393,2.4765,-3.0388,0.3460,-0.2868,9.6601,-5.8248,2.1276,-2.8259
459.2289,-1.8728,-1.0741,-89.0316,-6.5477,0.0000,-0.0000,-215.5036,49.6031,-34.4930,1481,1518,0.4051,0.0558,-0.2461,9.8607,-6.4919,-0.4395,-3.0388,-0.0299,-0.3945,10.0384,-6.6034,-0.6587,-2.7801
459.2474,-2.0271,-1.0765,-89.0834,-5.2881,0.0000,-0.0000,-233.2620,52.7099,-47.6991,1473,1526,0.5203,0.2665,-0.5741,9.6405,-6.2477,0.4612,-2.8327,0.1449,-0.3802,9.6098,-4.3286,1.5092,-2.8259
459.2659,-2.1333,-1.0477,-89.1387,-5.6927,0.0000,-0.0000,-245.4737,54.8536,-57.6330,1468,1531,0.5993,0.1803,-0.3586,9.7410,-4.2477,3.0261,-2.9166,0.2119,-0.3155,10.0767,-7.1377,0.1886,-2.9633
459.2843,-2.2795,-1.0395,-89.1927,-7.6278,0.0000,-0.0000,-262.3033,57.8015,-72.0688,1460,1539,0.7042,0.0893,-0.3993,9.8296,-7.4614,-0.8594,-2.8327,0.0779,-0.3442,9.6936,-7.7942,-0.1244,-3.1083
459.3027,-2.4296,-1.0553,-89.2431,-7.8034,-0.0899,-1.1791,-276.1820,60.8281,-86.4539,1452,1547,0.8024,0.2784,-0.4161,9.6022,-7.6981,-0.7602,-2.7029,0.2407,-0.4520,9.8373,-7.9087,1.8069,-2.7648
459.3212,-2.6137,-1.0218,-89.2952,-8.6049,-1.2326,-12.9749,-263.3951,64.5363,-95.6822,1447,1552,0.9025,0.0318,-0.5382,9.7554,-8.2782,0.4612,-2.9395,-0.0802,-0.3969,9.9857,-8.9316,-0.1320,-2.7495
459.3397,-2.7667,-1.0081,-89.3499,-9.2958,-3.3262,-28.7679,-235.5146,67.6234,-96.0001,1447,1552,0.9624,0.1252,-0.3658,9.8128,-9.2782,-0.0502,-2.9930,0.1976,-0.2772,9.8708,-9.3133,0.7001,-2.8640
