timestamp,roll_deg,pitch_deg,yaw_deg,omega_raw,omega_filtered,alpha,tau_ff,tau_pid,tau_total,pwm_left,pwm_right,deadzone_factor,accel1_x,accel1_y,accel1_z,gyro1_x,gyro1_y,gyro1_z,accel2_x,accel2_y,accel2_z,gyro2_x,gyro2_y,gyro2_z
79.3669,-1.1288,1.1864,127.3537,-1.5307,0.0000,0.0000,-129.8933,22.7762,-0.5689,1499,1500,0.0119,-0.0553,-0.0143,9.8397,-1.9269,-0.2019,-0.3457,-0.0286,0.0064,10.0758,-1.1345,-0.0435,-0.1255
79.3867,-1.1087,1.1323,127.3488,-0.4849,0.0000,0.0000,-127.5815,22.3855,-0.4010,1499,1500,0.0085,-0.0098,-0.0669,9.9954,-0.7743,-0.5226,-0.3762,-0.1842,-0.0438,10.2194,-0.1956,-0.5015,-0.2094
79.4056,-1.0970,1.1326,127.3421,0.1372,0.0000,0.0000,-126.2350,22.1624,-0.3173,1499,1500,0.0068,-0.1918,-0.1555,10.2372,0.0807,1.0347,-0.4297,-0.0501,-0.1013,9.9656,0.1937,-0.6084,-0.2934
79.4250,-1.0905,1.1383,127.3356,-0.1223,0.0000,0.0000,-125.4811,22.0423,-0.2749,1499,1500,0.0060,-0.2013,-0.1555,10.3473,0.1418,-0.1790,-0.4678,-0.1363,-0.1157,9.9082,-0.3865,0.8268,-0.2171
79.4437,-1.1323,1.1410,127.3256,-0.7483,0.0000,0.0000,-130.2883,22.8891,-0.6010,1499,1500,0.0125,-0.0840,-0.3255,10.1725,-0.2476,1.1492,-0.6205,-0.1818,-0.1779,9.9872,-1.2490,1.7504,-0.3545
79.4623,-1.1527,1.1509,127.3163,-1.4430,0.0000,-0.0000,-132.6432,23.3099,-0.8101,1499,1500,0.0166,-0.0673,-0.1651,9.9810,-1.1254,1.8362,-0.5594,-0.0118,-0.1635,9.9680,-1.7605,2.2695,-0.3697
79.4808,-1.1488,1.1704,127.3068,-1.1262,0.0000,0.0000,-132.1921,23.2430,-0.7676,1499,1500,0.0158,-0.0984,-0.0813,9.8661,-1.1560,1.8591,-0.6587,-0.1172,-0.1420,9.9872,-1.0964,2.5443,-0.3468
79.4993,-1.1411,1.2031,127.2955,0.2555,0.0000,0.0000,-131.3075,23.1007,-0.6877,1499,1500,0.0142,-0.1870,-0.1867,9.9930,-0.1483,2.0881,-0.7579,-0.3446,-0.1947,9.9010,0.6594,1.8191,-0.4079
79.5177,-1.1216,1.2535,127.2852,1.7288,0.0000,0.0000,-129.0624,22.7217,-0.5055,1499,1500,0.0106,-0.2899,-0.2561,9.8924,1.5540,0.9278,-0.5213,-0.0597,-0.1659,9.7190,1.9036,2.7123,-0.4995
79.5362,-1.0748,1.2563,127.2587,2.6486,0.0000,0.0000,-123.6716,21.7955,-0.1861,1499,1500,0.0041,-0.1846,-0.2010,9.8661,2.5616,0.2866,-2.4984,-0.0621,-0.1635,10.1476,2.7357,0.8420,-0.4155
79.5546,-1.0501,1.2509,127.2521,2.8051,0.0000,0.0000,-120.8374,21.3134,-0.0824,1499,1500,0.0019,-0.0721,-0.3135,9.8254,2.8135,1.2408,-0.3915,0.0504,-0.1420,10.4085,2.7968,1.5748,-0.2094
79.5731,-0.9892,1.2584,127.2447,2.2555,0.0000,0.0000,-113.8268,20.1048,-0.0000,1500,1500,0.0000,-0.1511,-0.0861,9.7942,1.9585,1.0958,-0.6434,-0.0812,-0.2857,9.8914,2.5525,1.2313,-0.1713
79.5915,-0.9339,1.2376,127.2198,2.9731,0.0000,0.0000,-107.4665,18.6879,-0.0000,1500,1500,0.0000,0.0381,-0.1651,9.9547,2.9662,1.5614,-2.5136,-0.1172,-0.2258,9.8531,2.9800,2.0405,-0.2018
79.6100,-0.8759,1.2670,127.2120,3.6448,0.0000,0.0000,-100.7881,17.5266,-0.0000,1500,1500,0.0000,-0.1918,-0.2034,9.8349,3.3631,1.7370,-0.4526,-0.2393,-0.2306,9.8746,3.9265,1.9184,-0.3239
79.6285,-0.8283,1.3252,127.2084,4.6105,0.0000,0.0000,-95.3170,16.5752,-0.0000,1500,1500,0.0000,-0.3091,-0.3303,9.8756,4.4929,1.8439,-0.1854,-0.1196,-0.1612,9.9967,4.7281,2.4222,-0.0491
79.6469,-0.7310,1.3371,127.2058,4.9998,0.0000,0.0000,-70.0960,14.6273,-0.0000,1500,1500,0.0000,-0.0266,-0.1196,9.8900,4.8440,2.6148,-0.1548,0.0025,-0.0989,9.5754,5.1555,3.3535,-0.0568
79.6654,-0.6182,1.3366,127.2058,5.3738,0.0000,0.0000,-59.2797,12.3702,-0.0000,1500,1500,0.0000,0.0213,-0.0598,9.6745,5.5845,2.9278,0.0589,-0.0310,-0.0798,9.5466,5.1632,2.8573,-0.0110
79.6838,-0.5259,1.3374,127.2035,4.5151,0.0034,0.0155,-50.4629,10.5226,-0.0000,1500,1500,0.0000,-0.0625,-0.0622,9.9666,4.8364,2.2026,-0.1319,-0.0741,-0.0845,9.8579,4.1937,1.8039,-0.0949
79.7022,-0.4503,1.3298,127.2024,3.5341,0.0170,0.0210,-43.2268,9.0098,-0.0000,1500,1500,0.0000,-0.1080,-0.0406,9.9954,3.7295,0.9507,-0.1625,-0.1267,-0.0869,9.8483,3.3387,1.0787,0.0348
79.7206,-0.3869,1.3089,127.2030,3.2593,0.0225,0.0075,-37.1225,7.7428,-0.0000,1500,1500,0.0000,-0.1271,-0.0622,9.7081,3.4471,0.0805,-0.1472,-0.1603,-0.0199,9.5466,3.0716,-0.0358,0.1952
79.7390,-0.3190,1.3097,127.2055,2.6296,0.0051,-0.0070,-30.5678,6.3822,-0.0000,1500,1500,0.0000,-0.1678,0.0264,9.8254,2.7906,0.0042,-0.0251,-0.1555,-0.0127,9.8268,2.4685,1.3611,0.2486
79.7575,-0.2597,1.3482,127.2279,2.1868,0.0000,-0.0000,-24.9035,5.1967,-0.0000,1500,1500,0.0000,-0.1606,0.0312,9.8014,2.2334,2.3400,0.0818,-0.1770,0.0136,9.6256,2.1403,3.2771,2.2868
79.7760,-0.2092,1.3616,127.2345,2.2135,0.0000,-0.0000,-20.0619,4.1864,-0.0000,1500,1500,0.0000,-0.1247,0.0001,9.5309,2.2715,1.0958,0.2039,-0.3422,-0.0534,9.4724,2.1555,2.6130,0.4929
79.7944,-0.1818,1.4012,127.2589,1.9006,0.0000,-0.0000,-17.4322,3.6377,-0.0000,1500,1500,0.0000,-0.2947,-0.0717,9.6147,2.0196,1.3935,0.3490,-0.3638,-0.0941,9.6759,1.7815,1.2924,2.2944
79.8129,-0.1788,1.4482,127.2669,1.4235,0.0000,-0.0000,-17.1483,3.5784,-0.0000,1500,1500,0.0000,-0.4312,-0.1388,9.7248,1.6532,0.3477,0.3032,-0.5194,-0.1348,9.6831,1.1937,0.1550,0.6226
79.8313,-0.1747,1.4734,127.2771,1.5761,0.0000,-0.0000,-16.7551,3.4964,-0.0000,1500,1500,0.0000,-0.4144,-0.1388,9.3178,1.6456,-0.8508,0.3795,-0.4188,-0.2162,9.2833,1.5067,-0.8221,0.7753
79.8500,-0.1649,1.4865,127.2889,2.0952,0.0000,-0.0000,-15.8126,3.2997,-0.0000,1500,1500,0.0000,-0.3091,-0.1603,9.3896,2.0044,-0.4004,0.5398,-0.2201,-0.0869,9.4868,2.1861,0.1932,0.7982
79.8686,-0.1287,1.5005,127.2983,3.3471,0.0000,0.0000,-12.3454,2.5762,-0.0000,1500,1500,0.0000,-0.3043,-0.1507,9.6171,3.1570,0.1568,0.4635,-0.3518,0.0304,9.4126,3.5372,0.0176,0.6150
79.8870,-0.0601,1.5007,127.3089,4.6334,0.0000,0.0000,-5.7587,1.2017,-0.0000,1500,1500,0.0000,-0.2588,-0.0957,9.5620,4.4624,-0.9500,0.6390,-0.2776,-0.2641,9.5945,4.8044,0.7199,0.5692
79.9054,0.0314,1.4862,127.3225,5.8433,0.0670,0.5102,1.7874,-0.6285,0.0000,1500,1500,0.0000,-0.3139,-0.0837,9.5572,5.6379,-1.5989,0.6925,-0.3566,-0.1492,9.4437,6.0487,-1.5168,0.8287
79.9239,0.1370,1.4631,127.3313,7.0456,0.7074,5.6882,-0.5118,-2.7420,0.0000,1500,1500,0.0000,-0.2756,-0.1100,9.7727,6.8059,-1.6676,0.5016,-0.3470,-0.1013,9.8076,7.2853,-1.3946,0.5234
79.9424,0.2643,1.4236,127.3422,8.4120,2.2842,18.8871,-19.9899,-5.2876,-0.0000,1500,1500,0.0000,-0.1439,-0.1076,9.6793,8.0578,-1.0722,0.5398,-0.0405,-0.0582,9.6951,8.7662,-0.7152,0.7295
79.9608,0.4234,1.3700,127.3542,8.9120,4.2086,29.0847,-29.1986,-8.4732,-1.4027,1499,1500,0.3561,-0.0266,0.0145,9.7966,7.6456,-0.4462,0.7383,-0.0453,0.1669,9.7741,10.1784,-0.2877,0.6074
79.9794,0.6487,1.3190,127.3600,11.5303,6.1261,51.4918,-73.6535,-12.9801,-14.1329,1491,1508,1.0000,-0.0481,0.1246,9.7392,11.2563,-0.5989,0.5245,0.1007,0.1238,9.5849,11.8044,-0.4939,0.1188
79.9978,0.9152,1.2690,127.3635,13.4502,7.2247,59.4895,-66.0228,-18.3124,-9.3302,1494,1505,1.0000,-0.0792,0.1940,9.8541,13.0578,-0.9806,0.3032,-0.0693,0.2339,9.7070,13.8426,-0.9900,0.0959
80.0163,1.1970,1.2367,127.3613,15.1067,8.4070,64.1690,-47.0691,-23.9519,-1.2034,1499,1500,1.0000,-0.1846,0.1749,9.7918,14.7677,-1.3165,0.0207,-0.1555,0.0447,9.7980,15.4456,-1.4252,-0.1789
80.0346,1.4703,1.1762,127.3609,15.6257,9.4898,58.9298,-0.5262,-29.4335,14.5694,1508,1491,1.0000,-0.0505,0.1366,9.7440,15.7448,-1.7592,0.0513,-0.1914,0.3153,9.9249,15.5067,-1.1351,0.0425
80.0530,1.7686,1.1500,127.3571,15.6639,10.4159,50.3607,58.4750,-35.4166,34.0813,1520,1479,1.0000,-0.0816,0.3018,9.9523,15.6837,-0.5455,-0.1854,-0.1627,0.4111,9.8172,15.6441,0.4451,-0.2094
80.0714,2.0893,1.1254,127.3529,15.7708,11.2191,43.6240,114.7842,-41.8522,53.0657,1531,1468,1.0000,-0.0481,0.4430,9.7679,15.7448,0.5003,-0.0785,-0.0214,0.4135,9.5682,15.7968,0.3000,-0.4155
80.0898,2.4057,1.1212,127.3443,15.6448,11.8830,36.0889,172.8853,-48.2027,72.5093,1543,1456,1.0000,-0.1750,0.4885,9.7655,15.6608,0.2026,-0.2388,-0.1579,0.5356,9.7956,15.6288,-0.2725,-0.7056
80.1082,2.7010,1.1191,127.3318,14.2250,12.2343,19.0699,255.8905,-54.1373,98.7180,1559,1440,1.0000,-0.2827,0.5771,9.9211,14.5463,-1.0111,-0.6663,-0.4452,0.4996,9.8794,13.9036,-1.3794,-0.6293
80.1267,2.8955,1.1371,127.3181,13.2784,12.3909,8.4995,308.7108,-58.0555,115.4668,1569,1430,1.0000,-0.4312,0.2467,10.6609,13.3097,-2.0569,-0.6281,-0.4021,0.3943,10.0614,13.2471,-0.8679,-0.6064
80.1450,3.0958,1.1378,127.3036,11.4120,12.2441,-7.9964,379.2663,-62.0920,137.2406,1582,1417,1.0000,-0.2995,0.4454,9.6338,11.1647,-1.3165,-0.8342,0.1055,0.4589,10.0494,11.6594,-1.0740,-0.5987
80.1635,3.3294,1.0280,127.2868,10.2517,11.9452,-16.1537,429.6429,-66.7976,153.6988,1592,1407,1.0000,0.1961,0.7136,9.4830,10.4929,-1.5684,-0.7732,0.6346,0.6553,9.6783,10.0105,-0.9366,-0.9499
80.1821,3.4901,1.1252,127.2662,7.7631,11.3179,-33.8723,499.1605,-70.0457,174.7878,1604,1395,1.0000,-0.6515,0.6585,9.9211,8.9356,-0.3012,-1.0709,-0.4428,0.5595,9.3216,6.5906,-0.1274,-1.1713
80.2005,3.5536,1.0576,127.2420,5.3357,10.4206,-48.6241,548.9600,-71.3524,189.3850,1613,1386,1.0000,0.1554,0.4382,9.9810,6.5845,0.9965,-1.2388,0.2563,0.6816,9.8675,4.0868,-0.3946,-1.3392
80.2189,3.5886,1.0417,127.2280,1.9425,9.1489,-69.0859,611.9101,-72.0869,207.3783,1624,1375,1.0000,-0.1822,0.5963,9.5812,2.7677,-0.5836,-1.7121,-0.0477,0.3440,9.8651,1.1174,-1.3030,0.3478
80.2374,3.5411,0.9364,127.1863,-1.1872,7.5985,-84.0908,649.6655,-71.1736,217.4932,1630,1369,1.0000,0.1913,0.4813,9.5285,0.0731,-1.9653,-2.2312,-0.1076,0.5523,10.1021,-2.4475,-1.0893,-2.0568
80.2560,3.4646,0.9449,127.1398,-1.5880,6.2205,-73.9895,611.7656,-69.6775,206.1331,1623,1376,1.0000,-0.2708,0.3808,9.4782,-0.2247,-1.3470,-2.5289,-0.7277,0.2219,10.3774,-2.9513,-1.0129,-2.2247
80.2746,3.3712,0.8119,127.0830,-4.2827,2.6583,-48.5534,527.7640,-67.8436,181.6958,1609,1390,1.0000,0.3541,0.5388,9.8038,-4.7743,-2.1409,-3.2083,-0.5314,0.3823,11.0382,-3.7910,-0.8450,-2.7056
80.2930,3.1984,0.7554,127.0181,-4.4506,0.0808,-1.8209,373.2843,-64.4188,136.7290,1582,1417,1.0000,0.1386,0.1605,9.5812,-5.6140,-0.5684,-3.6434,-0.3877,0.0831,10.7342,-3.2872,0.3840,-3.2400
80.3114,3.0362,0.7398,126.9638,-5.8475,0.0000,-0.0000,349.3757,-61.2053,128.4278,1577,1422,1.0000,-0.0314,0.2946,9.8086,-6.6979,0.3553,-4.2541,-0.0286,0.3297,10.2194,-4.9971,-0.0664,-1.6598
80.3298,2.8280,0.8787,126.8880,-4.8361,0.0000,-0.0000,325.4260,-57.0712,117.1535,1570,1429,0.9791,-0.7233,-0.0286,10.0720,-4.1407,0.4927,-4.3152,-0.8474,0.0040,10.3104,-5.5315,0.6359,-3.7819
80.3483,2.6110,1.0972,126.8080,-7.5078,0.0000,-0.0000,300.4466,-52.7558,99.5867,1559,1440,0.9012,-0.9962,0.1342,10.3497,-7.7361,2.4393,-4.7503,-1.3190,-0.0606,9.8483,-7.2796,2.2237,-3.9804
80.3667,2.3808,1.2424,126.7212,-6.9277,0.0000,-0.0000,273.9609,-48.1764,77.7956,1546,1453,0.7718,-0.7855,-0.0262,10.2013,-5.7208,1.3324,-4.6052,-0.7444,0.2626,9.3455,-8.1345,0.7962,-4.6445
80.3851,2.2222,1.3110,126.6198,-5.4315,0.0000,-0.0000,255.7142,-45.0273,62.4857,1537,1462,0.6639,-0.7017,0.1509,10.3234,-6.3239,-0.4615,-5.1548,-0.4093,0.3009,8.8092,-4.5391,-3.0358,-5.5453
80.4036,2.1525,1.3775,126.5158,-3.4315,0.0000,-0.0000,247.6856,-43.6534,55.9354,1533,1466,0.6135,-0.6227,0.3760,10.2731,-3.3315,-1.0798,-5.5442,-0.4476,0.4422,8.9840,-3.5315,-0.7000,-5.6751
80.4220,2.1117,1.4917,126.4089,-1.5689,0.0000,0.0000,242.9902,-42.8585,52.1952,1531,1468,0.5834,-0.8119,0.3353,10.2396,-0.9117,0.0194,-5.6739,-0.4428,0.4087,8.5363,-2.2261,-0.5397,-5.8888
80.4404,2.0859,1.6481,126.2962,0.9502,0.0000,0.0000,240.0199,-42.3631,49.8712,1529,1470,0.5642,-1.0633,0.1653,9.9283,1.1876,-1.1638,-5.9640,-0.6391,0.6146,9.0582,0.7128,-0.6313,-6.0491
80.4589,2.1036,1.7741,126.1771,2.1830,0.0000,0.0000,242.0653,-42.7396,51.4783,1530,1469,0.5774,-0.9411,0.2682,9.8373,2.1036,-0.9577,-6.3304,-0.7612,0.3321,9.6687,2.2624,-1.0282,-6.4384
80.4773,2.1746,1.8740,126.0519,1.7326,0.0000,0.0000,250.2291,-44.1802,58.0207,1534,1465,0.6296,-0.8023,0.5508,9.6865,2.1799,-0.2935,-6.8724,-0.5385,0.6289,9.6376,1.2853,-1.0816,-6.8201
80.4960,2.2800,1.9066,125.9201,2.4998,0.0000,0.0000,262.3644,-46.3122,68.0711,1540,1459,0.7045,-0.5820,0.6777,10.1342,2.9509,-1.3623,-7.1472,-0.4380,0.7654,9.6304,2.0487,-1.2801,-7.0186
80.5146,2.3708,1.9728,125.7791,1.2364,0.0000,0.0000,272.8115,-48.1516,76.8914,1546,1453,0.7654,-0.6179,0.7279,9.8541,1.1189,-0.4157,-7.6510,-0.5673,0.9402,9.9824,1.3540,0.3306,-7.8354
80.5330,2.4804,2.0230,125.6344,2.4731,0.0000,0.0000,285.4152,-50.3670,87.5013,1552,1447,0.8326,-0.3857,0.7327,9.7464,1.6914,1.5156,-8.1854,-0.5936,0.4996,9.8459,3.2548,2.0634,-7.9117
80.5514,2.4980,2.1274,125.4843,-0.7674,0.0000,-0.0000,287.4491,-50.7455,89.2004,1553,1446,0.8426,-0.6060,0.5986,9.9020,-0.3392,2.0805,-8.3457,-0.6056,0.7175,9.5802,-1.1956,2.6588,-8.2476
80.5699,2.4798,2.1630,125.3278,-1.9086,0.0000,-0.0000,285.3484,-50.4052,87.4664,1552,1447,0.8322,-0.3618,0.5364,9.9451,-1.3926,1.8897,-8.5747,-0.4140,0.6361,9.8291,-2.4246,1.3535,-8.6369
80.5883,2.4399,2.1130,125.1678,-4.9124,0.0000,-0.0000,280.7602,-49.6321,83.6371,1550,1449,0.8086,-0.0697,0.7016,10.0193,-4.4460,0.8439,-8.9869,-0.1315,0.6720,9.8076,-5.3788,-0.0511,-8.6140
80.6067,2.3845,2.0778,125.0004,-6.1758,0.0000,-0.0000,274.3834,-48.5477,78.2678,1546,1453,0.7742,-0.2205,0.7255,9.9547,-5.4537,-0.6752,-9.3610,-0.1866,0.7079,9.8291,-6.8979,-0.5320,-9.0339
80.6251,2.2725,2.0595,124.8224,-7.8743,0.0000,-0.0000,261.4925,-46.3299,67.3994,1540,1459,0.6993,-0.2708,0.5915,9.7631,-7.2323,-0.4691,-9.6816,-0.1794,0.4111,9.6113,-8.5162,-0.2954,-9.7056
80.6436,2.1112,2.0340,124.6437,-9.4620,-0.3652,-5.7095,259.3818,-43.1263,54.9196,1532,1467,0.5831,-0.2109,0.4765,9.8541,-8.8277,-0.2325,-9.9945,-0.0046,0.6289,9.5275,-10.0964,0.1779,-9.4003
80.6620,1.8911,1.9502,124.4791,-11.1643,-2.9000,-37.8707,326.6766,-38.7428,46.4037,1527,1472,0.4187,0.1267,0.3233,10.0528,-10.4308,0.7446,-10.1854,-0.0214,0.3584,9.6304,-11.8979,0.4298,-7.5300
80.6804,1.7008,1.8421,124.2758,-11.0498,-5.4929,-49.6866,338.8041,-34.9531,103.7986,1562,1437,0.9240,0.1889,0.4119,9.6434,-10.7514,-0.0493,-12.2388,0.0145,0.3967,9.9656,-11.3483,-0.1885,-9.6674
80.6989,1.5089,1.7915,124.0893,-10.6872,-6.4282,-40.7146,290.8855,-31.1307,97.0133,1558,1441,1.0000,-0.0768,0.3473,9.8948,-10.7056,-0.5378,-10.4068,-0.2967,0.3991,10.1500,-10.6689,0.0023,-9.7667
80.7173,1.3558,1.7203,123.9038,-10.5918,-7.0527,-33.9897,253.9032,-28.0827,85.1343,1551,1448,1.0000,0.0979,0.4718,9.5524,-10.8506,0.1034,-10.5213,-0.1674,0.3033,9.7190,-10.3330,1.0558,-9.8048
80.7357,1.1991,1.7193,123.7143,-9.9315,-7.4846,-23.4458,171.2567,-24.9612,60.4325,1536,1463,1.0000,-0.1559,0.3664,9.3202,-10.2323,1.1492,-10.6052,-0.2728,0.2578,9.8842,-9.6307,1.2695,-10.0873
80.7541,0.9973,1.6161,123.5239,-9.9391,-7.8527,-20.0136,143.6661,-20.9347,50.6939,1530,1469,1.0000,0.2464,0.1437,9.7871,-10.1025,0.8057,-10.5671,-0.0238,0.1788,10.1117,-9.7758,0.0329,-10.0644
80.7725,0.8150,1.5071,123.3307,-9.1185,-8.0426,-10.3193,102.9168,-16.3080,36.9707,1522,1477,1.0000,0.0596,0.1318,9.9499,-9.1789,-1.5531,-10.7579,0.1223,0.0878,10.0758,-9.0582,-2.8755,-10.0720
80.7909,0.6812,1.3965,123.1340,-8.0307,-8.0408,0.0967,65.0850,-13.6300,25.0388,1515,1484,1.0000,0.0093,0.2323,9.9092,-8.1025,-3.4691,-10.9182,0.1007,0.2028,10.0111,-7.9590,-2.4939,-10.3621
80.8093,0.5539,1.3905,122.9356,-8.0689,-8.0450,-0.2286,53.6594,-11.0829,20.5661,1512,1487,1.0000,-0.3019,0.2395,9.9570,-7.5605,-1.4233,-10.9411,-0.0382,0.2914,9.5969,-8.5773,-0.6694,-10.5911
80.8277,0.4453,1.3313,122.7345,-7.5613,-7.9725,3.9514,33.2165,-8.9104,13.7558,1508,1491,1.0000,0.0692,0.2587,10.0145,-7.2705,-0.1561,-11.2159,0.2922,0.4757,9.7047,-7.8521,0.7962,-10.7438
80.8461,0.3636,1.3205,122.5310,-5.1605,-7.5507,22.9383,-20.1862,-7.2756,-2.0144,1498,1501,1.0000,-0.0002,0.1701,10.4814,-5.1178,1.9965,-11.2465,0.1175,0.1980,9.7501,-5.2032,2.0405,-10.9270
80.8646,0.3220,1.3056,122.3280,-2.1376,-6.7387,43.9303,-74.5550,-6.4434,-17.6537,1489,1510,1.0000,-0.0314,0.0767,10.2396,-1.7972,1.5385,-11.1472,0.0648,0.0591,9.6448,-2.4781,1.3306,-10.8125
80.8830,0.2591,1.4028,122.1236,-2.7254,-6.1367,32.6653,-53.5546,-5.1839,-12.4033,1492,1507,1.0000,-0.5365,0.0097,9.8565,-1.0415,0.7294,-11.1701,-0.2943,0.0615,9.4461,-4.4094,2.6817,-10.9575
80.9014,0.2089,1.4588,121.9197,-2.7025,-5.3758,26.8209,-44.3420,-4.1794,-9.1711,1494,1505,0.8882,-0.3618,0.0600,9.6961,-2.1254,1.0500,-11.3686,-0.2464,0.1621,9.7837,-3.2796,2.1397,-10.7972
80.9199,0.1899,1.4613,121.7129,-3.0117,-4.3735,17.6848,-24.2361,-3.7994,-2.1349,1498,1501,0.4369,-0.0768,0.2252,9.6410,-3.2018,2.2408,-11.3762,0.0025,0.3344,9.6951,-2.8216,1.9794,-11.0491
80.9383,0.1744,1.3968,121.5093,-1.2445,-2.6217,18.3720,-27.3678,-3.4901,-0.0000,1500,1500,0.0000,0.0405,0.0935,9.4758,-1.5682,0.3095,-11.2388,0.0385,-0.1157,9.8244,-0.9208,-0.6236,-10.8659
80.9567,0.1583,1.3447,121.3037,-0.1567,-0.9588,8.8216,-5.9940,-3.1672,-0.0000,1500,1500,0.0000,-0.1175,-0.0071,9.6626,-0.3926,-1.3775,-11.3457,-0.1148,-0.0247,10.1500,0.0792,-1.5473,-10.8888
80.9753,0.1493,1.3030,121.0994,0.4731,-0.0898,0.9742,11.9753,-2.9868,0.0000,1500,1500,0.0000,-0.1870,-0.0334,9.6985,0.5387,-1.9806,-11.0861,-0.1866,-0.0175,9.7118,0.4074,-1.5778,-10.7972
80.9938,0.1434,1.2227,120.8998,1.0799,0.0000,0.0000,13.7513,-2.8696,0.0000,1500,1500,0.0000,0.1267,-0.0717,9.7104,0.8288,-0.7058,-10.7961,-0.0405,-0.0654,9.7573,1.3311,0.1397,-10.7056
81.0123,0.1627,1.1543,120.7000,1.9158,0.0000,0.0000,15.5983,-3.2550,0.0000,1500,1500,0.0000,0.1937,-0.0310,9.6961,1.9356,0.9660,-10.7961,0.2013,-0.0199,9.7382,1.8960,1.0405,-10.8125
81.0307,0.1705,1.0565,120.5025,2.1639,0.0000,0.0000,16.3530,-3.4125,0.0000,1500,1500,0.0000,0.3158,-0.1052,9.8828,2.3555,0.7065,-10.8419,0.2132,-0.0965,9.8651,1.9723,0.4832,-10.4919
81.0497,0.1903,0.9774,120.2984,2.4425,0.0000,0.0000,18.2458,-3.8074,0.0000,1500,1500,0.0000,0.1602,-0.0789,9.9666,2.5769,-0.1638,-10.9564,0.0097,0.0328,9.7454,2.3082,-0.4175,-10.4461
81.0682,0.2087,0.9409,120.1028,2.8967,0.0000,0.0000,20.0101,-4.1756,0.0000,1500,1500,0.0000,-0.0649,-0.1148,9.7655,2.7830,-0.8813,-10.7350,-0.1196,-0.0798,9.5945,3.0105,-0.7687,-10.3087
81.0866,0.2527,0.8961,119.9131,3.9006,0.0000,0.0000,24.2298,-5.0562,0.0000,1500,1500,0.0000,0.0237,-0.0789,9.9523,3.8135,-0.5149,-10.3533,0.0552,-0.1612,10.0901,3.9876,-0.0816,-10.1713
81.1050,0.3164,0.8346,119.7230,4.6601,0.0000,0.0000,30.3430,-6.3318,0.0000,1500,1500,0.0000,0.1291,-0.0478,9.9211,4.7143,-0.0493,-10.4297,0.2755,-0.0390,9.9513,4.6059,-0.0816,-10.1178
81.1235,0.3793,0.7623,119.5551,4.9464,0.0000,0.0000,36.3736,-7.5903,0.0000,1500,1500,0.0000,0.2248,-0.0693,9.8804,4.9662,0.1416,-8.3991,0.1941,-0.0031,9.8818,4.9265,0.4832,-9.8048
81.1419,0.4428,0.7600,119.3713,4.7708,0.0000,0.0000,42.4616,-8.8607,0.0000,1500,1500,0.0000,-0.0529,-0.0406,9.9786,5.3173,0.6225,-10.0098,-0.0836,-0.0965,9.9920,4.2242,0.8191,-9.8735
81.1603,0.4554,0.7989,119.1903,3.6334,0.0000,0.0000,43.6645,-9.1117,0.0000,1500,1500,0.0000,-0.2085,-0.1699,9.8709,4.0502,0.8591,-9.9182,-0.1722,-0.1276,9.7884,3.2166,1.4756,-9.6751
81.1788,0.4600,0.8161,119.0068,2.6677,0.0000,0.0000,44.1105,-9.2047,0.0000,1500,1500,0.0000,-0.0649,-0.1148,9.7942,2.8288,1.6148,-9.9640,-0.1459,-0.2497,9.6041,2.5067,1.7352,-9.8812
81.1972,0.4585,0.8269,118.8272,2.5074,0.0000,0.0000,43.9672,-9.1748,0.0000,1500,1500,0.0000,-0.0673,-0.1340,9.7272,2.7448,1.4240,-9.8877,-0.1267,0.0088,9.4820,2.2700,1.2313,-9.4842
81.2157,0.4757,0.8314,118.6511,3.0189,0.0000,0.0000,45.6171,-9.5191,0.0000,1500,1500,0.0000,-0.0984,-0.0861,9.5668,2.9967,0.7904,-9.6281,-0.1052,-0.0917,9.5921,3.0410,0.4756,-9.3697
81.2341,0.5028,0.8386,118.4803,2.7975,0.0000,0.0000,48.2175,-10.0618,0.0000,1500,1500,0.0000,-0.1367,-0.0191,9.7272,3.0731,0.5767,-9.3533,-0.1627,-0.1612,9.6041,2.5219,0.1092,-9.1331
81.2525,0.4794,0.8526,118.3109,2.5303,0.0000,-0.0000,45.9683,-9.5924,0.0000,1500,1500,0.0000,-0.2516,-0.2274,9.6937,2.7906,-0.3623,-9.2235,-0.2824,-0.1947,9.4126,2.2700,-0.9213,-9.0339
81.2711,0.4322,0.8973,118.1424,1.3777,0.0000,-0.0000,41.4439,-8.6483,0.0000,1500,1500,0.0000,-0.4288,-0.2417,9.7488,1.7677,-1.1409,-9.2159,-0.3614,-0.2641,9.7908,0.9876,-0.7992,-8.7438
81.2896,0.3806,0.9192,117.9801,0.9387,0.0000,-0.0000,36.4972,-7.6160,0.0000,1500,1500,0.0000,-0.2253,-0.2345,9.8230,0.9356,0.2408,-8.9945,-0.2057,-0.1875,9.6137,0.9418,0.3458,-8.4232
81.3080,0.3404,0.9186,117.8218,1.0112,0.0000,-0.0000,32.6407,-6.8113,0.0000,1500,1500,0.0000,-0.1343,-0.1914,9.5716,1.2715,0.2179,-8.7045,-0.1267,-0.2593,9.3288,0.7510,0.0634,-8.3468
81.3265,0.3216,0.9556,117.6652,1.3700,0.0000,-0.0000,30.8417,-6.4359,0.0000,1500,1500,0.0000,-0.3570,-0.1316,9.5500,1.5387,-0.4691,-8.6129,-0.2369,-0.1205,9.6113,1.2013,-0.4557,-8.2094
81.3449,0.3343,1.0111,117.5077,1.8280,0.0000,-0.0000,32.0527,-6.6886,0.0000,1500,1500,0.0000,-0.4192,-0.0286,9.9163,1.8669,-0.0416,-8.7197,-0.4930,-0.1348,9.7501,1.7891,0.0787,-8.3316
81.3633,0.3226,1.0614,117.3552,2.4807,0.0000,0.0000,30.9296,-6.4542,0.0000,1500,1500,0.0000,-0.4623,-0.1938,9.6362,2.3708,-0.5684,-8.4144,-0.3662,-0.1612,9.7094,2.5906,-0.9671,-8.0186
81.3818,0.3287,1.0440,117.2064,2.7860,0.0000,0.0000,31.5156,-6.5765,0.0000,1500,1500,0.0000,-0.2780,-0.1412,9.6626,3.0502,-1.3852,-8.2694,-0.2752,-0.1779,9.5634,2.5219,-3.0511,-7.6598
81.4002,0.3451,1.0668,117.0597,2.6944,0.0000,0.0000,33.0909,-6.9052,0.0000,1500,1500,0.0000,-0.3091,-0.0885,9.8709,2.8746,-0.5073,-8.0861,-0.2608,-0.0319,9.7884,2.5143,-0.0511,-7.7285
81.4186,0.3642,1.1226,116.9122,3.1257,0.0000,0.0000,34.9226,-7.2875,0.0000,1500,1500,0.0000,-0.4001,-0.1076,9.7966,3.1799,0.4240,-8.1472,-0.4093,-0.0678,9.6280,3.0716,0.4527,-7.7972
81.4371,0.3807,1.1896,116.7656,3.3319,0.0000,0.0000,36.5080,-7.6183,0.0000,1500,1500,0.0000,-0.4839,-0.1340,9.7392,3.4471,0.2408,-8.0861,-0.4452,-0.0702,9.6472,3.2166,0.0176,-7.6445
81.4556,0.4062,1.2762,116.6247,3.1830,0.0000,0.0000,38.9540,-8.1287,0.0000,1500,1500,0.0000,-0.6227,-0.0765,9.8062,3.4318,-0.2248,-7.7884,-0.4476,-0.0941,9.9465,2.9342,-0.1809,-7.3621
81.4740,0.4439,1.3148,116.4663,3.3853,0.0000,0.0000,42.5646,-8.8822,0.0000,1500,1500,0.0000,-0.3905,-0.0286,9.7033,3.4395,-0.0111,-7.8113,-0.3949,-0.0534,9.6831,3.3311,-0.0435,-9.4003
81.4924,0.4864,1.3384,116.3273,3.7975,0.0000,0.0000,46.6365,-9.7319,0.0000,1500,1500,0.0000,-0.3737,-0.0382,9.6913,3.8975,-0.3928,-7.6892,-0.4093,-0.0031,9.6424,3.6975,-0.7839,-7.2781
81.5108,0.5266,1.3401,116.1918,3.6715,0.0000,0.0000,50.4913,-10.5363,0.0000,1500,1500,0.0000,-0.3570,-0.0310,9.6793,3.8593,-1.5684,-7.4449,-0.5026,0.0136,9.8148,3.4838,-1.5320,-7.1713
81.5293,0.5653,1.3604,116.0563,3.3395,0.0016,0.0015,54.2010,-11.3111,0.0000,1500,1500,0.0000,-0.4575,-0.0023,9.8756,3.5845,-1.6294,-7.5060,-0.3925,-0.0319,9.9321,3.0945,-1.5091,-7.0720
81.5477,0.5998,1.3454,115.9208,3.0990,0.0024,0.0004,57.5174,-12.0026,0.0000,1500,1500,0.0000,-0.3067,0.0073,9.9259,3.2181,-1.6371,-7.4907,-0.2776,-0.0510,9.7765,2.9800,-1.7839,-7.1026
81.5661,0.6136,1.3062,115.7871,3.1067,0.0033,0.0005,58.8398,-12.2786,0.0000,1500,1500,0.0000,-0.1726,-0.0861,9.9140,3.2944,-1.6981,-7.2770,-0.1387,-0.1228,9.9153,2.9189,-1.2801,-7.1178
81.5845,0.6063,1.2572,115.6576,2.9769,0.0021,-0.0004,58.1440,-12.1330,0.0000,1500,1500,0.0000,-0.0361,-0.1747,9.9762,3.1189,-0.7668,-7.0861,-0.1818,-0.1348,9.9106,2.8349,-0.3412,-6.7667
81.6029,0.6278,1.2094,115.5310,2.9235,0.0007,-0.0002,60.2046,-12.5631,0.0000,1500,1500,0.0000,-0.0242,-0.0334,9.9594,3.0578,-0.5226,-6.8724,-0.1387,-0.1252,9.9489,2.7891,-0.3870,-6.7590
81.6214,0.6045,1.2116,115.4055,2.9082,0.0001,-0.0000,57.9689,-12.0966,0.0000,1500,1500,0.0000,-0.2325,-0.2441,9.9977,3.0044,-0.3241,-6.8190,-0.2464,-0.1612,10.1284,2.8120,-0.0664,-6.6140
81.6398,0.5900,1.2152,115.2842,3.1715,0.0011,0.0005,56.5768,-11.8064,0.0000,1500,1500,0.0000,-0.1918,-0.2250,9.8733,3.2715,0.3171,-6.6892,-0.3446,-0.2378,9.8148,3.0716,0.2542,-6.2705
81.6583,0.5720,1.2292,115.1654,3.4578,0.0095,0.0106,54.8282,-11.4466,0.0000,1500,1500,0.0000,-0.2875,-0.2633,9.7751,3.5998,-0.1256,-6.6281,-0.2153,-0.4197,9.7837,3.3158,-0.3335,-6.0186
81.6768,0.5539,1.2239,115.0670,3.2899,0.0161,0.0081,53.0936,-11.0833,0.0000,1500,1500,0.0000,-0.2133,-0.2657,10.0169,3.5540,-0.1790,-4.5060,-0.0621,-0.2090,9.9273,3.0258,-0.4099,-6.0262
81.6952,0.5414,1.2210,114.9559,3.4731,0.0323,0.0287,51.8451,-10.8331,0.0000,1500,1500,0.0000,-0.2444,-0.2513,9.8349,3.3784,-0.5989,-6.1090,-0.2752,-0.1971,9.7238,3.5677,-0.6465,-5.7514
81.7136,0.5335,1.2376,114.8479,4.2631,0.1196,0.3157,50.4024,-10.6758,0.0000,1500,1500,0.0000,-0.2708,-0.3016,9.8373,4.1876,0.9736,-5.9106,-0.3063,-0.1779,10.0015,4.3387,-0.7687,-5.5835
81.7321,0.5648,1.2398,114.7255,4.4158,0.2615,0.6509,52.5941,-11.3010,0.0000,1500,1500,0.0000,-0.2492,-0.1316,9.9235,4.5616,-0.4844,-5.7732,-0.2153,-0.1492,9.8411,4.2700,-0.1809,-7.3850
81.7505,0.6015,1.2139,114.6197,4.3242,0.4070,0.7516,55.8745,-12.0360,0.0000,1500,1500,0.0000,-0.1223,-0.0933,9.8541,4.5311,-0.2401,-5.7579,-0.0932,-0.0989,9.8651,4.1174,-0.5702,-5.6064
81.7690,0.6358,1.2173,114.5328,4.3395,0.5589,0.8700,58.8802,-12.7225,0.0000,1500,1500,0.0000,-0.2732,-0.1029,9.8421,4.4089,-0.5684,-5.6129,-0.0765,-0.0295,9.8842,4.2700,-0.5778,-3.6445
81.7875,0.6830,1.1904,114.4294,4.6525,0.7886,1.5135,61.8649,-13.6676,0.0000,1500,1500,0.0000,-0.1343,-0.0645,9.9116,4.7753,-0.5607,-5.5823,-0.1315,0.0136,9.8651,4.5296,-0.7000,-5.4384
81.8060,0.7511,1.1704,114.3081,4.7708,1.0484,1.9157,80.9071,-15.0288,0.0000,1500,1500,0.0000,-0.1559,0.0360,9.8182,4.8135,-0.8279,-5.7197,-0.1196,0.0017,9.8315,4.7281,-0.3488,-7.4155
81.8244,0.8224,1.1368,114.2005,4.8548,1.3231,2.2149,88.2501,-16.4556,0.0000,1500,1500,0.0000,-0.0457,0.0528,9.8278,4.8517,-0.1867,-5.8724,0.0337,0.1357,9.8890,4.8578,0.0481,-5.7590
81.8428,0.9225,1.0636,114.0967,5.4769,1.8101,4.5632,93.0125,-18.4598,0.0000,1500,1500,0.0000,0.1386,0.1485,9.8804,5.2410,-0.0340,-5.6434,0.0169,0.0854,9.8363,5.7128,-0.3794,-5.5835
81.8618,1.0206,1.0271,113.9883,4.7059,1.9546,1.3089,113.6746,-20.4230,0.0133,1500,1499,0.0003,-0.0768,0.2108,10.0432,5.1494,-0.8355,-5.9564,-0.0836,0.2052,9.9967,4.2624,-0.7000,-5.4537
81.8803,1.0909,1.0180,113.8766,3.7631,1.7129,-2.0252,131.3635,-21.8394,0.2868,1500,1499,0.0060,-0.1175,0.1868,10.0145,4.2563,-0.2859,-5.9793,-0.1076,0.2722,9.8124,3.2700,0.5367,-6.0873
81.8989,1.1452,1.0309,113.7624,2.3509,1.0460,-4.1048,143.5999,-22.9367,0.7776,1500,1499,0.0150,-0.1487,0.2443,9.7607,2.6837,0.7446,-6.2083,-0.1219,0.1645,9.5945,2.0181,1.0023,-6.1407
81.9176,1.1750,1.0528,113.6504,1.2441,0.3624,-2.2371,141.6538,-23.5451,1.1130,1500,1499,0.0216,-0.1894,0.2323,9.7009,1.5463,0.7981,-6.0327,-0.1770,0.2147,9.8339,0.9418,0.9718,-6.0110
81.9361,1.1759,1.0848,113.5369,0.2097,0.0070,-0.0619,135.4839,-23.5733,1.0857,1500,1499,0.0218,-0.2636,0.2012,10.1031,0.5692,0.7446,-6.1854,-0.2608,0.2099,10.0039,-0.1498,0.6817,-6.0491
81.9546,1.1687,1.1009,113.4245,-0.3972,0.0000,-0.0000,134.4790,-23.4413,0.9944,1500,1499,0.0201,-0.2684,0.2132,9.8637,-0.1331,0.0194,-6.1472,-0.3207,0.1716,9.7597,-0.6613,-0.4633,-5.9804
81.9731,1.1349,1.1343,113.3090,-1.0651,0.0000,-0.0000,130.5956,-22.7777,0.6254,1500,1499,0.0130,-0.3689,0.1437,9.7631,-0.7895,-0.5531,-6.3915,-0.3374,0.1333,9.6544,-1.3406,-0.3106,-6.0568
81.9916,1.0948,1.1643,113.1957,-1.2750,0.0000,-0.0000,125.9833,-21.9870,0.3023,1500,1499,0.0065,-0.3163,0.1270,9.6937,-1.0567,0.0347,-6.3152,-0.2943,0.0926,9.8459,-1.4933,0.0481,-5.8659
82.0101,1.0148,1.1874,113.0816,-1.9086,0.0000,-0.0000,116.7725,-20.3963,0.0070,1500,1499,0.0002,-0.2827,-0.0119,9.8541,-1.5987,0.1797,-6.2694,-0.1722,0.0902,9.7334,-2.2185,0.2237,-5.9423
82.0286,0.9353,1.1984,112.9685,-2.7521,0.0000,-0.0000,107.6249,-18.8157,0.0000,1500,1500,0.0000,-0.2420,0.0504,9.9427,-2.4308,0.0118,-6.2999,-0.2153,0.0711,9.8459,-3.0735,0.1626,-5.8659
82.0470,0.8520,1.2064,112.8555,-2.9620,0.0000,-0.0000,98.0403,-17.0488,0.0000,1500,1500,0.0000,-0.2349,0.0360,9.7631,-2.7895,-0.0645,-6.3228,-0.2632,0.0759,9.8172,-3.1345,0.0100,-5.8583
82.0655,0.7668,1.2237,112.7437,-2.8857,0.0000,-0.0000,73.5325,-15.3444,0.0000,1500,1500,0.0000,-0.2588,0.0097,9.8278,-2.8735,0.0576,-6.0861,-0.3111,0.0136,9.8339,-2.8979,0.4222,-5.9270
82.0841,0.6907,1.2252,112.6316,-2.5078,0.0000,-0.0000,66.2293,-13.8204,0.0000,1500,1500,0.0000,-0.1678,0.0073,9.8876,-2.4918,0.2942,-6.2694,-0.2512,-0.0319,9.7980,-2.5239,0.7046,-5.6903
82.1025,0.6211,1.1989,112.5239,-1.8132,0.0000,-0.0000,59.5583,-12.4283,0.0000,1500,1500,0.0000,-0.0314,-0.0430,10.1294,-1.4842,0.5767,-6.0403,0.0576,0.0352,9.7693,-2.1422,0.6741,-5.5224
82.1210,0.5940,1.2271,112.4172,-1.0956,0.0000,-0.0000,56.9625,-11.8866,0.0000,1500,1500,0.0000,-0.2995,0.0839,10.0265,-0.9498,0.3477,-5.9793,-0.2632,0.1788,9.7813,-1.2414,0.5748,-5.5453
82.1395,0.5632,1.2650,112.3121,-1.6910,0.0000,-0.0000,54.0054,-11.2696,0.0000,1500,1500,0.0000,-0.3091,0.1198,9.8924,-1.5911,0.9049,-5.9564,-0.2943,-0.1181,9.7118,-1.7910,0.8115,-5.3468
82.1580,0.5158,1.3124,112.2095,-2.0040,0.0000,-0.0000,49.4634,-10.3218,0.0000,1500,1500,0.0000,-0.3833,0.0576,9.7033,-1.7895,0.5309,-5.6663,-0.3326,0.0376,9.7717,-2.2185,0.5367,-5.4155
82.1764,0.4503,1.3534,112.1059,-2.1758,0.0000,-0.0000,43.1749,-9.0095,0.0000,1500,1500,0.0000,-0.3570,-0.0191,9.8349,-1.9880,0.6454,-5.7579,-0.2943,-0.0486,9.7741,-2.3635,0.6741,-5.3850
82.1949,0.3810,1.4005,112.0055,-1.7636,0.0000,-0.0000,36.5319,-7.6233,0.0000,1500,1500,0.0000,-0.4360,-0.0813,9.8828,-1.8124,0.1263,-5.7045,-0.3374,-0.0917,9.8818,-1.7147,0.2466,-5.0033
82.2134,0.3125,1.4170,111.9081,-1.5422,0.0000,-0.0000,29.9643,-6.2528,0.0000,1500,1500,0.0000,-0.2899,-0.1100,9.8110,-1.4460,0.1645,-5.2617,-0.2824,-0.0845,9.8028,-1.6384,0.4145,-5.1560
82.2319,0.3019,1.4223,111.8141,-0.5117,0.0000,0.0000,28.9467,-6.0404,0.0000,1500,1500,0.0000,-0.2181,0.0623,9.9044,-0.6292,0.2637,-5.3152,-0.2704,-0.0486,9.9225,-0.3941,0.8955,-4.8430
82.2503,0.2784,1.4415,111.7206,0.2555,0.0000,0.0000,26.6989,-5.5714,0.0000,1500,1500,0.0000,-0.2636,-0.0669,9.9618,0.2868,0.8515,-5.1319,-0.1746,-0.1803,9.8627,0.2242,0.8420,-4.9041
82.2688,0.2607,1.4045,111.6288,0.6143,0.0000,0.0000,25.0001,-5.2169,0.0000,1500,1500,0.0000,-0.0146,-0.0813,9.9523,0.9051,0.6835,-5.0327,-0.1100,0.0280,9.8196,0.3235,0.6435,-4.8201
82.2872,0.2163,1.3590,111.5421,0.4120,0.0000,0.0000,20.7410,-4.3281,0.0000,1500,1500,0.0000,-0.0026,-0.1938,9.9738,0.6685,0.2332,-4.8342,-0.1148,-0.0989,9.8675,0.1555,0.2924,-4.4155
82.3059,0.1815,1.3451,111.4570,0.0876,0.0000,0.0000,17.3998,-3.6309,0.0000,1500,1500,0.0000,-0.0936,-0.1220,9.8493,0.1570,0.4851,-4.6739,-0.0597,-0.1276,9.8651,0.0181,1.3229,-4.3468
82.3244,0.1688,1.3434,111.3735,0.2975,0.0000,0.0000,16.1906,-3.3786,0.0000,1500,1500,0.0000,-0.0553,-0.0454,9.7368,0.3631,1.5919,-4.6205,-0.0956,0.0328,9.6520,0.2319,2.3153,-4.3545
82.3428,0.1615,1.3265,111.2923,0.7631,0.0000,0.0000,15.4841,-3.2312,0.0000,1500,1500,0.0000,0.0692,-0.0622,9.6530,0.8440,2.5461,-4.5365,-0.0382,-0.0199,9.6400,0.6823,2.5596,-4.1942
82.3615,0.1589,1.2967,111.2108,0.9006,0.0000,0.0000,15.2377,-3.1797,0.0000,1500,1500,0.0000,0.0836,-0.0526,9.7224,1.0044,2.2408,-4.5671,0.0456,-0.0630,9.7861,0.7968,1.7657,-4.1026
82.3800,0.1578,1.2716,111.1337,1.1067,0.0000,0.0000,15.1353,-3.1584,0.0000,1500,1500,0.0000,-0.0074,-0.0645,9.7895,1.1799,1.2179,-4.3839,0.0887,-0.0726,9.7358,1.0334,1.0939,-3.8888
82.3984,0.1462,1.2404,111.0545,0.9464,0.0000,0.0000,14.0233,-2.9263,0.0000,1500,1500,0.0000,-0.0721,-0.1005,9.8158,0.9815,0.9278,-4.3686,0.0097,-0.0726,9.5825,0.9113,-0.9900,-4.1178
82.4170,0.1357,1.2479,110.9730,0.7708,0.0000,0.0000,13.0095,-2.7147,0.0000,1500,1500,0.0000,-0.1559,-0.0813,9.6003,0.9509,0.9126,-4.5671,-0.0765,-0.0534,9.4461,0.5906,1.1703,-4.1331
82.4355,0.1275,1.2393,110.8942,0.6486,0.0000,0.0000,12.2267,-2.5514,0.0000,1500,1500,0.0000,-0.0649,-0.0669,9.7176,0.7372,1.1263,-4.3839,-0.0717,0.1788,9.6759,0.5601,1.4069,-4.0568
82.4540,0.1283,1.2360,110.8191,0.6906,0.0000,0.0000,12.3007,-2.5669,0.0000,1500,1500,0.0000,-0.0529,-0.0262,9.7607,0.7143,1.4622,-4.0556,-0.1986,-0.0247,9.7669,0.6670,1.8344,-4.0644
82.4725,0.1325,1.2479,110.7450,0.5647,0.0000,0.0000,12.7049,-2.6512,0.0000,1500,1500,0.0000,-0.1559,0.0001,9.7272,0.7677,1.2561,-4.0785,-0.1650,-0.0390,9.6759,0.3616,1.2848,-3.8965
82.4910,0.1391,1.2783,110.6718,0.5074,0.0000,0.0000,13.3389,-2.7835,0.0000,1500,1500,0.0000,-0.2181,0.0169,9.6697,0.7601,0.6759,-4.0556,-0.1076,-0.0630,9.6256,0.2548,2.6359,-3.8583
82.5094,0.1648,1.2675,110.6002,0.2937,0.0000,-0.0000,15.8056,-3.2982,0.0000,1500,1500,0.0000,-0.0864,0.1270,9.8062,0.4853,0.7294,-4.0251,-0.1172,-0.0271,9.6185,0.1021,1.2008,-3.7743
82.5279,0.1615,1.2530,110.5291,0.0151,0.0000,-0.0000,15.4848,-3.2313,0.0000,1500,1500,0.0000,-0.0361,0.0192,9.7464,0.1418,1.3400,-4.0022,0.0025,-0.0630,9.6975,-0.1116,1.3153,-3.6445
82.5464,0.1481,1.2264,110.4787,-0.8628,0.0000,-0.0000,14.1984,-2.9628,0.0000,1500,1500,0.0000,0.0022,0.0432,9.6673,-0.6292,1.0881,-3.6663,0.1007,-0.0247,9.6185,-1.0964,1.1168,-1.6293
82.5648,0.0865,1.2441,110.4127,-1.3170,0.0000,-0.0000,8.2941,-1.7308,0.0000,1500,1500,0.0000,-0.1128,-0.1483,9.7583,-1.0109,2.9507,-3.6892,-0.1650,0.1381,9.6639,-1.6231,1.0710,-3.3774
82.5833,0.0392,1.2446,110.3490,-2.3132,0.0000,-0.0000,3.7599,-0.7846,0.0000,1500,1500,0.0000,-0.1846,0.0001,9.7392,-1.9193,0.4164,-3.7350,-0.2536,-0.0438,9.4245,-2.7071,0.2161,-3.0797
82.6018,-0.0459,1.2434,110.2892,-3.0422,0.0000,-0.0000,-4.3982,0.9178,-0.0000,1500,1500,0.0000,-0.2181,-0.1220,9.7248,-2.6979,-0.3012,-3.3991,-0.2249,-0.0654,9.5993,-3.3865,0.0252,-2.9575
82.6203,-0.1419,1.2243,110.2332,-4.1796,0.0000,-0.0000,-13.6035,2.8387,-0.0000,1500,1500,0.0000,-0.1439,-0.0885,9.7272,-3.8048,-0.2477,-3.1701,-0.1483,-0.1635,9.6017,-4.5544,-0.2343,-2.8277
82.6388,-0.2391,1.2031,110.1826,-4.8895,0.0000,-0.0000,-22.9320,4.7853,-0.0000,1500,1500,0.0000,-0.1487,-0.0478,9.5381,-4.5911,-0.3623,-3.0251,-0.0573,-0.2258,9.5107,-5.1880,-0.5549,-2.3774
82.6574,-0.3894,1.1977,110.1379,-5.2827,0.0000,-0.0000,-37.3357,7.7910,-0.0000,1500,1500,0.0000,-0.2468,-0.2728,9.6673,-5.1560,-1.0722,-2.7274,-0.2464,-0.2809,9.6376,-5.4094,-0.4710,-1.8965
82.6759,-0.5202,1.2034,110.0970,-4.7025,0.0000,-0.0000,-49.8820,10.4091,-0.0000,1500,1500,0.0000,-0.2636,-0.2657,9.7751,-4.6750,-0.5455,-2.4373,-0.2417,-0.1348,9.6400,-4.7300,-0.1580,-1.8277
82.6944,-0.6443,1.2350,110.0648,-4.2178,0.0000,-0.0000,-61.7859,12.8932,-0.0000,1500,1500,0.0000,-0.3737,-0.2968,9.6937,-4.1712,-0.4462,-2.0251,-0.5050,-0.3168,9.5754,-4.2643,-0.1580,-1.2858
82.7131,-0.7931,1.3075,110.0391,-4.8743,-0.0501,-0.2421,-75.4675,15.8694,-0.0000,1500,1500,0.0000,-0.5389,-0.3686,9.7057,-4.4995,-0.2783,-1.5594,-0.6439,-0.4317,9.6544,-5.2490,0.2924,-0.9881
82.7316,-0.9569,1.3904,110.0219,-5.9353,-0.4111,-2.4945,-102.9216,19.1469,-0.0000,1500,1500,0.0000,-0.5605,-0.3782,9.6554,-5.4995,0.2179,-1.1472,-0.6128,-0.5203,9.5873,-6.3712,0.7352,-0.4995
82.7501,-1.1595,1.5111,110.0140,-6.4353,-1.1401,-6.4156,-114.9467,23.2017,-0.7911,1499,1500,0.0181,-0.7592,-0.5386,9.5740,-6.2476,0.3019,-0.6892,-0.6894,-0.6232,9.5035,-6.6231,0.2542,0.1570
82.7687,-1.3796,1.5986,110.0152,-6.3552,-1.9681,-8.3331,-134.7536,27.6180,-4.8659,1497,1502,0.0944,-0.7137,-0.6463,9.4974,-6.2552,-0.7745,-0.0022,-0.7492,-0.8507,9.4700,-6.4552,-0.9519,0.4547
82.7872,-1.5974,1.6525,110.0321,-6.3895,-2.8012,-9.6328,-156.0669,31.9889,-12.7951,1492,1507,0.2143,-0.6754,-0.6870,9.5812,-6.1941,-1.8126,0.6390,-0.6678,-0.5921,9.6927,-6.5849,-2.1351,1.4776
82.8057,-1.7902,1.6580,110.0630,-5.4697,-3.1422,-4.1142,-194.1493,35.8633,-24.9383,1485,1514,0.3450,-0.5964,-0.6894,9.5907,-5.6903,-3.3775,1.3795,-0.5625,-0.6687,9.4485,-5.2490,-3.7305,2.1341
82.8242,-1.9395,1.6361,110.1077,-3.4124,-2.5326,6.2224,-241.1031,38.8695,-39.5341,1476,1523,0.4547,-0.5461,-0.6942,9.6099,-3.7514,-4.4768,2.0284,-0.5888,-0.7765,9.8315,-3.0735,-4.4023,2.8364
82.8428,-2.0665,1.6038,110.1685,-1.9048,-1.4703,7.6305,-259.7676,41.4293,-51.3785,1469,1530,0.5498,-0.5222,-0.7732,9.9331,-1.9498,-4.7668,2.6925,-0.5338,-0.8435,10.0805,-1.8597,-4.3870,3.8974
82.8614,-2.1777,1.5965,110.2418,-1.1910,-0.5793,3.7518,-261.3879,43.6741,-60.0408,1463,1536,0.6318,-0.5341,-0.8068,10.1893,-1.2552,-3.9042,3.6085,-0.4930,-0.7741,10.2649,-1.1269,-2.6923,4.3402
82.8799,-2.2586,1.5808,110.3287,-0.7254,-0.0879,0.6525,-261.7798,45.3162,-66.1758,1460,1539,0.6896,-0.3618,-0.7206,10.1294,-0.6827,-2.3775,4.5169,-0.3494,-0.7070,10.0686,-0.7681,-1.4404,4.9280
82.8984,-2.3164,1.5790,110.4231,0.6028,0.0000,0.0000,-266.5504,46.4951,-71.3939,1457,1542,0.7294,-0.2827,-0.7469,10.1462,0.4395,-0.9195,4.9902,-0.2201,-0.6448,10.3032,0.7662,0.3000,5.4394
82.9170,-2.3495,1.5668,110.5350,1.7670,0.0000,0.0000,-270.3525,47.1794,-74.6075,1455,1544,0.7514,-0.1774,-0.7469,10.2013,1.5998,0.1797,5.8299,-0.4452,-0.5921,10.2003,1.9342,0.2313,6.4242
82.9355,-2.3467,1.5925,110.6586,3.3853,0.0000,0.0000,-270.0366,47.1480,-74.3497,1455,1544,0.7496,-0.4192,-0.7134,10.0241,3.0120,-0.4691,6.4100,-0.7301,-0.6376,10.2649,3.7586,-0.7305,7.0883
82.9540,-2.3150,1.6123,110.7779,4.2937,0.0000,0.0000,-266.3903,46.5374,-71.2848,1457,1542,0.7285,-0.4360,-0.6607,10.0744,4.0578,-1.6523,5.2955,-0.5242,-0.4556,10.6480,4.5296,-0.2801,7.7219
82.9725,-2.2359,1.6255,110.9304,4.9006,0.0000,0.0000,-257.2853,44.9773,-63.6784,1461,1538,0.6736,-0.3498,-0.4811,10.0456,4.2792,-0.6065,7.9978,-0.2704,-0.4939,10.1165,5.5219,-0.1122,8.5005
82.9910,-2.1375,1.6123,111.1003,5.4044,0.0000,0.0000,-245.9629,43.0308,-54.4550,1467,1532,0.6025,-0.3282,-0.4165,9.9331,5.4776,-2.7745,8.9520,-0.2824,-0.4532,9.6831,5.3311,-0.4328,9.3249
83.0095,-2.0407,1.6555,111.2826,5.8280,0.0000,0.0000,-234.8236,41.1152,-45.7873,1472,1527,0.5305,-0.4623,-0.4668,10.3808,5.8517,-0.2172,9.6772,-0.4859,-0.4269,10.2122,5.8044,0.3993,10.1035
83.0284,-1.9651,1.6926,111.4803,5.9006,0.0000,0.0000,-226.1272,39.6233,-39.3905,1476,1523,0.4739,-0.4048,-0.5625,10.2587,6.2486,0.4316,10.5398,-0.2321,-0.5011,9.8339,5.5525,0.4298,10.6150
83.0469,-1.8727,1.7259,111.6906,6.4502,0.0033,0.0349,-215.5932,37.7937,-32.1054,1480,1519,0.4050,-0.4001,-0.5147,10.2204,5.7982,0.0271,11.2345,-0.1650,-0.3407,9.6639,7.1021,0.6970,11.6455
83.0653,-1.7903,1.7268,111.9072,5.1525,0.1423,0.7189,-208.0767,36.1628,-26.3391,1484,1515,0.3450,-0.1894,-0.4165,10.0768,5.5387,0.5461,11.8146,-0.2057,-0.5754,9.8363,4.7662,1.3764,11.8058
83.0838,-1.7208,1.7155,112.1327,4.1715,0.2505,0.4671,-199.3527,34.7898,-21.6722,1486,1513,0.2960,-0.1008,-0.3878,10.2324,4.3555,1.0271,12.1352,-0.2273,-0.3694,9.7358,3.9876,1.5748,12.4929
83.1023,-1.6512,1.7076,112.3688,3.5494,0.2595,0.0348,-190.1011,33.4147,-17.4138,1489,1510,0.2490,-0.1199,-0.3112,9.9738,3.7601,1.1034,12.7154,-0.1219,-0.4245,9.6759,3.3387,1.3840,12.9127
83.1208,-1.5902,1.7146,112.5962,2.8204,0.1638,-0.2646,-182.2179,32.2104,-14.0854,1491,1508,0.2098,-0.3043,-0.2752,9.8756,3.2334,0.0652,11.1658,-0.2632,-0.2785,9.7908,2.4074,-0.2190,13.3173
83.1394,-1.5471,1.6816,112.8480,1.4044,0.0099,-0.0518,-177.8794,31.3652,-12.0219,1492,1507,0.1836,-0.2037,-0.2321,10.0432,2.0349,-1.5989,13.4406,-0.1722,-0.2473,10.1069,0.7739,-0.5015,13.6990
83.1579,-1.5412,1.6461,113.1006,-0.9239,0.0000,-0.0000,-177.3461,31.2621,-11.7550,1492,1507,0.1800,-0.0721,-0.1962,9.9834,-0.5758,-0.2783,13.5703,-0.1674,-0.1516,9.9201,-1.2719,0.7199,13.7371
83.1763,-1.5219,1.6336,113.3751,-1.9162,0.0000,-0.0000,-175.1265,30.8915,-10.8816,1493,1506,0.1688,-0.1630,-0.0454,9.8780,-2.0644,0.1187,13.6925,-0.0070,-0.1252,9.7238,-1.7681,0.5977,15.9280
83.1949,-1.5518,1.6247,113.6154,-3.0193,0.0000,-0.0000,-178.5691,31.5054,-12.2549,1492,1507,0.1864,-0.0625,-0.1819,10.1270,-2.7361,0.7904,13.8528,-0.1076,0.0304,10.0758,-3.3025,2.6741,12.0883
83.2134,-1.5846,1.6237,113.8753,-3.8628,0.0000,-0.0000,-182.3407,32.1767,-13.8570,1491,1508,0.2064,0.0357,-0.1220,10.1318,-3.6598,3.0347,13.9291,0.0456,-0.2665,9.8100,-4.0658,3.4069,14.2639
83.2330,-1.6276,1.6219,114.1514,-3.8628,0.0000,-0.0000,-187.2835,33.0521,-16.1096,1490,1509,0.2336,-0.0984,-0.1627,9.8110,-3.9193,1.8515,14.1047,-0.1196,-0.1803,9.7406,-3.8063,1.3687,14.1265
83.2516,-1.6281,1.6325,114.4115,-3.0536,0.0000,-0.0000,-187.3413,33.0784,-16.1389,1490,1509,0.2339,-0.2181,-0.0526,10.0217,-3.0262,0.2255,13.9826,-0.2393,-0.1516,9.9034,-3.0811,1.5977,13.9203
83.2701,-1.6674,1.6858,114.6743,-2.6949,0.0000,-0.0000,-191.8709,33.8824,-18.3567,1488,1511,0.2598,-0.2420,-0.2681,9.9140,-2.7208,2.3629,14.2421,-0.2129,-0.2545,9.6424,-2.6689,3.5138,14.2486
83.2886,-1.7186,1.6967,114.9399,-2.7598,0.0000,-0.0000,-197.7549,34.9222,-21.4490,1487,1512,0.2945,-0.1128,-0.3064,9.3298,-2.8659,1.0652,14.3871,-0.1076,-0.3503,9.2785,-2.6536,3.2848,14.5616
83.3071,-1.7366,1.7313,115.2040,-2.0460,0.0000,-0.0000,-199.8274,35.2998,-22.5958,1486,1513,0.3070,-0.2013,-0.2321,9.5452,-2.2552,2.1416,14.2726,-0.2345,-0.2665,9.5802,-1.8368,2.6970,14.5158
83.3256,-1.7126,1.7536,115.4666,-0.1147,0.0000,0.0000,-197.0718,34.8380,-21.0832,1487,1512,0.2904,-0.2612,-0.2082,9.5979,-0.6216,1.2561,14.3032,-0.2345,-0.2019,9.6448,0.3922,0.9947,14.1265
83.3441,-1.6533,1.7287,115.7287,1.7631,0.0000,0.0000,-190.2469,33.6683,-17.5543,1489,1510,0.2504,-0.2037,-0.1938,9.3154,1.3708,-0.8737,14.0360,-0.3494,-0.2761,9.2928,2.1555,-0.7152,14.1723
83.3626,-1.5703,1.6893,115.9892,3.4006,0.0000,0.0000,-180.6962,32.0240,-13.1597,1492,1507,0.1976,-0.1247,-0.2130,9.2316,3.1723,-1.2477,14.0284,-0.1962,-0.1899,9.2426,3.6288,0.0023,14.0348
83.3811,-1.4561,1.6517,116.2478,4.6601,0.0000,0.0000,-167.5583,29.7552,-8.1769,1495,1504,0.1323,0.0022,-0.1699,9.4447,4.3326,0.3706,13.8910,0.0313,0.0256,9.4126,4.9876,1.6512,14.1188
83.3996,-1.2729,1.5770,116.5031,6.3204,0.0000,0.0000,-146.4700,26.1026,-2.7447,1498,1501,0.0508,0.2296,0.0264,9.4950,6.0044,1.5767,13.8223,0.2348,-0.0510,9.4964,6.6365,1.8344,13.6990
83.4181,-1.0588,1.5265,116.7578,7.1639,0.0000,0.0000,-121.8381,21.8320,-0.1146,1499,1500,0.0025,0.0501,0.1246,9.4327,7.1036,0.7752,13.6925,0.0193,0.1214,9.4748,7.2242,0.6894,13.7066
83.4366,-0.8439,1.5098,117.0058,6.7670,0.0000,0.0000,-97.1056,17.5417,-0.0000,1500,1500,0.0000,-0.1295,0.2036,9.6434,6.9662,-0.0264,13.4253,-0.3231,0.3129,9.3790,6.5677,0.6894,13.3097
83.4552,-0.6501,1.5085,117.2554,5.0036,0.0820,0.4080,-63.3190,13.0087,-0.0000,1500,1500,0.0000,-0.1726,0.2802,9.4734,5.4395,0.4469,13.4100,-0.1124,0.2818,9.2426,4.5677,0.9413,13.2104
83.4738,-0.4713,1.4433,117.5040,3.4311,0.0956,0.0346,-45.2766,9.4308,-0.0000,1500,1500,0.0000,0.0524,0.3664,9.2388,3.7143,0.0042,13.3413,0.0241,0.4374,9.3814,3.1479,0.0100,13.1265
83.4922,-0.3168,1.3628,117.7453,1.8357,0.0072,-0.0281,-30.3069,6.3383,-0.0000,1500,1500,0.0000,0.0405,0.4406,9.4998,2.0960,-0.9882,12.9749,0.0744,0.4398,9.2785,1.5754,-1.1961,12.9585
83.5106,-0.1677,1.2880,117.9868,0.8815,0.0000,-0.0000,-16.0797,3.3554,-0.0000,1500,1500,0.0000,-0.0888,0.5196,9.5261,0.3326,-2.4233,12.8528,-0.1770,0.6361,9.3886,1.4303,-2.5320,12.9509
83.5292,-0.0618,1.2210,118.2244,-0.9849,0.0000,-0.0000,-5.9270,1.2368,-0.0000,1500,1500,0.0000,-0.2253,0.5101,9.5548,-1.4079,-3.9042,12.6085,-0.2632,0.5140,9.3790,-0.5620,-3.6618,12.7906
83.5476,-0.0215,1.1591,118.4587,-4.2178,0.0000,-0.0000,-2.0624,0.4304,-0.0000,1500,1500,0.0000,-0.2516,0.5125,9.7272,-3.6140,-4.4920,12.5703,-0.1698,0.4853,9.5658,-4.8216,-3.2572,12.6303
83.5661,-0.0414,1.0695,118.6924,-6.4544,0.0000,-0.0000,-3.9701,0.8285,-0.0000,1500,1500,0.0000,-0.0385,0.4454,10.0073,-5.8582,-3.3928,12.3261,0.0265,0.4135,9.8004,-7.0506,-2.5320,12.7677
83.5845,-0.1020,0.9725,118.9221,-7.8895,0.0000,-0.0000,-9.7786,2.0405,-0.0000,1500,1500,0.0000,0.0860,0.3688,9.8373,-7.5605,-2.7745,12.1123,-0.0190,0.4278,9.9153,-8.2185,-1.5397,12.5845
83.6030,-0.1866,0.9421,119.1617,-8.0765,0.0000,-0.0000,-17.8950,3.7342,-0.0000,1500,1500,0.0000,-0.1511,0.2682,10.0193,-8.0033,-1.9271,11.8681,-0.1770,0.2459,9.9297,-8.1498,-1.0053,13.9814
83.6216,-0.2707,0.9690,119.3838,-8.2827,-0.0063,-0.1005,-25.7153,5.4165,-0.0000,1500,1500,0.0000,-0.3785,0.2802,10.0121,-8.1407,-1.4157,11.8299,-0.3135,0.1980,9.9848,-8.4246,-0.6542,11.9509
83.6400,-0.3699,0.9699,119.6011,-8.5498,-0.8414,-9.5947,-12.4410,7.4014,-0.0000,1500,1500,0.0000,-0.2588,0.2108,9.9163,-8.4613,-1.4157,11.5245,-0.3087,0.1836,9.9704,-8.6384,-0.7458,11.9203
83.6584,-0.4487,0.9262,119.8121,-8.3933,-2.4549,-19.6609,4.1629,8.9779,-0.0000,1500,1500,0.0000,-0.0409,0.2778,9.9283,-8.3468,-1.3012,11.2574,-0.1842,0.1549,9.8890,-8.4399,-0.7458,11.5387
83.6770,-0.5467,0.9107,120.0217,-7.5460,-3.7612,-18.0198,-9.1744,10.9391,-1.2900,1499,1500,0.1605,-0.1894,0.1030,10.0121,-7.7972,-1.4310,11.2039,-0.2752,0.0519,9.8962,-7.2948,-1.1122,11.3326
83.6955,-0.6414,0.9176,120.2273,-6.2941,-4.3182,-8.5729,-49.1132,12.8341,-8.2601,1495,1504,0.4095,-0.3043,-0.0095,9.8996,-6.3315,-1.7058,10.9444,-0.2464,-0.0055,10.1141,-6.2567,-1.1503,11.2639
83.7139,-0.7390,0.9419,120.4277,-5.3170,-4.3636,-0.7233,-82.9491,14.7867,-13.2265,1492,1507,0.4320,-0.4216,-0.1292,10.0456,-5.4384,-1.9195,10.7765,-0.3614,-0.0343,10.0805,-5.1956,-1.6084,10.9661
83.7324,-0.7742,0.9476,120.6274,-3.4811,-3.5992,10.2346,-118.5648,15.4922,-4.2475,1497,1502,0.1037,-0.3450,-0.0071,10.0289,-3.8659,-2.0493,10.6009,-0.2871,-0.0295,10.0063,-3.0964,-1.7152,10.8516
83.7509,-0.7726,0.9312,120.8244,-1.2979,-2.0194,13.6105,-128.0983,15.4593,-0.0000,1500,1500,0.0000,-0.2516,-0.0310,10.0049,-1.8353,-1.8050,10.5093,-0.2010,0.0160,10.0853,-0.7605,-2.2038,10.7219
83.7693,-0.7946,0.9090,121.0155,-0.1414,-0.6236,5.7503,-107.9988,15.9006,-0.0000,1500,1500,0.0000,0.1243,-0.2896,11.9706,2.0196,2.0652,10.6238,-0.0405,-0.0247,9.8627,-2.3025,1.3000,10.2333
83.7883,-0.7517,0.9135,121.2149,0.5761,-0.0149,0.1644,-72.4788,15.0421,-0.0000,1500,1500,0.0000,-0.2947,-0.0071,9.3489,0.8440,-2.2935,10.3261,-0.1794,0.1262,9.5921,0.3082,-1.0740,10.6608
83.8071,-0.6867,0.9374,121.4082,1.5341,0.0000,0.0000,-65.8440,13.7400,-0.0000,1500,1500,0.0000,-0.3761,0.0216,10.1534,1.4166,-1.4539,10.2192,-0.2919,0.0471,10.0686,1.6517,-1.0816,10.2028
83.8259,-0.6282,0.9226,121.5985,2.5036,0.0000,0.0000,-60.2366,12.5699,-0.0000,1500,1500,0.0000,-0.1271,-0.0813,9.8421,2.5158,-1.1027,10.0360,-0.2536,0.0471,10.5977,2.4914,-0.0053,10.2410
83.8453,-0.5279,0.9207,121.7946,3.3128,0.0000,0.0000,-50.6247,10.5641,-0.0000,1500,1500,0.0000,-0.1798,0.0384,10.7423,3.1418,-0.2935,10.0436,-0.1938,0.0950,9.7765,3.4838,-0.2725,10.0730
83.8649,-0.3707,0.8795,121.9897,3.8700,0.0000,0.0000,-35.5450,7.4173,-0.0000,1500,1500,0.0000,-0.0361,0.2682,10.2563,3.7982,-1.0951,10.0436,0.0696,0.0878,9.8890,3.9418,-0.3794,9.7677
83.8838,-0.2338,0.8561,122.1780,4.0303,0.0000,0.0000,-22.4191,4.6783,-0.0000,1500,1500,0.0000,-0.0290,0.2060,10.1007,4.0196,-0.2706,9.8833,-0.1603,0.2291,9.8435,4.0410,0.4451,10.0119
83.9027,-0.1157,0.9051,122.3665,3.0189,0.0000,0.0000,-11.0989,2.3161,-0.0000,1500,1500,0.0000,-0.2851,0.2323,10.0576,3.3173,0.3935,9.9826,-0.2824,0.1525,10.3032,2.7204,1.6283,9.9051
83.9214,-0.0343,0.9287,122.5488,1.8929,0.0000,0.0000,-3.2915,0.6869,-0.0000,1500,1500,0.0000,-0.1606,0.1797,9.9642,2.0654,1.1950,9.7841,-0.0956,0.2291,10.0710,1.7204,1.2542,9.6303
83.9401,0.0323,0.9296,122.7281,0.9311,0.0000,-0.0000,3.0934,-0.6455,0.0000,1500,1500,0.0000,-0.0960,0.2132,10.1318,1.1265,0.5385,9.5780,-0.1722,0.2459,10.0901,0.7357,1.0405,9.5463
83.9589,0.0838,0.9568,122.9070,-0.1491,0.0000,-0.0000,8.0348,-1.6767,0.0000,1500,1500,0.0000,-0.1678,0.2467,10.1558,-0.0873,0.9431,9.5474,-0.1842,0.3584,10.1284,-0.2109,1.8726,9.4318
83.9775,0.1350,1.0124,123.0828,-0.8475,0.0000,-0.0000,12.9426,-2.7008,0.0000,1500,1500,0.0000,-0.2444,0.3137,9.9858,-0.5224,1.8362,9.4100,-0.1387,0.3608,9.8244,-1.1727,2.4222,9.3478
83.9959,0.1677,1.0613,123.2537,-2.0536,0.0000,-0.0000,16.0769,-3.3548,0.0000,1500,1500,0.0000,-0.2516,0.3353,9.7488,-2.0873,1.5385,9.1123,-0.1507,0.3273,9.8052,-2.0200,2.0100,9.3555
84.0143,0.2291,1.1300,123.4061,-3.0269,0.0000,-0.0000,21.9686,-4.5843,0.0000,1500,1500,0.0000,-0.3163,0.5651,9.8421,-2.6903,1.9736,7.2421,-0.1555,0.4781,9.9153,-3.3635,2.4832,9.0119
84.0327,0.2186,1.1798,123.5729,-3.7254,0.0000,-0.0000,20.9602,-4.3739,0.0000,1500,1500,0.0000,-0.2971,0.3018,10.0001,-3.4460,1.4240,8.9749,-0.0884,0.2099,9.9991,-4.0048,1.8497,9.0043
84.0511,0.2143,1.2136,123.7383,-3.9773,0.0000,-0.0000,20.5493,-4.2881,0.0000,1500,1500,0.0000,-0.2396,0.3401,9.6865,-3.9040,1.3553,8.8757,-0.1579,0.2363,9.6831,-4.0506,1.4756,8.9509
84.0696,0.2055,1.2422,123.8989,-3.0765,0.0000,-0.0000,19.7068,-4.1123,0.0000,1500,1500,0.0000,-0.2301,0.2419,9.7200,-2.1636,0.8820,8.5856,-0.3279,0.2530,9.6496,-3.9895,1.6665,8.7600
84.0880,0.1914,1.2756,124.0554,-3.7254,0.0000,-0.0000,18.3524,-3.8297,0.0000,1500,1500,0.0000,-0.2133,0.2730,9.8206,-3.6750,1.5843,8.4177,-0.2225,0.2794,9.9991,-3.7758,2.0787,8.4242
84.1064,0.2205,1.3105,124.2083,-3.0842,0.0000,-0.0000,21.1417,-4.4117,0.0000,1500,1500,0.0000,-0.2468,0.4191,9.7727,-3.1102,1.4240,8.1658,-0.1028,0.2243,9.6424,-3.0582,1.8039,8.2639
84.1248,0.2156,1.3432,124.3547,-2.4811,0.0000,-0.0000,20.6745,-4.3142,0.0000,1500,1500,0.0000,-0.3139,0.2108,9.8182,-2.6140,0.6912,7.8375,-0.3255,0.2650,9.7094,-2.3483,0.8268,7.9585
84.1433,0.2173,1.3526,124.4982,-1.3666,0.0000,0.0000,20.8406,-4.3489,0.0000,1500,1500,0.0000,-0.2277,0.1461,9.7033,-1.5682,0.2561,7.6314,-0.2441,0.0663,9.7023,-1.1651,0.8039,7.8593
84.1617,0.2177,1.3892,124.6380,-1.2636,0.0000,0.0000,20.8766,-4.3564,0.0000,1500,1500,0.0000,-0.3187,0.1318,9.8661,-1.3926,0.7752,7.5322,-0.0477,0.1573,9.8315,-1.1345,1.3764,7.5387
84.1802,0.2072,1.4030,124.7728,-0.6300,0.0000,0.0000,19.8685,-4.1461,0.0000,1500,1500,0.0000,-0.2109,0.0240,9.6219,-0.6292,0.8515,7.2650,-0.2201,0.1525,9.6544,-0.6307,1.2237,7.3555
84.1987,0.2222,1.4000,124.9066,-0.0231,0.0000,0.0000,21.3078,-4.4464,0.0000,1500,1500,0.0000,-0.1247,0.0911,9.7152,-0.1025,0.9431,7.2345,-0.1243,0.0831,9.7693,0.0563,1.4451,7.1952
84.2171,0.2350,1.4085,125.0345,0.9845,0.0000,0.0000,22.5382,-4.7032,0.0000,1500,1500,0.0000,-0.1989,-0.0047,9.7703,0.9204,0.7904,6.8299,-0.1531,0.1716,9.7573,1.0487,1.1397,7.0806
84.2355,0.2973,1.4124,125.1612,1.7021,0.0000,0.0000,28.5036,-5.9480,0.0000,1500,1500,0.0000,-0.1966,0.1701,9.7871,1.6456,0.4316,7.0207,-0.1052,0.1477,9.7166,1.7586,1.1245,6.6913
84.2540,0.3726,1.4232,125.2866,2.3166,0.0000,0.0000,35.7295,-7.4558,0.0000,1500,1500,0.0000,-0.1966,0.1868,9.8373,1.9967,0.8668,6.7077,-0.0693,0.2147,9.6400,2.6365,1.5061,6.7448
84.2728,0.4513,1.4495,125.4106,2.6525,0.0000,0.0000,43.2791,-9.0313,0.0000,1500,1500,0.0000,-0.2349,0.1773,9.5644,2.7524,1.1645,6.5093,-0.2369,0.1621,9.6089,2.5525,1.7810,6.5997
84.2913,0.5218,1.4832,125.5317,2.6296,0.0000,0.0000,50.0403,-10.4421,0.0000,1500,1500,0.0000,-0.2061,0.1605,9.5812,2.7982,2.9660,6.4787,-0.2010,0.1525,9.6783,2.4609,1.6741,6.5081
84.3098,0.6044,1.4887,125.6513,2.1028,0.0000,0.0000,57.9523,-12.0932,0.0000,1500,1500,0.0000,-0.1966,0.2778,9.7033,2.3250,0.9507,6.3642,-0.1339,0.1477,9.6879,1.8807,1.0787,6.4547
84.3282,0.6497,1.4747,125.7829,1.8395,0.0000,0.0000,62.3048,-13.0014,0.0000,1500,1500,0.0000,-0.1798,0.1390,9.6554,1.8288,-0.0340,6.1123,-0.1698,0.1501,9.5658,1.8502,0.3535,8.1341
84.3466,0.6888,1.4664,125.8785,1.7441,0.0000,0.0000,66.0469,-13.7823,0.0000,1500,1500,0.0000,-0.2133,0.1294,9.5764,1.8593,-0.2325,6.1123,-0.0597,0.1022,9.6951,1.6288,0.3153,4.2791
84.3651,0.7230,1.4206,125.9894,1.7288,0.0000,0.0000,69.3328,-14.4680,0.0000,1500,1500,0.0000,-0.0170,0.1174,9.8038,1.8975,0.2179,5.9978,-0.1076,0.0615,9.6137,1.5601,0.3840,6.0196
84.3835,0.7660,1.3910,126.1008,1.9693,0.0000,0.0000,73.4504,-15.3272,0.0000,1500,1500,0.0000,-0.0816,0.1390,9.6913,2.0883,0.0500,6.0131,-0.1483,0.2099,9.5323,1.8502,0.5977,6.0501
84.4019,0.8116,1.3488,126.2082,1.8586,0.0000,0.0000,93.3952,-16.2410,0.0000,1500,1500,0.0000,-0.0792,0.1749,9.8206,1.9051,0.4164,5.7688,-0.1914,0.0783,9.7023,1.8120,-1.1503,5.8974
84.4204,0.8681,1.3349,126.3161,1.4311,0.0000,0.0000,99.8932,-17.3710,0.0000,1500,1500,0.0000,-0.1367,0.2730,10.0600,1.3097,0.3706,5.8070,-0.2919,0.2961,9.8411,1.5525,0.4909,5.7982
84.4388,0.8794,1.3316,126.4209,1.1143,0.0000,-0.0000,101.1878,-17.5961,0.0000,1500,1500,0.0000,-0.2157,0.0935,9.7488,1.2410,-0.1180,5.6696,-0.1914,0.0998,9.6975,0.9876,0.2161,5.7295
84.4572,0.8861,1.3167,126.5239,1.1296,0.0000,-0.0000,101.9605,-17.7305,0.0000,1500,1500,0.0000,-0.1726,0.0743,9.8613,1.1189,-0.2630,5.4482,-0.1483,0.0783,9.7406,1.1403,0.1397,5.8058
84.4757,0.8969,1.2801,126.6276,1.5151,0.0000,0.0000,103.2066,-17.9472,0.0000,1500,1500,0.0000,-0.0744,0.0623,9.8972,1.6532,-0.3775,5.5703,0.0049,0.0447,9.7980,1.3769,0.1626,5.7295
84.4941,0.9203,1.2432,126.7307,2.1563,0.0000,0.0000,105.8938,-18.4144,0.0000,1500,1500,0.0000,-0.1008,0.0671,9.8900,2.0807,0.0805,5.6085,-0.1076,0.0807,9.8411,2.2319,-1.1274,5.6379
84.5125,0.9579,1.2413,126.8335,2.8777,0.0000,0.0000,110.2291,-19.1683,0.0000,1500,1500,0.0000,-0.1343,0.0767,9.9235,2.8059,0.6912,5.4482,-0.0812,0.0974,9.8268,2.9494,1.1855,5.7524
84.5310,1.0283,1.2398,126.9357,2.9387,0.0000,0.0000,118.3277,-20.5766,0.0259,1500,1499,0.0006,-0.1128,0.2371,9.8780,2.9204,0.9813,5.4635,0.0025,-0.1085,9.8315,2.9571,1.4451,5.5310
84.5495,1.0556,1.2820,127.0356,2.6868,0.0000,0.0000,121.4683,-21.1331,0.1015,1500,1499,0.0023,-0.2205,0.0576,9.9283,2.8898,2.9813,5.3337,-0.1172,0.3368,9.7525,2.4838,1.7046,5.4394
84.5679,1.0917,1.2549,127.1373,3.5838,0.0000,0.0000,125.6258,-21.8666,0.2821,1500,1499,0.0061,-0.0170,0.0312,9.8134,3.7906,1.0194,5.4711,-0.1555,0.0567,9.7884,3.3769,0.9107,5.6150
84.5863,1.1494,1.2233,127.2386,3.7822,0.0000,0.0000,132.2660,-23.0322,0.7727,1500,1499,0.0159,0.0022,0.1198,9.6745,3.5845,0.5996,5.4024,-0.1243,0.0926,9.7741,3.9800,1.1855,5.5997
84.6048,1.2062,1.2070,127.3423,4.3051,0.0000,0.0000,138.7928,-24.1787,1.5126,1500,1499,0.0297,-0.0816,0.0767,9.8421,4.0120,0.5538,5.4787,-0.0238,0.3081,9.7956,4.5983,0.9260,5.7906
84.6231,1.2830,1.1771,127.4488,5.1105,0.0089,0.0556,147.4796,-25.7291,2.9472,1501,1498,0.0544,-0.0553,0.1126,9.5836,5.0807,0.1492,5.6085,-0.0262,0.1860,9.8459,5.1403,0.3687,6.0043
84.6416,1.3763,1.1591,127.5558,5.8090,0.2604,1.6415,153.6392,-27.6073,5.2769,1503,1496,0.0929,-0.1104,0.1437,9.7416,5.8593,0.0805,5.7230,-0.1291,0.1621,9.7406,5.7586,0.3306,5.9051
84.6600,1.4694,1.1267,127.6598,5.5990,0.6930,3.1053,160.1442,-29.4853,8.3068,1504,1495,0.1394,-0.0768,0.1821,9.8445,5.7601,-0.4233,5.7535,-0.0860,0.1453,9.7597,5.4380,0.0100,5.5997
84.6784,1.5469,1.1078,127.7642,4.5799,0.8996,1.4242,173.8948,-31.0493,11.7775,1507,1492,0.1834,-0.0625,0.2132,9.9092,4.8517,0.3400,5.6161,-0.0334,0.2052,9.7358,4.3082,0.9489,5.7142
84.6969,1.6037,1.0962,127.8719,4.0952,0.9474,0.3207,183.6117,-32.2018,14.7397,1508,1491,0.2183,-0.0481,0.1653,9.7751,4.3555,1.0194,5.7917,-0.0118,0.3297,9.6424,3.8349,1.3458,5.8593
84.7154,1.6690,1.0863,127.9769,3.3738,0.7839,-0.9573,194.8127,-33.5256,18.6008,1511,1488,0.2608,-0.0768,0.2802,9.7847,3.3784,0.6454,5.6543,-0.0429,0.2291,9.9106,3.3693,1.1932,5.6684
84.7337,1.6983,1.0953,128.0800,2.6868,0.4969,-1.2968,199.1607,-34.1283,20.4365,1512,1487,0.2806,-0.1774,0.1868,10.0073,2.8288,0.8744,5.5245,0.0840,0.1908,9.5706,2.5448,0.8344,5.6837
84.7522,1.7421,1.0724,128.1824,2.8586,0.3328,-0.6320,202.2859,-35.0217,23.0520,1513,1486,0.3109,-0.0984,0.2371,9.6554,2.8059,-0.0340,5.4787,-0.1483,0.2147,9.5945,2.9113,-0.0893,5.6684
84.7706,1.7913,1.0760,128.2833,3.2135,0.2731,-0.2229,206.7636,-36.0227,26.2428,1515,1484,0.3457,-0.2708,0.2395,9.7081,3.0273,-0.6981,5.3490,-0.2800,0.2530,9.6903,3.3998,-0.6847,5.6532
84.7891,1.8435,1.0754,128.3768,3.7135,0.3064,0.1407,211.7262,-37.0856,29.8529,1517,1482,0.3836,-0.2468,0.2132,9.6841,3.5463,-1.0187,5.2574,-0.0142,0.5403,9.9608,3.8807,-0.1732,4.9509
84.8076,2.0957,0.9674,128.4615,2.8357,0.1976,-0.3300,242.1031,-42.1506,50.7910,1530,1469,0.5716,0.3421,1.2403,9.7775,3.8135,0.1797,4.8681,0.5915,1.2825,9.6592,1.8578,0.7504,3.9509
84.8261,2.5595,0.6432,128.5174,3.8051,0.2512,0.2149,293.9018,-51.4517,94.6054,1556,1443,0.8758,1.2759,2.1381,9.3992,3.9204,-0.0416,3.1963,2.0711,2.6879,9.5323,3.6899,-0.6084,2.4394
84.8445,3.1774,0.0916,128.5435,0.6868,0.0051,-0.0382,365.7326,-63.8409,134.3256,1580,1419,1.0000,2.4490,3.4334,9.5189,2.7295,-1.8050,1.5703,2.5284,2.3480,9.9249,-1.3559,-1.5702,1.2562
84.8632,3.0932,-0.3914,128.5642,-4.2598,0.0000,-0.0000,355.9348,-62.1881,130.7558,1578,1421,1.0000,2.4993,0.5843,10.4766,-4.3850,0.3324,0.8757,2.3968,-0.6975,10.5283,-4.1345,1.6130,1.2868
84.8816,2.7226,-0.7951,128.6006,-0.8590,0.0000,-0.0000,313.2925,-54.8042,109.0945,1565,1434,0.9476,2.2575,-1.1994,10.0408,-1.8430,2.3629,1.4864,1.7479,-1.0159,10.3128,0.1250,2.3153,1.9127
84.9001,2.6226,-0.9361,128.6369,-1.1720,0.0000,-0.0000,301.7820,-52.8299,100.5552,1560,1439,0.9066,1.0820,0.1102,10.2827,0.3479,2.2790,1.5551,-0.0238,0.0567,10.3678,-2.6918,2.9565,2.0119
84.9185,2.6496,-0.8351,128.6664,-3.3361,0.0000,-0.0000,304.8886,-53.3963,102.9514,1561,1438,0.9187,-0.1678,0.9003,10.1246,-3.9727,3.8744,1.8910,0.1965,0.3273,8.3304,-2.6994,0.0176,1.3173
84.9370,2.5055,-1.0856,128.6994,-2.3895,0.0000,-0.0000,288.3065,-50.5393,89.7590,1553,1446,0.8468,0.5744,-0.0095,6.9427,-2.2705,-8.2477,2.0742,0.7711,0.1932,9.4820,-2.5086,-3.6618,1.8974
84.9554,2.4666,-0.8364,128.7354,-3.7521,0.0000,-0.0000,283.8296,-49.7859,86.0530,1551,1448,0.8245,-1.3625,0.6154,10.2994,-2.5224,-2.9729,2.1352,-0.4954,0.3823,8.8619,-4.9819,-3.7076,2.1646
84.9739,2.3546,-0.5745,128.7602,-4.4620,0.0000,-0.0000,270.9485,-47.5707,75.2190,1545,1454,0.7548,-1.1782,0.2778,9.2651,-3.5224,-2.5149,1.4711,-1.3885,0.3416,10.2122,-5.4017,-1.4633,1.4013
84.9925,2.2592,-0.2804,128.7780,-5.0117,0.0000,-0.0000,259.9630,-45.6840,65.9881,1539,1460,0.6900,-1.6283,0.3832,9.4303,-5.1254,-3.8508,1.0207,-0.4500,0.0352,9.1755,-4.8979,-5.0129,1.3097
85.0109,2.0712,-0.1727,128.7880,-6.1872,0.0000,-0.0000,238.3339,-41.9455,48.5292,1529,1470,0.5533,-0.6586,0.0384,9.5668,-5.8353,-4.3394,0.4711,-0.3255,0.3273,9.9129,-6.5391,-0.8984,0.7829
85.0294,1.9886,-0.0780,128.8010,-5.1491,0.0000,-0.0000,228.8321,-40.3139,41.3970,1524,1475,0.4915,-0.2780,0.4047,9.6506,-5.2170,0.7065,0.4482,-0.3877,0.4805,9.8962,-5.0811,2.1626,0.8364
85.0478,1.9330,0.2044,128.8093,-3.8628,0.0000,-0.0000,222.4264,-39.2199,36.8339,1522,1477,0.4498,-1.0273,0.3927,9.2675,-3.3850,2.2637,0.2345,-1.2113,0.4518,9.6089,-4.3406,2.7428,0.5234
85.0662,1.8836,0.6274,128.8083,-5.0880,-0.0762,-0.4048,217.9118,-38.2514,33.1059,1519,1480,0.4131,-1.8486,0.4837,8.7863,-6.3086,0.3706,-0.3610,-2.2624,0.2147,10.0614,-3.8674,-0.7687,0.2791
85.0847,1.8308,1.0407,128.7985,-5.6643,-0.4150,-2.2183,217.0627,-37.2144,29.7167,1517,1482,0.3743,-2.4112,0.5795,9.8278,-5.4308,-3.2401,-0.8037,-2.6383,0.3177,10.5378,-5.8979,-4.1045,-0.0415
85.1040,1.6970,1.3054,128.7840,-5.2750,-0.8021,-2.6367,202.8622,-34.5538,20.7180,1512,1487,0.2797,-1.8797,0.1725,9.8804,-5.7514,-5.2859,-0.9029,-2.0613,0.0807,9.8914,-4.7987,-6.1503,-0.1331
85.1226,1.5882,1.5059,128.7707,-5.6033,-1.3318,-4.4909,195.6822,-32.3937,14.8067,1508,1491,0.2086,-1.7600,0.2706,9.8924,-5.6827,-6.2325,-0.7197,-1.6542,0.3033,9.5059,-5.5239,-7.1274,-0.2858
85.1412,1.4742,1.6668,128.7562,-5.4010,-1.7894,-4.2133,181.7718,-30.1296,9.3665,1505,1494,0.1420,-1.6379,0.2132,10.0624,-5.0109,-6.6065,-0.6358,-1.7045,0.4374,10.0614,-5.7910,-7.0206,-0.4766
85.1599,1.3748,1.8163,128.7479,-5.2598,-2.1582,-3.6243,168.6382,-28.1555,5.6518,1503,1496,0.0922,-1.2620,0.2611,10.3425,-4.5300,-2.7134,-0.5213,-0.8546,0.3512,10.0111,-5.9895,-2.2496,-0.2247
85.1784,1.2732,1.3895,128.7438,-4.9506,-2.3581,-2.0419,152.3837,-26.1352,2.8353,1501,1498,0.0509,1.4770,0.1988,10.1438,-4.9346,-2.6371,-0.4220,2.3584,-0.0079,9.8962,-4.9666,-2.9366,0.1646
85.1968,1.1505,0.7272,128.7481,-4.5040,-2.3435,0.1475,131.9642,-23.6936,0.7875,1500,1499,0.0161,3.6533,0.0288,11.2619,-4.3239,0.1950,0.0742,4.0535,-0.0821,11.4069,-4.6842,3.9413,0.4929
85.2153,1.0498,-0.0194,128.7589,-2.7979,-1.6562,5.4544,105.0855,-21.6888,0.0735,1500,1499,0.0018,4.1465,-0.0478,10.5101,-3.4155,3.3400,0.5474,3.6824,-0.2066,9.9177,-2.1803,2.7123,0.7066
85.2338,0.9542,-0.5571,128.7672,-1.5307,-0.7733,4.4457,96.9900,-19.7864,0.0000,1500,1500,0.0000,2.5903,-0.1483,10.5364,-1.3621,-1.3012,0.4100,2.1837,-0.2258,10.0279,-1.6994,-2.1885,0.6074
85.2522,0.8968,-0.9394,128.7723,0.4502,-0.0473,0.5152,101.7124,-17.9453,0.0000,1500,1500,0.0000,1.8026,-0.1507,9.9930,0.3631,-2.0645,0.2879,1.5181,-0.0462,10.8539,0.5372,-1.0587,0.2868
85.2706,0.9225,-1.1694,128.7599,2.3586,0.0000,0.0000,106.1495,-18.4589,0.0000,1500,1500,0.0000,1.2879,0.0743,9.8134,0.5921,1.1263,0.0665,1.1398,-0.2617,9.6807,4.1250,-0.1045,-1.4232
