timestamp,roll_deg,pitch_deg,yaw_deg,omega_raw,omega_filtered,alpha,tau_ff,tau_pid,tau_total,pwm_left,pwm_right,deadzone_factor,accel1_x,accel1_y,accel1_z,gyro1_x,gyro1_y,gyro1_z,accel2_x,accel2_y,accel2_z,gyro2_x,gyro2_y,gyro2_z
1955.3623,4.8379,0.7307,99.2641,-15.7592,-6.4223,-84.8910,789.2884,-81.9925,285.9821,1657,1342,1.0000,-2.0682,1.2386,9.9586,-13.7649,3.1042,-0.0470,-1.1372,1.0890,8.2911,-17.7534,1.1863,0.6963
1955.3819,4.4361,0.6030,99.2607,-14.8012,-7.6791,-64.3858,684.9812,-75.4074,250.7388,1637,1362,1.0000,0.2949,0.3600,10.8325,-13.1848,-2.3996,0.1591,-0.3902,0.4880,8.9280,-16.4176,-1.8442,0.0321
1955.4007,4.0840,0.6160,99.2611,-14.5454,-8.7091,-54.6685,617.3476,-69.6396,226.9881,1624,1375,1.0000,-0.1480,0.4126,10.1333,-15.2306,-1.0637,0.1896,-0.2250,0.7442,9.7324,-13.8603,1.5451,-0.0366
1955.4209,3.8322,0.7183,99.2630,-13.3584,-9.4065,-34.5836,531.1376,-65.5222,198.6546,1609,1390,1.0000,-0.4569,0.7837,9.9945,-12.9939,-0.5523,0.1591,-0.6583,0.9597,9.1722,-13.7229,2.6977,-0.0900
1955.4403,3.6212,0.8274,99.2673,-10.4309,-9.5601,-7.9163,430.5727,-62.0768,166.4179,1591,1408,1.0000,-0.4976,0.5252,8.3975,-10.5130,-1.0866,0.0522,-0.2729,0.8543,9.3542,-10.3489,1.8810,0.4062
1955.4595,3.4193,0.9951,99.2729,-10.1332,-9.6461,-4.4728,397.9173,-58.7796,154.6429,1585,1414,1.0000,-0.8926,0.5300,8.8094,-9.4214,-4.4301,0.1515,-0.5554,0.4401,9.8138,-10.8450,2.4840,0.6428
1955.4790,3.0505,0.9135,99.2853,-12.9042,-10.1348,-25.0992,415.7978,-52.7262,156.3750,1586,1413,1.0000,0.1608,0.0775,10.4374,-13.8642,-1.8652,0.4492,-0.7876,-0.1105,9.8306,-11.9443,0.6825,1.1543
1955.4982,2.8511,0.9361,99.3097,-8.8241,-9.9382,10.2112,291.6465,-49.4643,117.1725,1564,1435,1.0000,-0.2749,0.3815,9.3409,-10.9405,-0.2545,1.7392,-1.1635,-0.0052,10.6853,-6.7076,-0.7221,0.9100
1955.5172,2.6166,1.0803,99.3112,-6.4004,-9.4075,27.9855,214.0515,-45.6215,91.5884,1550,1449,1.0000,-0.8304,-0.0135,9.0919,-9.2000,0.4630,-0.5890,-0.8451,-0.3428,11.3270,-3.6008,-2.3328,1.1237
1955.5359,2.4685,1.0346,99.3105,-5.7897,-8.8649,29.0187,194.3975,-43.2025,84.2407,1546,1453,1.0000,-0.0738,0.2642,9.0727,-8.3832,1.9592,-1.0470,-0.5482,-0.3955,10.7260,-3.1962,-4.7984,1.2535
1955.5545,2.3721,0.9243,99.3121,-3.4348,-8.0503,43.6804,141.3081,-41.6344,67.3731,1537,1462,1.0000,0.3140,0.2810,9.6880,-5.4519,2.0355,-0.5279,0.1461,-0.0076,9.9048,-1.4176,-2.5007,0.8108
1955.5731,2.3264,0.8768,99.3170,-2.9538,-7.2859,41.1584,143.4322,-40.9047,67.5725,1537,1462,1.0000,0.0938,0.4414,9.4366,-4.5435,2.0050,-0.4211,-0.4022,0.1193,9.4906,-1.3641,-1.4549,0.9405
1955.5917,2.2963,0.8896,99.3069,-2.7783,-6.6097,36.2945,154.0503,-40.4309,70.4736,1538,1461,1.0000,-0.2246,0.4940,9.6258,-3.5435,0.8905,-1.9936,-0.5338,0.3803,10.0700,-2.0130,-1.6076,0.9863
1955.6103,2.3003,0.9439,99.3276,-0.9424,-5.6546,44.9132,129.6722,-40.5189,63.2130,1534,1465,1.0000,-0.2893,0.4749,9.4606,-1.8794,3.0813,0.6400,-0.7756,0.5143,9.7755,-0.0053,-0.9053,1.4825
1955.6294,2.2781,0.9309,99.3537,-2.3775,-4.4362,22.4203,191.9581,-40.1763,81.6932,1544,1455,1.0000,-0.2462,0.4797,9.4342,-2.9863,-0.4683,1.3118,-0.3088,0.4401,9.1818,-1.7687,-3.0885,1.5207
1955.6487,2.2632,0.7941,99.3860,-2.9424,-3.4241,12.5540,218.6905,-39.9524,89.5786,1549,1450,1.0000,0.1417,0.5563,9.5516,-3.2000,-3.7278,1.7545,0.0911,0.7035,9.4116,-2.6847,-3.2412,1.8260
1955.6679,2.1790,0.6837,99.4208,-8.1485,-4.8179,-22.6338,310.5499,-38.5849,116.3159,1563,1436,1.0000,0.1129,0.7119,9.9346,-6.7420,-3.4225,1.8461,-0.0382,0.8735,9.9072,-9.5550,-2.1954,1.9024
1955.6870,1.9759,0.6208,99.4594,-17.1676,-7.1585,-92.2282,488.1141,-35.2540,167.5866,1592,1407,1.0000,-0.0594,0.9418,9.8772,-15.0245,-2.9110,1.7545,-0.1196,0.7921,9.7612,-19.3107,-2.1725,2.3375
1955.7065,1.6042,0.5464,99.5224,-24.8775,-9.8164,-136.7025,574.3481,-29.1376,189.7870,1604,1395,1.0000,0.0818,0.8532,10.1118,-22.6275,-2.3996,1.9606,0.0575,0.8088,9.8043,-27.1275,-0.7145,4.5818
1955.7257,1.1387,0.4372,99.5716,-29.4844,-12.7666,-153.3433,474.8787,-21.4681,155.3445,1585,1414,1.0000,0.4385,0.7502,10.1262,-28.0321,-0.1782,2.0980,0.3831,0.6365,10.0940,-30.9366,1.0107,2.9634
1955.7449,0.5747,0.4609,99.6240,-34.0111,-15.9532,-166.4184,453.3352,-12.1678,143.3013,1578,1421,1.0000,-0.1289,0.5922,9.9514,-32.6962,0.7836,2.4415,0.0096,0.4377,9.6319,-35.3260,0.6290,3.1085
1955.7642,-0.1014,0.5054,99.6842,-39.3241,-19.4589,-181.5512,511.4507,-1.0108,154.0417,1584,1415,1.0000,-0.4210,0.4845,10.2459,-37.9863,-1.3385,2.7240,-0.1651,0.3731,9.7300,-40.6618,-1.4702,3.7192
1955.7848,-0.9649,0.4967,99.7498,-45.0607,-23.2991,-185.9813,426.9728,15.9308,118.5334,1565,1434,1.0000,-0.2821,0.2762,10.7247,-43.2229,-2.6362,2.6400,-0.1986,0.2989,10.2232,-46.8985,-2.2259,3.9787
1955.8042,-1.8036,0.5020,99.8113,-49.9348,-27.2945,-206.1240,390.5444,29.7869,99.2912,1554,1445,1.0000,-0.3108,0.4294,10.4446,-48.1390,-2.7049,2.5713,-0.1603,0.2630,10.0604,-51.7305,-1.6534,3.9176
1955.8229,-2.6425,0.4774,99.8714,-50.8126,-30.8222,-188.6420,245.7320,43.6547,47.5268,1526,1473,1.0000,-0.1217,0.2091,10.4326,-50.4672,-2.1553,2.5026,-0.0622,0.2031,10.0940,-51.1580,-1.3404,4.0245
1955.8415,-3.4473,0.5096,99.9387,-47.5683,-33.3341,-134.8611,0.2020,56.9697,-34.1212,1481,1518,1.0000,-0.3084,-0.0925,10.4135,-47.8489,-1.5446,2.9682,-0.1843,0.0738,10.6374,-47.2878,-0.1877,4.4520
1955.8601,-4.1049,0.5471,100.0148,-41.6790,-34.5859,-67.4004,-268.1434,67.8612,-121.1597,1433,1566,1.0000,-0.2007,-0.0590,10.3081,-42.9252,-0.0561,3.5255,-0.5051,-0.1728,10.3094,-40.4328,1.0107,4.8566
1955.8787,-4.6564,0.6086,100.0987,-36.8393,-34.9239,-18.1601,-472.0671,77.0074,-187.8246,1396,1603,1.0000,-0.2749,-0.0925,10.1956,-36.7878,0.3943,4.1667,-0.1508,-0.1776,10.0987,-36.8908,1.5985,5.0627
1955.8973,-5.1695,0.6395,100.1830,-34.0798,-34.7973,6.8055,-601.7558,85.5247,-231.8416,1372,1627,1.0000,-0.0547,-0.2577,10.0687,-33.0321,1.2111,4.4034,0.1533,-0.0363,9.9695,-35.1275,2.6214,5.0016
1955.9163,-5.7300,0.6936,100.2689,-35.4538,-34.8958,-5.1841,-630.3581,94.8302,-246.0055,1364,1635,1.0000,-0.2007,-0.4086,10.2387,-34.5665,1.7149,4.3881,0.0408,0.0594,9.7324,-36.3412,1.2932,5.0092
1955.9356,-6.2345,0.6875,100.3573,-32.4844,-34.5340,18.7857,-756.2171,103.2164,-288.7950,1341,1658,1.0000,0.0028,-0.4541,10.0017,-32.9787,0.1653,4.2889,-0.1268,-0.6756,10.2568,-31.9901,1.0413,5.0245
1955.9547,-6.6818,0.7130,100.4518,-27.0225,-33.4073,58.9175,-922.1932,110.6648,-343.0568,1311,1688,1.0000,-0.1073,-0.7821,10.0352,-28.7420,0.9134,4.6629,-0.3279,-0.7282,9.5074,-25.3031,0.8352,5.4978
1955.9738,-6.8619,0.6625,100.5590,-16.7172,-30.9038,130.9586,-1149.9530,113.7040,-413.2083,1272,1727,1.0000,0.1919,-0.5259,9.6904,-18.0550,-0.6897,5.2583,-0.3016,-0.1560,9.7205,-15.3794,1.2550,5.9329
1955.9935,-6.6679,0.7231,100.6727,-5.8737,-27.1493,190.6418,-1299.9931,110.5707,-456.3404,1249,1750,1.0000,-0.2223,0.1684,9.5468,-7.9481,1.3714,5.8461,-0.0263,0.1169,10.0413,-3.7992,0.8199,5.6963
1956.0127,-6.2929,0.6677,100.7950,6.4088,-22.1156,261.7907,-1462.6583,104.4462,-501.4652,1224,1775,1.0000,0.3667,-0.0231,9.4749,2.8534,2.1729,6.4339,0.6226,0.1600,10.1706,9.9641,2.4611,6.6657
1956.0319,-5.6568,0.6288,100.9289,17.1607,-16.2241,307.7691,-1523.4127,94.0056,-513.4271,1217,1782,1.0000,0.2614,0.3025,9.5372,14.4946,1.1424,7.4263,0.3161,-0.1297,9.7516,19.8267,2.2779,6.8642
1956.0512,-4.9448,0.6886,101.0466,24.1607,-10.1664,314.2445,-1461.8679,82.3073,-487.9448,1231,1768,1.0000,-0.1983,0.1253,9.9777,24.1587,2.8752,5.8766,0.0911,0.1959,9.7037,24.1626,0.2703,6.6199
1956.0703,-4.0770,0.9154,101.1953,33.1836,-0.4589,42.5090,-581.5323,68.0294,-215.2773,1381,1618,1.0000,-1.0076,0.1900,9.7407,32.7771,2.2874,9.0140,-0.4261,0.2677,9.5217,33.5901,-0.4244,6.6276
1956.0895,-3.1007,1.0433,101.3537,36.6798,0.0000,0.0000,-349.1557,51.9512,-135.9174,1425,1574,1.0000,-0.6891,0.5180,10.0663,36.0824,3.0890,9.3194,-0.4907,0.8854,8.9423,37.2771,-2.6992,7.1390
1956.1087,-2.0173,1.1165,101.5170,40.8477,8.1566,300.4343,-1092.4135,34.0967,-348.1821,1308,1691,1.0000,-0.6795,0.8268,10.3153,38.0442,-0.1782,9.2736,0.0767,1.4385,9.4212,43.6511,-3.5007,7.4596
1956.1279,-0.8172,0.9302,101.6642,44.2904,13.5767,283.3531,-756.7348,14.3033,-235.6024,1370,1629,1.0000,0.6971,1.4206,11.1629,45.9145,-1.1171,8.4721,-0.4093,1.1153,10.0006,42.6664,-0.6458,7.0474
1956.1471,0.3138,1.2850,101.8184,46.2675,18.4803,254.2813,-696.9926,-4.3625,-206.4803,1386,1613,1.0000,-1.8838,0.9489,9.8724,47.8305,-0.7049,9.6400,0.1581,0.5191,9.9288,44.7046,-1.0045,6.2764
1956.1664,1.1723,1.2496,101.9233,43.6187,22.2511,195.7314,-431.6968,-19.3553,-117.8959,1435,1564,1.0000,-0.1337,0.1397,10.7870,45.4030,-1.9416,6.8537,-0.0191,0.3372,8.8346,41.8344,0.6596,4.4291
1956.1856,1.8802,1.2083,102.0287,39.8210,24.8866,137.4109,-184.0223,-31.0540,-36.5743,1479,1520,1.0000,0.1249,-0.0710,10.8684,44.3267,0.9821,7.6858,-0.0047,0.9453,10.1323,35.3153,2.5298,3.7268
1956.2049,2.5814,1.3174,102.1172,35.8095,26.5250,84.9502,46.0270,-42.6498,39.3980,1521,1478,1.0000,-0.5574,0.3887,10.9162,36.5786,1.9974,4.6324,-0.5913,1.0578,9.5122,35.0405,2.7359,4.5283
1956.2242,3.4949,1.5510,102.1780,41.1683,28.7215,113.7195,66.0452,-57.7577,54.4682,1529,1470,1.0000,-1.0387,0.9681,9.9370,38.3267,3.1653,3.6018,-0.4883,1.2302,10.2232,44.0099,3.0947,2.3756
1956.2434,4.4652,1.5029,102.2131,47.6149,31.5555,147.4883,78.0586,-73.8110,67.7042,1537,1462,1.0000,-0.0283,0.9106,10.5595,45.4641,1.5775,2.8156,-0.4213,0.4689,11.0445,49.7656,-0.8366,1.1695
1956.2628,5.2939,1.4916,102.2282,53.6187,34.8650,170.6157,104.7915,-87.5379,83.9602,1546,1453,1.0000,-0.1337,-0.1763,9.4989,50.7847,-0.6057,1.9759,-0.1412,-0.0483,11.4467,56.4527,2.2855,0.3833
1956.2821,6.0218,1.4282,102.2373,49.1187,37.0030,110.8870,358.8045,-99.6090,167.4068,1592,1407,1.0000,0.4122,-0.0590,10.4422,50.8381,6.9210,1.1973,0.2778,-0.3643,9.2943,47.3992,1.8275,-0.0900
1956.3013,6.3836,1.3082,102.2314,36.1988,36.8824,-6.2860,737.0150,-105.6421,284.4898,1656,1343,1.0000,0.3500,-0.4469,9.5061,36.3801,-0.1324,0.3957,-0.3375,-0.3428,9.3374,36.0176,1.3161,-0.1511
1956.3205,6.9000,1.4151,102.2304,35.6569,36.6986,-9.5439,804.5729,-114.2318,309.9110,1670,1329,1.0000,0.0052,0.3504,10.6122,35.4030,7.7989,-0.1921,-0.4069,0.9070,10.7907,35.9107,8.3542,-1.1892
1956.3397,7.5203,1.6060,102.2205,37.8515,36.8715,9.0058,821.0400,-124.5429,321.0377,1676,1323,1.0000,-0.6317,0.6568,9.1733,35.3954,7.4706,-0.4745,-0.0670,0.2151,9.1004,40.3076,2.7588,-1.3495
1956.3589,7.9260,1.5877,102.1900,38.7256,37.1496,14.5183,850.8726,-131.3159,334.0513,1683,1316,1.0000,-0.0523,-0.2051,9.3002,38.7771,1.4783,-0.6730,0.5029,-0.2422,9.4715,38.6740,1.6061,-1.7999
1956.3782,8.2069,1.4910,102.1617,33.8706,36.6578,-25.5096,997.8014,-136.0325,380.9599,1709,1290,1.0000,0.3883,-0.2865,9.7311,35.2122,3.1729,-0.7111,0.4119,-0.4960,8.6383,32.5290,1.9878,-1.7541
1956.3974,8.0890,1.4689,102.1185,19.9469,34.1511,-130.5269,1286.9697,-134.1685,466.5920,1756,1243,1.0000,-0.1049,-0.6887,8.2228,24.1816,0.4325,-1.5203,-0.0095,-0.4960,7.5872,15.7122,-0.1954,-1.6778
1956.4165,7.8151,1.4850,102.0684,4.6530,29.7264,-231.2368,1546.1535,-129.7274,541.6825,1797,1202,1.0000,-0.3324,-0.2314,9.2858,6.6244,-1.5752,-1.8027,-0.4117,0.5167,8.7580,2.6817,0.1023,-2.2503
1956.4358,7.6795,1.3726,102.0116,-0.5340,25.1874,-235.7322,1543.8162,-127.5660,539.6844,1796,1203,1.0000,0.0291,0.7742,9.5635,0.8534,-3.9492,-1.9631,0.2108,0.8926,9.2464,-1.9214,-1.8671,-2.8228
1956.4550,7.3782,1.1693,101.9464,-1.0264,21.2553,-204.7709,1420.6996,-122.6681,499.8108,1774,1225,1.0000,0.3571,0.0583,8.9961,-0.2611,-4.7049,-2.2379,0.4047,0.2007,9.1722,-1.7916,-2.8061,-2.8610
1956.4741,6.9737,1.2274,101.8843,-3.0989,17.6022,-190.5501,1334.1766,-116.0642,469.8915,1758,1241,1.0000,-0.5503,-0.2410,8.8884,-1.2535,-4.3385,-2.5356,0.4502,-0.2374,9.7612,-4.9443,0.2779,-2.6778
1956.4935,6.4314,1.1396,101.8305,-9.9691,13.4665,-213.6803,1339.6954,-107.1800,466.2166,1756,1243,1.0000,0.2231,-0.3320,10.2267,-5.2993,-0.6286,-3.1005,0.1318,-0.4409,9.9862,-14.6389,0.6825,-1.7770
1956.5127,5.6236,1.2158,101.7677,-25.1523,7.6737,-301.6218,1501.9737,-93.9077,506.9367,1778,1221,1.0000,-0.5239,-0.3056,9.5276,-21.5512,0.7455,-3.7493,0.2754,-0.6037,9.8091,-28.7534,-0.9816,-1.9144
1956.5319,4.5997,1.0971,101.7192,-38.2057,0.0000,-0.0000,517.9839,-77.0602,201.6313,1610,1389,1.0000,0.4050,-0.3607,9.8748,-39.3756,0.3180,-2.9707,-0.2346,0.1887,9.0932,-37.0359,0.7512,-1.3495
1956.5512,3.7196,1.0591,101.6745,-40.0454,-4.6616,-276.3086,1214.6275,-62.5749,401.9332,1721,1278,1.0000,-0.1001,0.3695,10.6385,-39.8107,-2.1019,-3.0623,-0.1795,-0.0411,10.4698,-40.2802,-0.1267,-1.0595
1956.5705,2.7901,1.2637,101.6317,-37.3813,-10.1409,-250.1245,1034.5417,-47.2661,338.7222,1686,1313,1.0000,-1.0985,-0.3152,9.7383,-37.8871,0.9668,-1.9554,-0.8738,0.0738,10.0940,-36.8756,-1.0732,-1.5404
1956.5896,1.8985,0.9727,101.5973,-35.0760,-13.8812,-195.1360,775.7723,-32.5738,252.2760,1638,1361,1.0000,0.8767,-0.5426,10.2866,-36.2840,-3.5981,-2.2608,0.3089,-0.3859,10.5225,-33.8679,-2.7832,-0.5404
1956.6092,1.0502,0.9195,101.5720,-36.8431,-17.3255,-176.3262,521.7332,-18.5878,167.6726,1592,1407,1.0000,0.0914,-0.2434,10.4326,-36.6275,-0.5370,-1.6653,0.1605,-0.5319,9.9096,-37.0588,0.8199,-0.5556
1956.6284,0.1124,1.1318,101.5643,-39.7325,-20.6865,-174.8322,516.1763,-3.1151,156.7219,1586,1413,1.0000,-0.9908,-0.5738,9.4749,-38.0779,0.1042,-1.5814,-0.4093,-0.2614,9.8593,-41.3870,1.9497,1.3604
1956.6478,-0.7237,1.1897,101.5675,-39.5073,-23.5096,-145.6187,337.8924,11.9480,94.1989,1551,1448,1.0000,-0.1337,-0.3032,10.2147,-39.1390,2.5623,-0.1921,-0.2777,-0.1728,9.8545,-39.8756,4.6825,0.9100
1956.6672,-1.6495,1.0824,101.5905,-46.5836,-26.9707,-178.3751,327.9767,27.2408,82.0485,1545,1454,1.0000,0.0890,-0.2529,10.6529,-46.1313,-2.6439,0.7621,0.3664,0.3779,9.3254,-47.0359,-1.7297,1.8031
1956.6867,-2.3015,1.0876,101.6344,-39.8050,-28.8959,-98.5561,24.6787,38.0217,-15.4094,1491,1508,1.0000,-0.3779,0.2618,9.6521,-39.4061,-3.9263,1.7087,-0.6775,0.3204,9.6534,-40.2038,-0.7832,2.5207
1956.7059,-2.9962,0.9361,101.7085,-39.2477,-30.4487,-80.8273,-104.6084,49.5138,-61.0908,1466,1533,1.0000,0.0291,-0.1524,9.8029,-39.3756,-6.0179,2.7392,-0.1795,0.5143,9.6031,-39.1198,-5.2488,4.3604
1956.7251,-3.5588,0.8654,101.7990,-36.8393,-31.4073,-50.1011,-256.4534,58.8317,-112.2350,1438,1561,1.0000,-0.2989,0.1325,10.2100,-35.6352,-7.4072,3.7545,-0.1963,0.2606,10.3406,-38.0435,-3.8748,4.8642
1956.7447,-4.2454,0.8059,101.8904,-45.3279,-33.4954,-106.3173,-171.8817,70.2039,-93.6868,1448,1551,1.0000,-0.0116,0.3001,10.2363,-44.4061,-3.5446,3.4721,-0.1364,0.0355,10.3573,-46.2496,-0.4168,5.2459
1956.7640,-4.9250,0.7874,101.9867,-46.6561,-35.4695,-102.4276,-259.6267,81.4667,-126.7681,1430,1569,1.0000,-0.3444,0.2905,10.6242,-44.2687,-3.3385,3.7774,0.0288,0.4569,10.2376,-49.0435,-3.3786,5.3833
1956.7832,-5.4666,0.7452,102.0873,-45.8737,-37.0301,-81.2604,-381.5943,90.4583,-168.7533,1407,1592,1.0000,-0.0738,0.6760,9.7335,-44.9176,-4.1782,4.1438,-0.2585,0.6795,10.1155,-46.8298,-0.3633,5.4596
1956.8024,-6.1455,0.7359,102.1831,-47.8012,-38.6458,-84.2301,-449.5069,101.7206,-195.8844,1392,1607,1.0000,0.2542,0.1277,11.1533,-47.8947,3.4706,4.4873,-1.4556,0.3276,10.3884,-47.7076,2.2168,5.7650
1956.8216,-6.6970,0.5290,102.2799,-41.5645,-39.0836,-22.7911,-688.5767,110.8872,-273.1053,1349,1650,1.0000,0.7785,0.0104,9.0512,-44.2916,-2.0637,4.2812,0.9745,0.0690,10.5225,-38.8374,1.4840,5.4138
1956.8412,-7.1765,0.5137,102.3769,-43.9653,-39.8158,-37.3216,-700.7518,118.8712,-281.5483,1345,1654,1.0000,-0.0403,0.5180,9.4007,-43.0855,-2.2774,4.1438,2.2171,-0.2063,9.5241,-44.8450,1.2779,5.3222
1956.8605,-7.5001,0.4348,102.4595,-37.7630,-39.5079,15.9470,-890.6205,124.2852,-341.7573,1312,1687,1.0000,0.4936,0.5874,9.7670,-35.8184,-2.5294,4.4415,1.6090,0.7298,8.6790,-39.7076,6.4382,4.4520
1956.8797,-7.7495,0.3433,102.5396,-32.1638,-38.4063,57.5123,-1038.4342,128.4787,-388.6175,1286,1713,1.0000,0.4385,0.3073,8.2683,-30.1466,-0.9416,4.5560,-0.4165,0.9285,8.8179,-34.1809,3.2321,4.0169
1956.8989,-7.9860,0.3552,102.6420,-22.2210,-35.9785,125.8670,-1261.9422,132.4607,-458.0591,1248,1751,1.0000,-0.2199,-0.4732,8.9554,-22.7191,-4.7965,5.2583,-0.7852,1.0818,9.2488,-21.7229,-0.4397,4.7879
1956.9183,-7.8539,0.3479,102.7374,-6.6599,-31.5807,227.4235,-1539.5389,130.3593,-540.0773,1202,1797,1.0000,-0.0020,-0.2506,9.3672,-10.5054,-0.3080,4.7774,0.2203,0.3132,10.1131,-2.8145,-0.3252,4.9253
1956.9375,-7.5615,0.1991,102.8397,4.7752,-26.1273,283.8880,-1669.2088,125.6099,-576.1286,1183,1816,1.0000,0.3260,-0.3966,8.1414,2.4106,-1.8881,4.5408,0.4238,-0.1608,9.9814,7.1397,-4.1877,5.2382
1956.9570,-7.1120,0.0912,102.9433,12.1225,-20.3899,294.6002,-1649.4224,118.2650,-565.7857,1188,1811,1.0000,0.1728,-0.3846,9.5444,8.9221,-2.7660,4.7469,-0.0071,0.2223,10.3094,15.3229,-4.5847,5.0169
1956.9762,-6.4597,0.2273,103.0454,21.2637,-14.1418,325.5990,-1665.2112,107.5662,-564.1031,1189,1810,1.0000,-0.5957,-0.1620,9.6473,17.0061,3.4477,5.3728,-0.2992,0.0978,10.4770,25.5214,-3.4320,5.3527
1956.9953,-5.5847,0.1685,103.1666,27.3477,-7.9184,325.6599,-1566.8230,93.1846,-525.9577,1210,1789,1.0000,-0.0068,0.4533,9.7287,22.6015,-0.6973,6.1056,-0.2393,-0.1177,9.8186,32.0939,-5.6992,6.1390
1957.0145,-4.4801,0.2042,103.2911,34.2485,0.0000,0.0000,-504.5060,75.0030,-196.3536,1392,1607,1.0000,-0.4521,1.1333,10.6242,32.5786,-1.7813,6.4339,-0.2130,0.2630,9.6510,35.9183,-4.3710,6.3146
1957.0336,-3.2046,0.3298,103.4079,47.0576,5.5489,371.9312,-1432.0200,53.9892,-461.9995,1245,1754,1.0000,-0.9405,0.9681,9.9873,48.7694,-4.3767,6.6324,1.1996,0.9070,9.5888,45.3458,-3.0961,5.6047
1957.0523,-1.8890,0.2143,103.5165,51.9469,12.6407,370.3047,-1065.9875,32.3007,-339.1767,1313,1686,1.0000,0.0531,0.9825,9.2906,53.0900,-5.8500,6.7698,-0.8523,1.0722,9.8067,50.8038,-4.9129,5.1161
1957.0709,-0.7578,0.3475,103.6290,50.6759,18.3460,306.8581,-807.5695,13.6441,-250.4573,1362,1637,1.0000,-1.0602,0.7478,12.9992,49.6626,-0.2927,7.2889,0.5148,-0.5247,10.1993,51.6893,-2.6763,5.2764
1957.0897,0.3375,0.3064,103.7030,48.7828,22.9115,243.2139,-662.4482,-4.4325,-196.0750,1392,1607,1.0000,0.2470,0.6736,9.5923,48.0519,-2.1248,5.3499,-0.8187,0.7657,12.9407,49.5137,4.0336,3.2230
1957.1083,1.2376,0.2606,103.7683,40.7485,25.5870,143.6606,-274.3803,-20.4333,-70.0541,1461,1538,1.0000,0.2111,0.7598,10.6361,42.8000,0.4554,4.7163,-0.2633,1.5079,7.9847,38.6969,0.2626,2.7879
1957.1272,2.0850,0.2286,103.7960,36.5271,27.2280,86.8042,-15.2185,-34.4351,16.0955,1508,1491,1.0000,0.1536,1.0088,10.4063,38.9908,-0.2545,2.5484,0.2060,0.7586,11.0828,34.0634,1.2321,0.7879
1957.1467,2.8542,0.4041,103.8279,39.2217,29.0271,92.2377,55.7529,-47.1555,45.0191,1524,1475,1.0000,-0.6580,0.3863,11.0982,36.5786,1.8600,2.3041,-0.3782,0.9884,9.5074,41.8649,3.5527,1.0321
1957.1659,3.5850,0.5427,103.8582,38.5194,30.4510,74.1393,190.1801,-59.2502,92.6041,1550,1449,1.0000,-0.5215,0.4845,10.3297,39.7313,5.6615,1.8156,-0.4165,0.4808,9.5601,37.3076,-0.2717,1.3222
1957.1851,4.1723,0.3968,103.8672,33.7446,30.9450,25.8078,395.5207,-68.9830,160.0460,1588,1411,1.0000,0.1967,0.3384,10.1621,31.5710,-5.5370,1.7240,0.0480,0.3587,10.9583,35.9183,-3.3710,0.2611
1957.2044,4.6287,0.4150,103.8641,33.0614,31.2625,16.4805,473.7817,-76.5593,188.0701,1603,1396,1.0000,0.2183,-0.0662,10.4973,35.3954,2.3867,0.4797,-0.3136,-0.1081,9.5720,30.7275,5.2016,-0.9831
1957.2236,4.8647,0.3534,103.8388,21.5194,29.8010,-75.9012,766.4155,-80.5011,278.2253,1653,1346,1.0000,0.1010,-0.0016,10.5547,21.3419,1.8523,-0.8562,0.1748,-0.0746,9.5002,21.6969,-3.8442,-1.3266
1957.2428,5.0832,0.4281,103.8087,23.7828,28.8983,-47.0837,708.0330,-84.1575,262.9044,1644,1355,1.0000,-0.5263,-0.2386,9.7766,23.6473,-3.8347,-1.0699,-0.7876,0.1768,11.1235,23.9183,-0.0274,-1.5785
1957.2620,5.3494,0.6532,103.7783,22.7675,27.9787,-47.7391,739.9034,-88.6032,275.1329,1651,1348,1.0000,-0.4976,0.1086,10.8061,21.9603,7.0508,-0.9402,-1.7046,0.0666,10.3382,23.5748,6.6367,-3.0900
1957.2813,5.5733,0.5230,103.7536,22.4775,27.1535,-42.9359,751.2898,-92.3533,280.7989,1654,1345,1.0000,0.6301,-0.0183,9.0751,20.4259,3.9210,-1.7569,-0.0741,-0.5918,10.5800,24.5290,0.7512,-0.9984
1957.3004,5.7171,0.3766,103.6988,23.9317,26.6702,-25.2036,716.4242,-94.7840,271.7977,1649,1350,1.0000,0.6492,-0.4565,9.2810,21.4259,0.3714,-3.9707,0.0288,-0.4888,11.7723,26.4374,1.4458,-1.8381
1957.3197,5.7178,0.3749,103.6626,13.2408,24.6558,-104.7593,945.6195,-94.8522,340.5972,1687,1312,1.0000,0.2733,-0.1524,10.1525,12.5633,5.2340,-2.3447,-0.2346,-0.7426,9.7276,13.9183,1.9955,-1.9908
1957.3389,5.4442,0.3055,103.6112,4.0843,21.5701,-160.5385,1075.4514,-90.3931,376.8713,1707,1292,1.0000,0.1249,-0.5187,8.7256,5.2961,-0.1782,-2.6577,-0.6416,-0.4649,9.0860,2.8725,-2.8519,-2.1816
1957.3580,5.1580,0.3503,103.5579,-1.1828,18.1571,-178.4656,1094.8449,-85.7223,379.8869,1708,1291,1.0000,-0.2989,-0.2697,10.0998,-1.9481,-2.6515,-2.5585,-0.6559,0.0068,10.8984,-0.4176,0.7435,-2.6854
1957.3776,4.9578,0.4156,103.5026,-0.8966,15.2991,-146.1952,979.3545,-82.4682,343.2873,1688,1311,1.0000,0.0052,0.1038,10.4518,-0.1161,3.5775,-2.5050,0.0384,-0.2135,10.2017,-1.6771,4.0565,-3.6091
1957.3969,4.6854,0.1896,103.4226,3.0423,13.4606,-94.9103,800.9758,-78.0207,287.1052,1657,1342,1.0000,0.9006,-0.5403,8.5675,4.0595,0.4630,-2.7951,-0.0167,-0.4960,9.6630,2.0252,0.6061,-5.1129
1957.4162,4.4024,0.1677,103.3809,1.5194,11.6694,-93.0931,763.8697,-73.3954,273.1981,1650,1349,1.0000,0.3069,-0.6073,10.0831,1.6091,1.1195,-3.4516,0.5196,-0.6995,11.1905,1.4298,3.7741,-1.3801
1957.4353,4.0056,0.2912,103.3281,-4.2248,9.2853,-124.4699,809.5464,-66.8883,282.9969,1655,1344,1.0000,-0.1049,-0.6911,10.4135,-3.0168,6.8752,-3.6348,-0.0502,-0.6037,8.9471,-5.4328,4.2474,-2.6167
1957.4546,3.5500,0.4832,103.2672,-8.3470,6.6404,-137.3861,795.4323,-59.4059,274.2732,1650,1349,1.0000,-0.6700,-0.5810,9.1134,-6.9405,3.6615,-3.4745,0.0504,-0.1249,8.8083,-9.7534,0.9115,-2.8915
1957.4738,3.2558,0.4571,103.2135,-9.4462,1.5439,-45.7818,498.4841,-54.5848,182.2961,1600,1399,1.0000,0.2111,0.1277,10.5140,-8.6352,1.1958,-2.8867,0.0360,0.0762,9.3613,-10.2573,2.1023,-2.7923
1957.4930,3.1418,0.5846,103.1622,-3.0951,0.0169,-0.3095,354.6857,-52.7352,138.0468,1575,1424,1.0000,-0.3396,0.3264,10.1980,-3.3298,2.3638,-2.6272,-0.1675,0.2270,8.9783,-2.8603,4.6825,-3.0366
1957.5122,2.9953,0.7078,103.1135,0.8744,0.0000,-0.0000,337.2939,-50.3475,131.3967,1572,1427,1.0000,-0.6436,-0.1763,9.2882,1.9068,-0.1095,-2.1234,0.1198,0.1887,7.9488,-0.1580,-0.4702,-2.6549
1957.5314,2.8197,0.6815,103.0765,1.9049,0.0000,-0.0000,317.5165,-47.4779,123.7417,1568,1431,1.0000,0.1704,-0.4588,10.4877,3.5252,-0.4988,-1.7493,-0.3710,-0.0028,9.7588,0.2847,3.4840,-1.9831
1957.5506,2.6423,0.7796,103.0517,-0.8737,0.0000,-0.0000,297.5394,-44.5773,116.0082,1563,1436,1.0000,-0.0690,-0.2314,9.9250,0.1664,4.6768,-1.8333,-0.3615,-0.0459,8.9831,-1.9137,6.2550,-1.1358
1957.5699,2.4725,0.8628,103.0366,-4.5645,0.0000,-0.0000,278.4181,-41.8003,108.6056,1559,1440,1.0000,-0.4713,0.0870,9.4462,-3.8184,-0.3996,-1.0623,0.1605,0.3755,9.1315,-5.3107,0.8352,-0.4488
1957.5890,2.3884,0.9144,103.0319,-4.1370,0.0000,-0.0000,268.9454,-40.4362,104.9454,1557,1442,1.0000,-0.1935,0.4342,10.6218,-3.9939,1.4019,-0.4974,-0.3375,0.5359,9.9814,-4.2802,3.0184,-0.2045
1957.6082,2.4224,0.9028,103.0285,-1.5760,0.0000,-0.0000,272.7752,-41.0216,106.4455,1558,1441,1.0000,-0.0475,0.6568,9.2882,-1.9329,1.1806,-0.3982,-0.3184,0.6795,8.9615,-1.2191,0.0413,-0.1358
1957.6273,2.4579,0.8226,103.0241,-0.4577,0.0000,-0.0000,276.7788,-41.6328,108.0133,1559,1440,1.0000,-0.0020,0.5898,9.3576,0.0900,-1.9110,-0.3753,-0.0454,0.5479,8.9878,-1.0053,-2.8442,0.0245
1957.6460,2.5022,0.7617,103.0265,-1.0264,0.0000,-0.0000,281.7624,-42.3880,109.9615,1560,1439,1.0000,0.1129,0.7766,10.4566,0.8076,-0.8881,-0.0165,0.0504,0.6604,9.7803,-2.8603,0.0107,0.1924
1957.6646,2.4229,0.7814,103.0335,-3.0722,0.0000,-0.0000,272.8333,-41.1039,106.5124,1558,1441,1.0000,-0.2079,0.3193,9.4725,-1.7268,-0.4148,0.2660,-0.1963,0.6484,9.3206,-4.4176,0.5069,0.4825
1957.6832,2.3123,0.7934,103.0385,-7.6523,0.0000,-0.0000,260.3807,-39.3025,101.6957,1555,1444,1.0000,-0.2630,0.5802,10.0519,-7.0855,-0.7660,0.1362,0.1030,0.5191,9.4978,-8.2191,-0.6305,0.3985
1957.7018,2.2140,0.7742,103.0389,-9.1561,0.0000,-0.0000,249.3130,-37.7029,97.4157,1553,1446,1.0000,0.0028,0.7622,10.1310,-7.9481,-0.0942,-0.2989,-0.1412,0.7011,10.3094,-10.3641,1.0794,0.1466
1957.7204,2.1123,0.8206,103.0380,-8.4538,-0.4268,-5.3349,253.2156,-36.0446,97.5914,1553,1446,1.0000,-0.2103,0.6377,9.8436,-8.8107,1.8905,-0.3447,-0.2010,0.5455,9.4020,-8.0969,1.3390,0.0245
1957.7398,2.0445,0.7948,103.0425,-7.3890,-1.4847,-10.2653,259.7851,-34.9470,98.9037,1554,1445,1.0000,-0.0547,0.6808,9.6330,-7.5665,-0.0408,-0.0241,-0.0406,0.7226,9.7540,-7.2115,-0.5771,0.3680
1957.7591,1.9669,0.7871,103.0439,-6.8775,-2.5407,-11.4851,254.5579,-33.6860,96.4398,1553,1446,0.9986,-0.0571,0.6090,10.0831,-6.6123,-0.6668,0.0980,-0.1077,0.8304,9.9575,-7.1427,1.5298,-0.0595
1957.7783,1.8760,0.8109,103.0410,-7.7096,-3.9096,-18.7183,265.1537,-32.2050,96.9535,1553,1446,0.9806,-0.1600,0.6018,9.9274,-7.2764,1.2645,-0.2989,-0.3567,0.6125,9.1842,-8.1427,0.6214,-0.1511
1957.7975,1.7689,0.8188,103.0315,-8.9920,-5.4543,-29.4106,283.8893,-30.4558,96.8311,1553,1446,0.9361,-0.2582,0.6138,9.6665,-8.3145,-0.8881,-0.4898,-0.1316,0.6173,9.7324,-9.6695,-1.1114,-0.5251
1957.8168,1.6328,0.8149,103.0159,-10.8775,-6.4410,-40.6897,301.0502,-28.2269,107.2512,1558,1441,1.0000,-0.1911,0.6592,10.1046,-9.5359,-1.4377,-0.8791,0.0432,0.7609,9.9742,-12.2191,-0.1038,-0.8076
1957.8360,1.5583,0.8022,102.9972,-8.9844,-6.8225,-19.8795,232.7258,-27.0129,86.0255,1547,1452,1.0000,-0.0690,0.7167,9.7910,-9.1008,0.2645,-1.1463,-0.1508,0.7083,9.7420,-8.8679,-0.0122,-0.9679
1957.8554,1.5282,0.7556,102.9716,-7.4080,-6.9103,-4.5282,185.1253,-26.5317,71.4566,1539,1460,1.0000,-0.0714,0.7598,9.6976,-7.5283,-1.6591,-1.4516,-0.0765,0.8567,9.6941,-7.2878,-1.6916,-1.2808
1957.8746,1.5078,0.7347,102.9368,-5.5912,-6.7125,10.3014,140.1127,-26.2093,57.7594,1531,1468,1.0000,-0.1456,0.6664,10.0807,-5.8489,-2.7049,-1.9325,-0.1005,0.7298,9.9144,-5.3336,-0.1038,-1.7618
1957.8938,1.5268,0.6866,102.8952,-4.8317,-6.4303,14.7164,129.5431,-26.5389,54.7863,1530,1469,1.0000,0.0339,0.7502,9.6689,-4.9710,0.0661,-2.4669,-0.0598,0.6819,9.7612,-4.6924,-1.3633,-2.0289
1957.9130,1.5478,0.5744,102.8458,-4.3966,-6.1253,15.8397,128.6712,-26.9007,54.7418,1530,1469,1.0000,0.1584,0.7287,9.7000,-4.0779,-2.5752,-2.6959,0.1533,0.7897,9.8234,-4.7153,-2.7297,-2.4488
1957.9322,1.5683,0.5339,102.7893,-4.8355,-5.9228,10.0845,147.5545,-27.2546,60.5006,1533,1466,0.9980,-0.0930,0.7957,10.0615,-4.8794,-2.4454,-2.9325,-0.0095,0.7131,9.8881,-4.7916,-1.7908,-2.9602
1957.9513,1.6570,0.5179,102.7235,-2.7744,-4.9885,22.6226,121.4366,-28.7352,46.5376,1525,1474,0.8671,-0.1839,0.9130,9.8628,-2.8031,-1.8500,-3.6272,-0.0047,0.9070,9.6606,-2.7458,-2.0351,-3.3114
1957.9706,1.7800,0.4819,102.6556,-1.2325,-3.1824,21.6125,138.1972,-30.7827,56.4408,1531,1468,0.9418,-0.0547,0.9585,9.9801,-1.0092,-0.8347,-3.6424,0.1509,0.8902,9.7827,-1.4557,-2.0656,-3.4411
1957.9899,1.8996,0.4472,102.5796,0.5805,-1.0649,11.1772,181.7144,-32.7745,73.2266,1540,1459,0.9872,-0.0547,0.8197,10.1549,0.7694,-2.1553,-3.9554,0.1318,0.8424,9.8067,0.3916,-1.0274,-3.9373
1958.0091,2.0062,0.3851,102.4990,1.2904,-0.0485,0.6261,224.1103,-34.5541,87.9656,1548,1451,1.0000,0.1967,0.7071,10.0041,1.2351,-0.9492,-4.1386,0.1701,0.7466,9.7923,1.3458,0.3313,-4.2961
1958.0283,2.0721,0.3656,102.4173,0.6607,0.0000,0.0000,233.3303,-35.6616,91.3960,1550,1449,1.0000,0.0459,0.5970,9.9658,1.1129,1.0203,-4.3829,-0.0454,0.5646,9.8019,0.2084,-0.6458,-4.1892
1958.0475,2.0949,0.3900,102.3377,-0.9004,0.0000,0.0000,235.8981,-36.0588,92.4047,1550,1449,1.0000,-0.1959,0.5515,10.0232,-0.6504,-0.8500,-4.3753,0.0839,0.4473,9.8545,-1.1504,0.1100,-3.9297
1958.0668,2.0557,0.4056,102.2604,-1.2172,0.0000,0.0000,231.4781,-35.4317,90.7025,1549,1450,1.0000,-0.1073,0.2977,10.0879,-1.0626,0.1119,-4.1692,-0.0287,0.4042,10.0030,-1.3718,0.3542,-3.9068
1958.0859,1.9528,0.2938,102.1924,-1.5645,0.0000,0.0000,219.8951,-33.7540,85.9702,1547,1452,0.9971,0.2566,0.0320,9.7670,-1.5359,-1.1629,-3.8485,0.1150,-0.1680,9.7875,-1.5931,-3.0427,-3.1053
1958.1051,1.7515,0.2326,102.1378,-1.7935,0.0000,0.0000,197.2257,-30.4498,71.7654,1539,1460,0.9268,0.1632,-0.4181,10.1094,-1.7573,-1.3538,-3.3600,0.2275,-0.5152,10.1155,-1.8298,-0.3633,-2.2503
1958.1243,1.4949,0.2027,102.1024,-2.6141,0.0000,-0.0000,168.3359,-26.2316,48.7674,1526,1473,0.7362,0.1105,-0.6360,10.0543,-2.2535,-0.2316,-2.1615,0.0384,-0.6325,9.8210,-2.9748,0.3695,-1.4717
1958.1434,1.1639,0.1402,102.0897,-3.5111,0.0000,-0.0000,131.0600,-20.7813,21.4542,1511,1488,0.4143,0.2326,-0.9473,9.9346,-3.6733,-0.4606,-0.8333,0.0336,-0.7929,9.9072,-3.3489,-0.0732,-0.3801
1958.1627,1.0261,0.0919,102.0814,-2.7821,0.0000,-0.0000,115.5433,-18.5178,12.9428,1507,1492,0.2828,0.2374,-0.1859,9.8915,-2.9023,-0.1477,-0.6348,0.3999,0.2342,10.1754,-2.6618,1.1558,-0.2503
1958.1818,1.0827,0.0002,102.0758,-3.9195,0.0000,-0.0000,121.9116,-19.4618,16.1850,1508,1491,0.3354,0.5511,0.7718,9.8101,-3.4748,0.7226,-0.5356,0.5699,0.6604,9.7516,-4.3641,2.7359,-0.1587
1958.2009,1.0716,-0.0819,102.0675,-3.6676,0.0000,-0.0000,120.6620,-19.2894,15.5226,1508,1491,0.3249,0.3236,0.4438,9.6258,-2.9787,-0.3919,-0.6501,0.0815,0.4736,9.6319,-4.3565,-0.6458,-0.2121
1958.2200,1.0670,-0.1056,102.0668,-0.7744,0.0000,0.0000,120.1517,-19.2253,15.2572,1508,1491,0.3207,0.1129,0.2283,9.9011,-1.1924,-0.3614,-0.3142,-0.3064,0.3180,10.1730,-0.3565,-0.0351,0.2230
1958.2387,1.0973,-0.0945,102.0717,-0.2554,0.0000,0.0000,123.5578,-19.7354,17.0881,1509,1490,0.3494,-0.0475,0.3480,9.9322,-0.7955,0.1042,0.2049,-0.1292,0.2246,10.0221,0.2847,-0.4244,0.3222
1958.2572,1.1301,-0.1025,102.0775,0.5614,0.0000,0.0000,127.2489,-20.2876,19.1863,1510,1489,0.3811,-0.0020,0.2929,9.8245,0.5023,-0.6744,0.0904,0.0312,0.2366,10.2951,0.6206,-0.5847,0.5512
1958.2758,1.1342,-0.1391,102.0881,0.6149,0.0000,0.0000,127.7182,-20.3677,19.4637,1510,1489,0.3851,0.1584,0.1589,9.7239,0.2503,-0.3309,0.3423,0.0432,0.1049,10.2304,0.9794,-0.3252,0.7955
1958.2943,1.1457,-0.1422,102.1097,0.7332,0.0000,0.0000,129.0125,-20.5688,20.2338,1511,1488,0.3964,0.0483,0.1876,9.8939,0.3725,-0.0484,0.8919,-0.1244,0.0762,10.1131,1.0939,0.2397,1.4138
1958.3129,1.1309,-0.0856,102.1406,0.4927,0.0000,0.0000,127.3385,-20.3348,19.2464,1510,1489,0.3819,-0.1839,0.0846,9.8796,0.4183,0.6310,1.4186,-0.3112,0.1504,9.9862,0.5672,0.6519,1.8718
1958.3317,1.1164,-0.0138,102.1758,0.0118,0.0000,0.0000,125.7089,-20.1072,18.3077,1510,1489,0.3678,-0.2414,0.1277,10.0256,-0.0703,0.6615,1.7545,-0.3184,0.2199,10.0748,0.0939,1.1252,1.9482
1958.3510,1.1203,0.0595,102.2219,0.2599,0.0000,0.0000,126.1479,-20.1827,18.5616,1510,1489,0.3716,-0.2294,0.1924,10.1118,0.2732,1.1195,2.2278,-0.0861,0.1672,9.9383,0.2466,1.3771,2.4978
1958.3702,1.1179,0.0804,102.2783,0.1912,0.0000,0.0000,125.8826,-20.1550,18.4120,1510,1489,0.3693,-0.0451,0.1660,9.9346,0.2045,0.4248,2.6858,-0.1196,0.2007,9.8809,0.1779,1.0184,3.1619
1958.3893,1.1482,0.1361,102.3404,-0.0989,0.0000,0.0000,129.2918,-20.6660,20.4147,1511,1488,0.3988,-0.1816,0.3432,10.0280,0.3190,0.6920,3.0675,-0.1556,0.3515,9.9431,-0.5168,1.4382,3.3756
1958.4085,1.1268,0.1974,102.4081,-0.7821,0.0000,-0.0000,126.8799,-20.3239,18.9921,1510,1489,0.3779,-0.2223,0.1684,9.8915,-0.5741,0.7302,3.4110,-0.0574,0.2055,9.8210,-0.9901,1.2321,3.5894
1958.4277,1.1067,0.2466,102.4806,-1.4424,0.0000,-0.0000,124.6216,-20.0041,17.7044,1509,1490,0.3585,-0.1696,0.2307,10.0424,-1.2840,0.7226,3.6095,-0.1316,0.2486,9.8952,-1.6008,1.4916,3.9100
1958.4468,1.0666,0.2902,102.5612,-1.5073,0.0000,-0.0000,120.1019,-19.3524,15.2571,1508,1491,0.3202,-0.0954,0.1421,10.1022,-1.2993,1.3790,4.0980,-0.1268,0.1073,10.1825,-1.7153,2.1405,4.2764
1958.4660,1.0451,0.3314,102.6458,-1.6103,0.0000,-0.0000,117.6854,-19.0088,14.0237,1507,1492,0.3002,-0.0762,0.2235,9.8508,-1.3985,1.9821,4.2431,0.0743,0.2438,9.6415,-1.8221,1.9191,4.4749
1958.4852,1.0276,0.3725,102.7324,-1.1676,0.0000,-0.0000,115.7107,-18.7297,13.0552,1507,1492,0.2841,-0.1121,0.2020,10.0376,-1.2000,1.5470,4.4797,-0.0646,0.2342,9.8593,-1.1351,1.6977,4.5054
1958.5044,1.0368,0.4445,102.8403,-0.6027,0.0000,0.0000,116.7479,-18.8921,13.5623,1507,1492,0.2925,-0.2390,0.2666,9.8532,-0.5435,1.5317,4.6629,-0.2633,0.2630,9.8091,-0.6618,2.0947,6.5054
1958.5237,1.0429,0.5197,102.9383,-0.2134,0.0000,0.0000,117.4334,-19.0030,13.9035,1507,1492,0.2982,-0.2941,0.2187,9.8149,-0.0779,1.2569,5.0064,-0.1819,0.2486,9.6462,-0.3489,1.6901,5.1008
1958.5423,1.0677,0.5464,103.0363,0.4049,0.0000,0.0000,120.2310,-19.4236,15.3346,1508,1491,0.3213,-0.1073,0.2498,9.6832,0.3954,0.9134,4.9759,-0.1316,0.2869,9.7564,0.4145,1.6596,5.4673
1958.5609,1.1119,0.5854,103.1339,1.2103,0.0000,0.0000,125.2003,-20.1628,18.0470,1509,1490,0.3634,-0.0690,0.2786,9.9131,1.1893,3.0661,5.1973,-0.0741,0.4066,9.7636,1.2313,1.9344,5.2001
1958.5796,1.2067,0.6173,103.2338,2.1836,0.0000,0.0000,135.8792,-21.7397,24.5765,1513,1486,0.4567,-0.0858,0.4414,10.0065,1.3725,1.8752,5.2202,-0.5171,0.5096,10.8433,2.9947,1.9497,5.3604
1958.5981,1.3334,0.7309,103.3292,2.8668,0.0000,0.0000,150.1445,-23.8433,34.6030,1519,1480,0.5830,-0.4210,0.5826,10.5188,2.3572,3.2569,5.1285,-0.1939,0.4234,9.1267,3.3763,2.6290,4.9558
1958.6167,1.4540,0.8219,103.4221,4.4851,0.0000,0.0000,163.7314,-25.8487,45.1760,1524,1475,0.6990,-0.3755,0.3672,9.1781,3.6855,1.4859,5.0369,-0.1220,0.5431,9.9742,5.2847,2.2474,4.8566
1958.6355,1.6103,0.8693,103.5169,4.5614,0.0000,0.0000,181.3325,-28.4439,59.5042,1532,1467,0.8326,-0.1839,0.5754,9.9610,3.9068,2.1348,5.0904,-0.1556,0.4234,9.4523,5.2160,2.2245,4.7650
1958.6547,1.7456,0.8512,103.5899,3.5309,0.0000,0.0000,196.5640,-30.6932,71.4629,1539,1460,0.9235,0.0363,0.5491,9.4055,3.7923,1.0432,4.7545,-0.1244,0.5934,9.5337,3.2695,1.5756,2.6810
1958.6738,1.8707,0.9248,103.6755,3.0538,0.0000,0.0000,210.6478,-32.7755,81.1183,1544,1455,0.9790,-0.4138,0.5922,9.8341,3.1969,1.1958,4.4721,-0.2800,0.6556,9.2225,2.9107,0.6138,4.3298
1958.6932,1.9797,0.9545,103.7586,2.9469,0.0000,0.0000,222.9210,-34.5937,87.5847,1548,1451,0.9995,-0.2510,0.5252,9.4989,3.0442,0.4554,4.1285,-0.4476,0.6508,9.5122,2.8496,0.4535,4.3527
1958.7124,2.0673,1.0092,103.8376,2.4507,0.0000,0.0000,232.7887,-36.0602,91.4727,1550,1449,1.0000,-0.3946,0.4988,9.5396,2.5099,0.3256,4.0140,-0.3567,0.5239,9.5696,2.3916,0.0107,4.1161
1958.7316,2.1461,0.9775,103.9081,1.7904,0.0000,-0.0000,241.6672,-37.3826,94.9297,1552,1447,1.0000,-0.0355,0.5276,9.4127,1.6473,-0.4454,3.6553,-0.1747,0.4928,9.6678,1.9336,0.5298,3.6428
1958.7503,2.2109,0.8936,103.9669,0.6988,0.0000,-0.0000,248.9615,-38.4735,97.7726,1553,1446,1.0000,0.1752,0.5946,9.7215,0.5939,-0.6286,3.0217,-0.2010,0.6029,9.4691,0.8038,-0.2412,3.2153
1958.7689,2.2649,0.8570,104.0222,0.3935,0.0000,-0.0000,255.0349,-39.3861,100.1421,1555,1444,1.0000,-0.0451,0.5707,9.5085,0.1435,-0.8805,2.8461,-0.1939,0.6676,9.6941,0.6435,-0.4091,3.0932
1958.7874,2.3048,0.8701,104.0702,-0.0264,0.0000,-0.0000,259.5334,-40.0683,101.9010,1556,1443,1.0000,-0.2797,0.5587,9.6306,-0.2611,-0.6286,2.3957,-0.2058,0.6795,9.5624,0.2084,-0.9358,2.7726
1958.8062,2.3379,0.8711,104.1123,0.5691,0.0000,-0.0000,263.2584,-40.6375,103.3600,1556,1443,1.0000,-0.2606,0.4773,9.4486,0.3267,-1.4072,2.0369,-0.2058,0.4593,9.8378,0.8115,-1.0961,2.5360
1958.8248,2.3776,0.8261,104.1653,1.2561,0.0000,-0.0000,267.7357,-41.3173,105.1111,1557,1442,1.0000,-0.0666,0.4557,9.4079,0.7084,-1.3843,3.7774,-0.1101,0.3994,9.8186,1.8038,-1.3862,1.9863
1958.8437,2.4182,0.8034,104.1976,2.3057,0.0000,0.0000,272.3060,-42.0111,106.8984,1558,1441,1.0000,-0.1552,0.3815,9.5946,1.8381,-1.0103,1.6782,-0.0885,0.4928,9.7492,2.7733,-1.6152,1.8718
1958.8629,2.5187,0.7650,104.2269,2.7141,0.0000,0.0000,283.6191,-43.6939,111.3021,1561,1438,1.0000,-0.0978,0.6305,9.7934,2.5175,-1.2927,1.4568,0.0312,0.4377,9.6774,2.9107,-1.5771,1.6505
1958.8822,2.5845,0.7359,104.2489,2.7256,0.0000,0.0000,291.0317,-44.8059,114.1930,1562,1437,1.0000,-0.1097,0.4988,9.8700,2.9984,-1.2240,1.0827,-0.2226,0.1959,9.7971,2.4527,-1.2335,1.2917
1958.9013,2.6503,0.6872,104.2696,2.8477,0.0000,0.0000,298.4381,-45.9176,117.0820,1564,1435,1.0000,-0.0235,0.5084,10.1166,2.9297,-1.2316,1.1515,0.0695,0.4329,9.5385,2.7656,-1.2946,1.1161
1958.9205,2.6605,0.6437,104.2888,2.7446,0.0000,0.0000,299.5910,-46.1131,117.5452,1564,1435,1.0000,-0.0235,0.2666,10.0352,3.1511,-1.6515,1.0369,-0.1867,0.5024,9.9910,2.3382,-0.6992,1.1314
1958.9396,2.6865,0.6464,104.3081,2.1988,0.0000,0.0000,302.5219,-46.5694,118.6982,1565,1434,1.0000,-0.2079,0.3887,9.9538,2.4641,-1.2622,1.0446,0.0025,0.4090,9.6319,1.9336,-0.5084,1.0703
1958.9582,2.7104,0.6270,104.3242,1.6378,0.0000,-0.0000,305.2128,-46.9908,119.7583,1565,1434,1.0000,-0.1025,0.4414,10.0783,2.2351,-1.0561,1.0140,0.0958,0.4976,9.8378,1.0405,-0.6076,0.8108
1958.9868,2.7137,0.6229,104.3325,1.1569,0.0000,-0.0000,305.5748,-47.0710,119.9150,1565,1434,1.0000,-0.1768,0.4055,10.1477,1.3725,-1.2622,0.8308,-0.1579,0.4329,10.1538,0.9412,-0.9664,0.9558
1959.0055,2.6957,0.6436,104.3482,0.3248,0.0000,-0.0000,303.5504,-46.8013,119.1459,1565,1434,1.0000,-0.2486,0.3552,9.8748,0.6778,-0.6897,0.7545,-0.1436,0.4784,9.9527,-0.0282,-0.2565,0.9863
1959.0242,2.6463,0.6164,104.3673,-1.0149,0.0000,-0.0000,297.9933,-46.0135,117.0061,1564,1435,1.0000,-0.0882,0.3312,10.0639,-0.7115,-1.0255,0.9911,-0.0191,0.2630,9.6917,-1.3183,-1.1954,1.1924
1959.0429,2.5707,0.5617,104.3847,-1.3164,0.0000,-0.0000,289.4748,-44.7911,113.7171,1562,1437,1.0000,0.0555,0.2235,9.9179,-0.5970,-1.5981,0.8919,-0.1148,0.2462,9.8617,-2.0359,-0.5160,1.1161
1959.0623,2.5080,0.5574,104.4003,-0.9538,0.0000,-0.0000,282.4196,-43.7824,110.9953,1561,1438,1.0000,-0.0690,0.2474,10.1046,-1.3451,-0.0561,0.8232,-0.0047,0.3611,9.9527,-0.5626,0.3771,0.8184
1959.0818,2.4178,0.5139,104.4220,-2.6294,0.0000,-0.0000,272.2581,-42.3177,107.0680,1558,1441,1.0000,0.0100,0.2618,9.9705,-2.5359,-0.9797,1.0980,-0.0454,0.2438,9.6941,-2.7229,-0.9511,1.2535
1959.1016,2.3406,0.4995,104.4483,-1.2515,0.0000,-0.0000,263.5645,-41.0673,103.7097,1557,1442,1.0000,-0.0834,0.1924,10.0352,-1.4367,-1.1477,1.1285,-0.1244,0.1409,10.1131,-1.0664,-0.0503,1.6199
1959.1211,2.2494,0.5193,104.4767,-1.0340,0.0000,-0.0000,253.2997,-39.5858,99.7413,1554,1445,1.0000,-0.1624,0.0894,10.1381,-0.9252,0.3867,1.2354,-0.1915,0.1624,10.1658,-1.1427,0.0794,1.7268
1959.1403,2.1527,0.5284,104.5040,0.0538,0.0000,0.0000,242.4014,-38.0104,95.5267,1552,1447,1.0000,-0.2079,-0.0566,9.7048,-0.2306,-0.5370,1.5102,-0.1579,0.1792,9.8881,0.3382,-1.1954,1.4978
1959.1595,2.1265,0.5398,104.5352,0.3897,0.0000,0.0000,239.4563,-37.6001,94.3970,1551,1448,1.0000,-0.1337,0.2235,10.0807,0.3877,-0.3614,1.6095,-0.1292,0.2007,10.1203,0.3916,0.7435,1.6734
1959.1787,2.1216,0.5422,104.5722,0.8324,0.0000,0.0000,238.9008,-37.5400,94.1942,1551,1448,1.0000,-0.0571,0.2762,10.1190,1.0213,0.6539,1.9072,-0.1627,0.3611,10.0485,0.6435,0.5527,1.9176
1959.1980,2.1181,0.5459,104.6132,1.0080,0.0000,0.0000,238.5123,-37.5042,94.0562,1551,1448,1.0000,-0.1049,0.2594,9.7934,0.8992,-0.0790,1.9530,-0.1316,0.2677,9.7444,1.1168,0.3313,2.3298
1959.2171,2.1329,0.5779,104.6578,1.8744,0.0000,0.0000,240.1730,-37.7689,94.7132,1552,1447,1.0000,-0.1504,0.2738,10.1333,1.7313,0.8752,2.1973,-0.0694,0.3468,10.1083,2.0176,1.4687,2.4138
1959.2364,2.1617,0.6095,104.7076,1.8095,0.0000,0.0000,243.4160,-38.2657,95.9842,1552,1447,1.0000,-0.1432,0.3432,10.0855,1.8152,1.2798,2.4339,-0.1532,0.4258,9.8234,1.8038,1.2321,2.6428
1959.2556,2.2208,0.6687,104.7618,1.8095,0.0000,0.0000,250.0729,-39.2633,98.5798,1554,1445,1.0000,-0.2366,0.4773,9.8269,1.6931,0.7073,2.6934,-0.1005,0.5143,9.8617,1.9260,2.7512,2.8108
1959.2748,2.2935,0.6940,104.8148,1.2294,0.0000,0.0000,258.2624,-40.4862,101.7704,1555,1444,1.0000,-0.1720,0.6138,10.0807,1.4717,0.5241,2.5255,-0.0885,0.6077,9.9024,0.9870,1.1710,2.9100
1959.2940,2.3406,0.7125,104.8703,0.1607,0.0000,-0.0000,263.5605,-41.2859,103.8397,1557,1442,1.0000,-0.1456,0.5970,10.0328,0.3496,0.9134,2.7698,-0.1484,0.6580,9.5601,-0.0282,0.6901,2.9024
1959.3133,2.3830,0.7098,104.9263,-0.2172,0.0000,-0.0000,268.3441,-42.0106,105.7096,1558,1441,1.0000,-0.0978,0.5946,9.7335,0.0595,-0.1782,2.7927,-0.3471,0.8352,9.7061,-0.4939,0.6061,2.9482
1959.3325,2.3896,0.7331,104.9861,-1.3431,0.0000,-0.0000,269.0837,-42.1429,106.0108,1558,1441,1.0000,-0.1768,0.5587,10.1046,-0.3069,0.4172,3.0369,-0.1843,0.7418,9.8067,-2.3794,1.1176,3.1008
1959.3513,2.4589,0.7422,105.0471,-0.8393,0.0000,-0.0000,276.8855,-43.3106,109.0520,1559,1440,1.0000,-0.1576,0.8029,9.9083,-0.5130,0.2951,3.0980,-0.0837,0.6580,9.4571,-1.1656,0.2779,3.2917
1959.3699,2.4875,0.7028,105.1072,-0.9004,0.0000,-0.0000,280.1118,-43.8082,110.3185,1560,1439,1.0000,0.0387,0.6161,9.7000,-0.6733,-0.1782,3.1591,-0.0646,0.6915,9.8330,-1.1275,0.1023,3.2306
1959.3887,2.5332,0.7113,105.1642,-0.7668,0.0000,-0.0000,285.2587,-44.5877,112.3302,1561,1438,1.0000,-0.1121,0.7023,9.8796,-0.6657,0.5317,2.9072,-0.1196,0.7083,9.8258,-0.8679,0.8886,3.0703
1959.4074,2.5711,0.7267,105.2212,-0.7248,0.0000,-0.0000,289.5261,-45.2387,114.0011,1562,1437,1.0000,-0.1456,0.6640,9.8125,-0.6504,0.7607,2.8766,-0.1364,0.7801,9.7468,-0.7992,0.5909,3.1085
1959.4260,2.6258,0.7188,105.2745,-0.6065,0.0000,-0.0000,295.6806,-46.1667,116.4042,1564,1435,1.0000,-0.0930,0.7430,9.8006,-0.8565,-0.0179,2.7240,-0.1125,0.7777,9.8474,-0.3565,0.1710,2.9482
1959.4445,2.7087,0.7327,105.3249,-0.1409,0.0000,0.0000,305.0204,-47.5623,120.0435,1566,1433,1.0000,-0.1504,0.8484,9.8341,-0.3069,0.2035,2.7087,-0.0574,0.8136,10.0173,0.0252,1.0260,2.5589
1959.4637,2.7824,0.7279,105.3699,0.8897,0.0000,0.0000,313.3111,-48.8049,123.2762,1567,1432,1.0000,-0.0738,0.7047,9.6521,0.6397,0.3638,2.2812,-0.1316,0.6963,9.6415,1.1397,0.5298,2.2917
1959.4834,2.8732,0.6988,105.4117,1.7828,0.0000,0.0000,323.5424,-50.3327,127.2623,1569,1430,1.0000,0.0124,0.7239,9.8556,1.7618,0.0279,2.2202,0.0120,0.6436,9.8641,1.8038,0.4306,1.9329
1959.5027,2.9842,0.6956,105.4464,2.3401,0.0000,0.0000,336.0448,-52.1944,132.1301,1572,1427,1.0000,-0.0499,0.7909,9.8867,2.3801,0.7836,1.8308,-0.1460,0.7011,9.7157,2.3000,0.6596,1.6047
1959.5219,3.1025,0.7002,105.4753,3.0652,0.0000,0.0000,349.3610,-54.1765,137.3142,1575,1424,1.0000,-0.1097,0.7478,9.4151,3.1740,0.6539,1.4034,-0.1484,0.5455,9.4236,2.9565,0.0413,1.5054
1959.5413,3.2098,0.6760,105.4971,3.7370,0.0000,0.0000,361.4516,-55.9801,142.0235,1578,1421,1.0000,-0.0092,0.6832,9.7790,3.5862,-0.0332,1.2049,0.0336,0.7346,9.6558,3.8878,0.2779,1.0016
1959.5605,3.3329,0.6600,105.5141,4.6492,0.0000,0.0000,375.3055,-58.0432,147.4176,1581,1418,1.0000,-0.0259,0.6976,9.7598,4.8076,0.3867,0.9835,0.0839,0.6077,9.4882,4.4908,0.1787,0.7115
1959.5797,3.4545,0.6230,105.5274,5.0385,0.0000,0.0000,389.0082,-60.0854,152.7537,1584,1415,1.0000,0.0459,0.6592,9.4845,4.9145,0.1653,0.8232,-0.0167,0.7322,9.2009,5.1626,-0.2412,0.5360
1959.5989,3.6160,0.5574,105.5296,6.3859,0.0000,0.0000,407.1937,-62.7860,159.8297,1587,1412,1.0000,0.1560,0.7670,9.7790,5.5786,-0.6133,0.1973,-0.0406,0.7011,9.8785,7.1931,-0.1343,0.0550
1959.6181,3.7245,0.5227,105.5310,6.4851,0.2138,1.7261,414.4394,-64.6131,163.0997,1589,1410,1.0000,0.0794,0.5539,9.9418,5.7618,-0.2622,0.1056,0.1318,0.7801,9.7803,7.2084,0.7817,0.0321
1959.6372,3.8070,0.5270,105.5252,4.3019,0.3516,0.6516,426.8266,-66.0127,167.6556,1592,1407,1.0000,-0.0810,0.6377,9.8604,5.1435,0.3561,-0.2913,0.0144,0.7011,9.7779,3.4603,0.3008,-0.3648
1959.6567,3.9445,0.6880,105.5255,4.5614,0.5529,1.1177,440.9668,-68.3205,173.2824,1595,1404,1.0000,-0.6915,1.0208,11.3688,1.7923,3.1577,0.1973,0.2251,0.5479,9.5601,7.3305,1.9268,-0.5785
1959.6760,4.0108,0.6895,105.5106,5.2217,0.9424,2.7654,443.6896,-69.4548,174.7797,1596,1403,1.0000,0.0698,0.4486,8.3856,4.9755,1.8523,-1.0012,-0.1172,0.5981,11.7196,5.4679,2.7970,-0.8152
1959.6952,4.1150,0.5152,105.4898,5.9698,1.6112,5.9688,446.1938,-71.2144,176.5868,1597,1402,1.0000,0.5008,0.5132,7.7535,4.4412,-1.7660,-1.0623,-0.2250,0.5191,10.3669,7.4985,0.6443,-0.9755
1959.7147,4.1470,0.4484,105.4614,3.5614,1.3644,-1.7564,472.0543,-71.7851,184.6873,1601,1398,1.0000,0.0986,0.5778,10.4111,3.2961,-2.7278,-1.3982,-0.2106,0.4473,9.8186,3.8267,-0.2106,-1.2732
1959.7341,4.2085,0.4618,105.4373,3.6950,1.2114,-1.0468,476.9397,-72.8423,186.7873,1602,1397,1.0000,-0.0379,0.6568,9.6018,3.0213,0.9897,-1.4821,-0.3231,0.5335,10.0628,4.3687,0.9649,-1.1282
1959.7533,4.1569,0.4443,105.4101,1.1569,0.4314,-2.7051,475.8964,-72.0313,185.9877,1602,1397,1.0000,-0.0116,0.3815,9.6976,1.3419,0.0355,-1.2989,0.1701,0.6772,9.5457,0.9718,-0.4015,-1.4640
1959.7724,4.1467,0.4266,105.3807,1.4927,0.1060,-0.5380,468.5132,-71.9055,183.6972,1601,1398,1.0000,-0.0331,0.5539,10.0735,2.1740,-1.2316,-1.3600,-0.0981,0.5359,10.0940,0.8115,0.1863,-1.6091
1959.7919,4.1158,0.4328,105.3482,1.0767,0.0000,-0.0000,463.4828,-71.4367,181.9069,1600,1399,1.0000,0.0028,0.4797,9.8700,0.8839,0.7149,-1.6882,-0.0718,0.8232,9.7683,1.2695,1.4382,-1.7847
1959.8111,4.0948,0.4449,105.3126,0.7217,0.0000,-0.0000,461.1192,-71.1313,181.0146,1599,1400,1.0000,-0.0187,0.5635,9.9418,0.0442,1.4477,-1.9402,0.1701,0.4138,9.7085,1.3992,0.9115,-1.9221
1959.8303,4.0668,0.4225,105.2806,0.3210,0.0000,-0.0000,457.9625,-70.7095,179.8145,1598,1401,1.0000,0.1656,0.5707,10.1740,0.2961,1.2416,-1.8867,0.0216,0.5670,9.9886,0.3458,1.6367,-1.6244
1959.8498,4.0475,0.4460,105.2532,0.3172,0.0000,-0.0000,455.7867,-70.4312,178.9947,1598,1401,1.0000,0.0124,0.6018,9.9921,-0.3222,1.9668,-1.7111,0.0815,0.4641,10.1873,0.9565,2.2474,-1.3648
1959.8690,4.0605,0.4580,105.2205,1.2332,0.0000,-0.0000,457.2530,-70.6867,179.5879,1598,1401,1.0000,-0.0068,0.6401,9.7096,1.8763,1.4554,-1.9020,0.2467,0.6293,10.0580,0.5901,1.2779,-1.7007
1959.8881,4.0484,0.4640,105.1890,1.0576,0.0000,-0.0000,455.8940,-70.5280,179.0850,1598,1401,1.0000,0.1081,0.5515,9.8293,1.1435,3.0508,-1.6272,0.0839,0.6341,9.5768,0.9718,1.6748,-1.9831
1959.9074,4.0530,0.4857,105.1548,2.2027,0.0000,0.0000,456.4096,-70.6441,179.3093,1598,1401,1.0000,-0.0259,0.5443,10.1740,1.0900,1.2951,-1.7951,0.1365,0.6580,9.7779,3.3153,2.0489,-1.9602
1959.9267,3.9741,0.5338,105.1268,1.6072,0.0000,-0.0000,447.5240,-69.3820,175.8864,1596,1403,1.0000,-0.1169,0.2139,10.2531,1.3877,1.7302,-1.4974,0.0623,0.3156,9.8785,1.8267,2.4840,-1.6091
1959.9460,3.9402,0.6034,105.0868,1.5729,0.0000,-0.0000,443.7080,-68.8624,174.4298,1595,1404,1.0000,-0.1863,0.4150,10.2866,1.8381,1.6844,-1.3829,-0.1268,0.4641,10.0580,1.3076,3.2855,-3.0900
1959.9654,3.9564,0.6624,105.0689,2.0271,0.0000,0.0000,445.5235,-69.1679,175.1578,1596,1403,1.0000,-0.1385,0.5659,9.7096,2.8534,2.6768,-1.1615,0.0264,0.5742,9.8617,1.2008,2.4916,-1.0213
1959.9847,3.9642,0.6657,105.0428,1.4011,0.0000,-0.0000,446.4082,-69.3372,175.5248,1596,1403,1.0000,0.0028,0.5802,9.6808,1.8458,1.6462,-1.4516,-0.0095,0.8352,9.5648,0.9565,1.2016,-1.4335
1960.0039,3.9585,0.6798,105.0238,0.3744,0.0000,-0.0000,445.7688,-69.2831,175.3005,1596,1403,1.0000,-0.0762,0.6377,10.0807,0.6855,1.1042,-1.2226,0.0863,0.7490,9.7588,0.0634,1.2321,-0.9068
1960.0232,3.9062,0.7249,105.0135,-0.1752,0.0000,-0.0000,439.8768,-68.4589,173.0384,1595,1404,1.0000,-0.1911,0.4605,9.8891,-0.2229,1.4172,-0.7188,-0.1436,0.6724,9.2488,-0.1275,1.4840,-0.4869
1960.0424,3.8523,0.8040,105.0133,-0.8393,0.0000,-0.0000,433.7984,-67.6069,170.7037,1593,1406,1.0000,-0.3827,0.5036,9.8245,-0.8489,0.7989,-0.2684,-0.1005,0.3396,9.4427,-0.8298,1.5756,0.1543
1960.0615,3.7879,0.8491,105.0139,-0.9615,0.0000,-0.0000,426.5502,-66.5828,167.9148,1592,1407,1.0000,-0.2127,0.4653,10.0879,-0.3222,1.0126,-0.2379,0.0887,0.4856,9.9742,-1.6008,2.2626,0.1543
1960.0809,3.7653,0.8817,105.0187,-0.4996,0.0000,-0.0000,424.0041,-66.2474,166.9497,1591,1408,1.0000,-0.1409,0.5898,9.8101,0.0290,1.5165,-0.0012,0.0264,0.6341,9.7779,-1.0282,2.0718,0.2917
1960.1001,3.7301,0.8568,105.0263,-1.0378,0.0000,-0.0000,420.0394,-65.7039,165.4341,1590,1409,1.0000,-0.0259,0.5515,9.4223,-0.7115,0.3867,0.4110,-0.1292,0.6580,9.5409,-1.3641,-0.0885,0.3909
1960.1198,3.6543,0.8910,105.0401,-2.0607,0.0000,-0.0000,411.5097,-64.4907,162.1473,1589,1410,1.0000,-0.3037,0.4893,9.8269,-2.1619,-0.0103,0.6705,-0.3495,0.3898,9.4595,-1.9595,-0.1038,0.7879
1960.1394,3.5421,0.8672,105.0559,-2.3279,0.0000,-0.0000,398.8662,-62.6737,157.2641,1586,1413,1.0000,-0.0307,0.3384,10.0543,-2.1084,0.5088,0.7927,0.0815,0.3875,9.3661,-2.5473,0.0718,0.9100
1960.1586,3.4590,0.8206,105.0715,-1.6790,0.0000,-0.0000,389.5164,-61.3384,153.6579,1584,1415,1.0000,-0.0187,0.3791,9.8389,-1.5359,-0.7126,0.8156,0.0049,0.4090,9.4810,-1.8221,-0.9969,0.9940
1960.1777,3.4123,0.8016,105.0920,-0.6676,0.0000,-0.0000,384.2562,-60.6018,151.6379,1583,1416,1.0000,-0.1720,0.4366,9.7622,-0.0779,-1.6973,0.9453,-0.3447,0.4473,9.9383,-1.2573,-0.9740,1.4215
1960.1972,3.3739,0.7939,105.1165,-0.0302,0.0000,0.0000,379.9268,-60.0012,149.9788,1582,1417,1.0000,-0.0978,0.4031,9.5731,0.0442,1.1195,1.3805,-0.1005,0.5718,9.6175,-0.1046,-0.9206,1.1772
1960.2165,3.3113,0.7308,105.1419,-0.4386,0.0000,0.0000,372.8725,-59.0008,147.2622,1580,1419,1.0000,0.0220,0.3241,9.4318,-1.2687,-1.3996,1.3423,-0.1579,0.3515,9.5888,0.3916,-1.3557,1.5436
1960.2357,3.2818,0.7152,105.1647,-0.9653,0.0000,-0.0000,369.5530,-58.5473,145.9942,1580,1419,1.0000,-0.2031,0.5228,9.8891,-1.5435,-2.7202,1.2507,-0.1460,0.4473,9.4044,-0.3870,-0.5007,1.3298
1960.2552,3.2592,0.7219,105.1821,-0.4844,0.0000,0.0000,367.0124,-58.2076,145.0283,1579,1420,1.0000,-0.1983,0.5156,10.1070,0.1358,-0.4072,0.9682,-0.0382,0.6101,9.4188,-1.1046,-0.3557,0.8871
1960.2744,3.2802,0.6824,105.2015,1.4469,0.0000,0.0000,369.3768,-58.5868,145.9651,1580,1419,1.0000,-0.0882,0.5036,9.3816,1.5939,-1.6362,0.9606,-0.0765,0.5383,9.5984,1.3000,-1.6152,1.2535
1960.2935,3.2824,0.6644,105.2206,0.7027,0.0000,0.0000,369.6183,-58.6551,146.0785,1580,1419,1.0000,-0.1744,0.4916,9.4821,0.9984,-1.6515,0.9453,-0.2130,0.5742,9.6151,0.4069,-1.6076,1.2611
1960.3132,3.2884,0.5865,105.2151,-0.0645,0.0000,0.0000,370.2994,-58.7877,146.3625,1580,1419,1.0000,0.0052,0.5731,9.3959,-0.5435,-2.3156,0.8690,0.0719,0.4521,9.3302,0.4145,-2.8290,-1.1892
1960.3324,3.2628,0.4953,105.2430,-2.0111,0.0000,-0.0000,367.4203,-58.3985,145.2652,1579,1420,1.0000,0.0124,0.6114,9.6761,-1.7344,-3.7126,0.7240,0.0575,0.6365,9.3565,-2.2878,-2.8977,2.5894
1960.3516,3.1901,0.4111,105.2525,-3.1065,0.0000,-0.0000,359.2336,-57.2309,142.1086,1578,1421,1.0000,0.0722,0.5036,9.9322,-2.1466,-3.0866,0.5179,0.0264,0.5694,9.5720,-4.0664,-1.9740,0.7726
1960.3711,3.1137,0.4115,105.2622,-3.8202,0.0000,-0.0000,350.6294,-56.0014,138.7896,1576,1423,1.0000,-0.2486,0.5180,9.4630,-3.3222,-1.9950,0.4492,-0.1699,0.4904,9.6247,-4.3183,-2.2259,0.7955
1960.3903,3.0157,0.3784,105.2727,-5.9767,0.0000,-0.0000,339.5884,-54.4139,134.5248,1573,1426,1.0000,-0.1480,0.5994,9.6330,-5.2764,-2.5370,0.4186,-0.1436,0.4641,9.5648,-6.6771,-2.7145,0.9634
1960.4095,2.8693,0.3165,105.2804,-7.9653,0.0000,-0.0000,323.0970,-52.0262,128.1449,1570,1429,1.0000,-0.0954,0.5419,9.8532,-7.1466,-3.5370,0.1896,0.0168,0.6819,9.5792,-8.7840,-3.5160,1.0092
1960.4289,2.6923,0.2309,105.2669,-8.4996,-0.5244,-6.1732,320.9458,-49.1330,125.7635,1569,1430,1.0000,0.0028,0.4294,9.6856,-7.9481,-3.9721,0.0904,0.1102,0.4976,9.7875,-9.0511,-3.5465,-1.1205
1960.4481,2.4876,0.1795,105.2569,-10.0798,-2.7161,-28.9764,363.5679,-45.7804,136.5386,1575,1424,1.0000,-0.0307,0.4102,9.8077,-9.7039,-2.9645,0.4110,0.0240,0.4617,9.7731,-10.4557,-2.1954,-1.2045
1960.4672,2.2069,0.1295,105.2657,-12.0645,-5.6824,-57.0185,412.7227,-41.1714,148.5196,1581,1418,1.0000,-0.0068,0.2091,10.1525,-11.6275,-2.7889,0.3041,-0.0622,0.3132,9.8426,-12.5015,-1.8519,0.8489
1960.4866,1.9797,0.0789,105.2543,-12.1599,-6.7328,-49.4479,365.3314,-37.4418,132.0645,1572,1427,1.0000,-0.0020,0.4270,10.0998,-11.4214,-2.6057,0.2431,-0.0454,0.4258,9.9359,-12.8985,-2.2030,-1.2198
1960.5057,1.7203,0.0343,105.2598,-12.2744,-7.5640,-43.3756,318.6351,-33.1793,115.4981,1563,1436,1.0000,0.0028,0.2331,9.9681,-12.1161,-2.4606,0.2965,0.0240,0.3252,10.1754,-12.4328,-1.7908,0.4444
1960.5249,1.4606,0.0561,105.2510,-12.9920,-8.3782,-42.5561,287.0258,-28.9081,103.4526,1556,1443,1.0000,-0.1863,0.2498,10.0472,-13.0932,-1.0026,0.2660,-0.2346,0.2821,9.8186,-12.8908,-0.8748,-1.0976
1960.5441,1.1876,0.0574,105.2577,-12.9386,-9.0623,-35.5306,196.7143,-24.4163,73.6641,1540,1459,1.0000,-0.1049,0.1445,9.9825,-12.4901,-0.9721,0.1515,-0.0239,0.2414,10.0245,-13.3870,-1.0274,0.6352
1960.5628,0.9144,0.0485,105.2656,-13.3546,-9.7061,-34.4202,168.4147,-19.9180,62.4752,1534,1465,1.0000,-0.0666,0.0966,10.0567,-13.2764,-1.2927,0.1667,-0.0598,0.1959,9.9766,-13.4328,-0.9282,0.7573
1960.5814,0.7002,0.0430,105.2716,-12.8508,-10.1778,-25.3677,126.5839,-16.3898,47.8090,1526,1473,1.0000,-0.0786,0.2786,10.0807,-12.8413,-1.4301,0.2354,-0.1388,0.2342,9.9766,-12.8603,-0.7603,0.4673
1960.6000,0.5096,0.0352,105.2838,-11.3050,-10.3469,-9.1112,69.6817,-13.2498,28.8543,1515,1484,1.0000,-0.0259,0.2091,10.0065,-11.5206,-1.4148,0.2660,-0.0694,0.3898,10.0964,-11.0893,0.1710,1.0856
1960.6188,0.3624,0.0723,105.3004,-9.5569,-10.2284,6.3090,18.8656,-10.8255,12.1550,1506,1493,1.0000,-0.1193,0.2546,10.5021,-9.5054,0.3256,0.5560,-0.0287,0.0762,10.3214,-9.6084,1.2321,1.2230
1960.6373,0.2271,0.0699,105.3214,-9.2821,-10.0864,7.6516,2.9484,-3.7498,3.1344,1501,1498,1.0000,0.1177,0.2522,10.4111,-8.9405,1.4172,0.9224,-0.2441,-0.0674,9.6654,-9.6237,1.0413,1.3451
1960.6563,-0.0306,0.0972,105.3529,-11.6485,-10.3207,-12.3406,26.7448,0.5054,7.7202,1504,1495,1.0000,0.0052,-0.1380,10.7391,-13.9023,2.2035,1.5713,-0.2681,0.0116,10.4770,-9.3947,0.9268,1.7726
1960.6755,-0.2096,0.1121,105.3831,-10.8775,-10.4043,-4.3448,-9.2362,3.4597,-4.8467,1497,1502,1.0000,0.0507,0.1325,10.1262,-12.0016,1.2645,1.1133,-0.0502,0.2558,10.7093,-9.7534,1.7894,2.0627
1960.6947,-0.3961,0.1790,105.4219,-12.4577,-10.7123,-16.0654,1.6635,6.5400,-3.4250,1498,1501,1.0000,-0.1792,0.1924,9.4294,-13.3222,1.9897,1.5179,-0.4596,0.1097,9.8809,-11.5931,0.9191,2.5818
1960.7138,-0.6081,0.2224,105.4573,-13.2286,-11.0897,-19.7294,-11.6573,10.0403,-9.5213,1494,1505,1.0000,-0.2151,0.1229,10.1429,-13.5435,0.7302,1.3957,-0.4788,-0.0435,10.3549,-12.9137,-0.5084,2.3451
1960.7332,-0.8457,0.2778,105.5171,-13.4424,-11.4426,-18.2363,-42.7091,13.9687,-21.1939,1488,1511,1.0000,-0.2725,-0.0040,9.9107,-13.7344,0.0584,1.7392,-0.5123,-0.0722,10.3430,-13.1504,0.0794,4.5589
1960.7524,-1.0590,0.3393,105.5632,-13.1218,-11.6945,-13.1181,-81.4635,17.4981,-34.9379,1480,1519,1.0000,-0.1193,0.0320,10.4135,-13.0474,3.0279,2.1285,-0.2585,-0.1824,10.0580,-13.1962,1.6748,2.7879
1960.7728,-1.2703,0.3882,105.6144,-13.6523,-11.9882,-14.3507,-101.7095,20.9976,-43.1114,1476,1523,1.0000,-0.1600,0.0894,9.1038,-11.6428,0.2645,2.1896,-0.0095,0.0187,10.1490,-15.6618,1.8810,2.8718
1960.7927,-1.5769,0.4990,105.6678,-14.8890,-12.4233,-21.8966,-114.4998,26.0719,-49.9931,1472,1527,1.0000,-0.3491,-0.2721,9.9562,-14.6886,1.2111,2.7392,-0.2130,-0.2255,10.5153,-15.0893,3.5069,2.8184
1960.8119,-1.8276,0.6007,105.7197,-13.0683,-12.5200,-5.0386,-191.2812,30.2267,-75.5204,1458,1541,1.0000,-0.3276,-0.2841,10.0998,-12.5130,2.1653,2.6476,-0.4261,-0.1824,9.9958,-13.6237,2.8199,2.9711
1960.8311,-2.0586,0.6245,105.7739,-12.2630,-12.4815,2.0141,-237.6137,34.0600,-91.7201,1449,1550,1.0000,-0.0523,-0.3176,10.2339,-12.1237,1.7684,2.7850,-0.5051,-0.0866,9.5241,-12.4023,1.5374,3.0245
1960.8506,-2.2804,0.6490,105.8315,-11.1561,-12.2827,10.1577,-286.0432,37.7424,-108.4584,1440,1559,1.0000,-0.1887,-0.3679,9.6641,-11.3298,-0.8118,2.7545,-0.5075,-0.2255,10.0916,-10.9824,1.0565,3.1924
1960.8699,-2.4627,0.6765,105.8877,-9.8890,-11.9236,18.6569,-331.0427,40.7740,-123.7772,1431,1568,1.0000,-0.0427,-0.3607,9.9131,-10.8031,2.0813,2.7087,-0.7014,-0.2446,10.2783,-8.9748,1.8504,3.3375
1960.8891,-2.5909,0.8069,105.9429,-8.9042,-11.4707,23.5969,-359.7057,42.9150,-133.6607,1426,1573,1.0000,-0.5359,-0.2242,9.6258,-9.7802,2.0508,2.6629,-0.8451,-0.3835,10.2807,-8.0282,1.0794,3.2306
1960.9085,-2.6556,0.8810,106.0070,-8.8393,-11.0760,20.3611,-357.6717,44.0090,-133.7069,1426,1573,1.0000,-0.3420,0.0296,9.7263,-9.5054,1.4401,3.1744,-0.3638,-0.1800,10.0197,-8.1733,1.0565,3.4215
1960.9276,-2.7412,0.9333,106.0750,-8.6027,-10.7050,19.3590,-364.4312,45.4497,-136.5992,1424,1575,1.0000,-0.2151,-0.0973,9.8676,-10.0932,1.6844,3.3805,-0.0694,-0.3236,10.0964,-7.1122,2.0565,3.7955
1960.9468,-2.8309,0.9574,106.1517,-7.4233,-10.2128,25.7152,-392.8352,46.9576,-146.0251,1419,1580,1.0000,-0.0523,-0.2386,9.7335,-8.1084,2.6844,4.2507,-0.1125,-0.1872,9.7492,-6.7382,1.8962,3.9024
1960.9661,-2.9018,1.0159,106.2384,-6.6180,-9.6735,27.9268,-407.1931,48.1571,-151.0522,1416,1583,1.0000,-0.2630,-0.2386,9.6880,-6.3298,1.4325,4.2431,-0.6320,-0.1608,9.6822,-6.9061,1.6214,4.8260
1960.9853,-2.9512,1.1348,106.3284,-7.8699,-9.4030,14.0801,-372.8720,49.0009,-141.2622,1422,1577,1.0000,-0.5622,-0.0494,10.0543,-6.9252,1.2722,4.4644,-0.5075,-0.2087,9.7348,-8.8145,1.9268,4.9176
1961.0044,-3.0318,1.2103,106.4214,-9.1065,-9.3585,2.3221,-348.0912,50.3619,-134.6445,1425,1574,1.0000,-0.3228,-0.0973,9.7862,-8.6352,3.0508,4.5560,-0.3303,0.0283,9.5026,-9.5779,1.2779,5.2230
1961.0238,-3.1170,1.1974,106.5181,-9.8584,-9.4335,-3.8807,-339.8246,51.7993,-133.0270,1426,1573,1.0000,-0.1049,-0.0614,9.7215,-9.3222,0.3638,4.8995,0.0456,-0.0627,9.3661,-10.3947,0.2092,4.9329
1961.0430,-3.1454,1.1189,106.6183,-9.6256,-9.4623,-1.5000,-349.8696,52.2979,-136.3396,1425,1574,1.0000,0.1656,0.1565,9.7311,-9.6657,-0.5141,4.7927,0.1365,0.0618,9.4667,-9.5855,0.4535,5.3146
1961.0627,-3.2078,1.0661,106.7256,-9.2935,-9.4370,1.2808,-364.9050,53.3595,-141.4872,1422,1577,1.0000,0.1081,-0.0255,9.6617,-8.2840,0.2874,5.1515,-0.0119,0.1887,9.7755,-10.3031,0.7588,5.5512
1961.0824,-3.2509,1.0026,106.8338,-8.3050,-9.2672,8.6480,-390.9814,54.1039,-149.7568,1417,1582,1.0000,0.1417,-0.0327,9.4486,-8.0397,0.1424,5.3270,0.0408,-0.0603,9.6151,-8.5702,0.4229,5.5207
1961.1024,-3.3054,0.9512,106.9365,-9.3317,-9.2769,-0.4828,-370.8253,55.0367,-144.2696,1420,1579,1.0000,0.1297,0.0032,9.5827,-9.1390,0.1348,5.0675,0.4119,-0.0507,9.6079,-9.5244,1.3848,5.0550
1961.1227,-3.3755,0.8151,107.0345,-10.0493,-9.3927,-5.7063,-363.6679,56.2259,-142.8359,1421,1578,1.0000,0.4074,-0.0087,9.5970,-10.6046,0.5546,4.5026,0.2682,0.0786,9.5289,-9.4939,-1.0427,4.9176
1961.1429,-3.2841,0.6581,107.1385,-7.4309,-9.0985,14.5829,-411.8118,54.7513,-156.3943,1413,1586,1.0000,0.5271,0.4414,9.4965,-9.6199,-0.1477,5.1667,0.5005,-0.3140,9.9407,-5.2420,-0.0885,4.8489
1961.1634,-3.2557,0.5826,107.2278,-7.9195,-8.9216,8.6420,-391.5092,54.3160,-150.0424,1417,1582,1.0000,0.1512,0.2235,9.5516,-9.2764,-1.0408,4.2354,0.3712,0.2151,9.6654,-6.5626,-0.4778,4.2153
1961.1833,-3.1958,0.4929,107.3082,-6.6332,-8.5784,17.2383,-409.5210,53.3596,-154.8721,1414,1585,1.0000,0.2183,0.2642,9.6306,-7.3527,-1.3080,3.7392,0.2419,0.0355,9.6941,-5.9137,-0.6381,4.0474
1961.2028,-3.1794,0.3471,107.3825,-4.8355,-8.0169,28.7580,-440.8459,53.1201,-164.1258,1409,1590,1.0000,0.3356,-0.0662,9.5085,-4.8947,-2.4912,3.5560,0.6848,0.1816,9.4332,-4.7763,-2.6305,3.6886
1961.2227,-3.1185,0.2230,107.4471,-5.2668,-7.6044,20.7712,-410.9904,52.1471,-154.5854,1414,1585,1.0000,0.3931,0.1756,9.9466,-4.3832,-1.8652,3.0446,0.3424,0.0451,9.6343,-6.1504,-0.6000,3.2535
1961.2428,-3.0776,0.1470,107.5106,-4.6638,-7.1633,21.9208,-409.6914,51.5025,-153.8089,1415,1584,1.0000,0.2135,0.0415,9.6689,-4.6810,-0.9874,2.8385,-0.0382,-0.1081,9.4116,-4.6466,-1.0732,3.3146
1961.2631,-3.0212,0.0947,107.5705,-3.1027,-6.5542,29.9260,-426.3963,50.6023,-158.2803,1412,1587,1.0000,0.1465,-0.0231,9.6856,-2.3680,-1.0484,2.6324,0.0144,0.0044,9.8545,-3.8374,-0.4244,3.1390
1961.2835,-2.9367,-0.0036,107.6262,-2.3622,-5.9146,30.7679,-419.3020,49.2370,-155.3328,1414,1585,1.0000,0.2542,0.0368,9.6210,-2.4672,-2.6820,2.4644,0.3377,0.1576,9.8186,-2.2573,-0.8137,2.8108
1961.3033,-2.8836,-0.0468,107.6756,-1.2973,-4.3767,29.3106,-409.1323,48.3907,-151.7741,1416,1583,1.0000,0.0794,-0.1596,9.7120,-1.4596,-1.2240,2.2736,0.1198,-0.2303,9.5241,-1.1351,-1.5084,2.5818
1961.3228,-2.9016,-0.1017,107.7254,-1.4538,-2.7147,16.9860,-375.6638,48.7166,-141.9291,1421,1578,1.0000,0.0770,-0.4493,9.7694,-1.2840,-2.0790,2.1896,-0.0981,-0.3117,9.7324,-1.6237,-2.2870,2.7192
