timestamp,roll_deg,pitch_deg,yaw_deg,omega_raw,omega_filtered,alpha,tau_ff,tau_pid,tau_total,pwm_left,pwm_right,deadzone_factor,accel1_x,accel1_y,accel1_z,gyro1_x,gyro1_y,gyro1_z,accel2_x,accel2_y,accel2_z,gyro2_x,gyro2_y,gyro2_z
415.9409,-2.8553,0.3417,-81.8252,2.5401,0.0000,0.0000,-328.5646,60.6860,-120.5131,1433,1566,0.9851,-0.2004,-0.4807,9.9780,2.5615,-2.6915,1.2284,0.0563,-0.8207,9.9905,2.5187,-0.5671,0.9909
415.9606,-2.8553,0.2891,-81.8155,3.0477,0.0000,0.0000,-328.5660,60.7148,-120.5279,1433,1566,0.9851,0.1420,-0.7680,9.9852,1.6760,-0.6075,0.7933,-0.0035,-0.5477,9.8445,4.4195,-0.2160,0.1741
415.9794,-2.7447,0.2962,-81.7919,5.2081,0.0000,0.0000,-315.8364,58.5298,-112.4357,1438,1561,0.9553,-0.1094,-0.4376,9.9206,4.9966,-0.4090,2.2895,-0.3555,-0.4065,9.7894,5.4195,-0.4450,0.1360
415.9989,-2.6732,0.3115,-81.7949,5.6699,0.0000,0.0000,-307.6066,57.1262,-106.5067,1441,1558,0.9286,-0.1884,-0.6483,9.9158,5.3935,-0.6456,-0.0159,-0.1616,-0.6076,9.7990,5.9462,-0.9259,-0.3602
416.0177,-2.5949,0.3219,-81.8054,6.6852,0.0000,0.0000,-298.5986,55.5866,-99.5420,1445,1554,0.8935,-0.1908,-0.6866,9.9876,6.6073,-0.9586,-0.4663,-0.1616,-0.7321,9.8900,6.7630,-0.9946,-0.7190
416.0363,-2.5069,0.3199,-81.8220,7.3569,0.1201,1.3694,-292.4168,53.8517,-92.2238,1449,1550,0.8476,-0.1310,-0.6722,9.8416,7.1035,-0.9357,-0.5884,-0.1592,-0.6028,9.6194,7.6103,-0.9640,-1.2763
416.0549,-2.3720,0.2934,-81.8468,8.5210,1.2905,13.1377,-310.7887,51.1779,-86.2771,1452,1547,0.7662,-0.0184,-0.5406,9.9757,8.4241,-1.0273,-1.0998,-0.1352,-0.7034,9.7152,8.6180,-0.9182,-1.6656
416.0734,-2.2450,0.2621,-81.8773,8.5668,3.0682,23.0805,-324.7994,48.6586,-78.3905,1456,1543,0.6800,-0.0017,-0.5669,10.0475,8.4699,-1.0197,-1.5121,-0.1711,-0.4807,9.8205,8.6638,-1.1702,-1.8717
416.0919,-2.1054,0.2637,-81.9128,9.2653,4.9870,33.1508,-337.7442,45.8888,-86.3663,1452,1547,0.7350,-0.1525,-0.5406,9.9685,9.0958,-1.0579,-1.8556,-0.0778,-0.5214,9.8229,9.4348,-1.0480,-2.0702
416.1103,-1.9549,0.2635,-81.9500,9.8455,6.1158,35.7051,-327.7833,42.8985,-113.2286,1437,1562,1.0000,-0.1429,-0.5070,9.8775,9.5691,-1.0884,-2.0082,-0.0490,-0.4855,9.8325,10.1218,-1.0022,-2.1007
416.1288,-1.7561,0.2792,-81.9950,10.8455,6.8253,38.3834,-312.6156,38.9392,-107.0020,1441,1558,1.0000,-0.1908,-0.3323,9.6788,10.8134,-0.7983,-2.1991,-0.1903,-0.5477,9.8708,10.8775,-0.7961,-2.7648
416.1473,-1.5943,0.2761,-82.0451,10.8645,7.4312,32.8074,-277.9421,35.7198,-95.6837,1447,1552,1.0000,-0.0903,-0.4711,9.5926,10.9432,-0.7144,-2.4815,-0.0538,-0.3825,9.5284,10.7859,-0.4831,-2.9938
416.1657,-1.4011,0.2636,-82.0987,11.6088,8.0578,34.0298,-259.2292,31.8695,-88.5190,1451,1548,1.0000,-0.0424,-0.3730,9.9637,11.3172,-0.4014,-2.7869,0.0252,-0.3203,9.7104,11.9004,-0.6434,-3.0778
416.1842,-1.1459,0.2479,-82.1504,12.1737,8.6752,33.3089,-189.8272,26.7780,-66.5406,1463,1536,1.0000,-0.0208,-0.1048,9.8296,12.0119,-0.3937,-2.6647,-0.1616,0.0508,9.6745,12.3355,-0.6892,-3.0015
416.2027,-0.8722,0.2410,-82.2038,13.3760,9.3803,38.2100,-175.3442,21.3127,-59.7527,1467,1532,1.0000,-0.0759,-0.0689,9.7985,12.9355,-0.5464,-2.8708,0.0372,-0.0378,9.5093,13.8165,-0.8495,-3.0015
416.2211,-0.5675,0.2265,-82.2561,14.4065,10.1342,40.9572,-152.7129,11.3552,-48.4372,1473,1526,1.0000,0.0151,0.0365,9.8176,14.2103,-0.0273,-2.7640,-0.0395,0.0700,9.7176,14.6027,-0.1931,-2.9862
416.2396,-0.2657,0.2078,-82.3016,14.2348,10.7493,33.2260,-105.2167,5.3159,-32.1186,1482,1517,1.0000,0.0247,0.0819,9.8464,14.1722,-0.3021,-2.4205,0.0779,0.0771,9.7559,14.2974,-0.1778,-2.5587
416.2581,0.0321,0.1768,-82.3439,14.0516,11.2447,26.8236,-61.3014,-0.6417,-16.8436,1490,1509,1.0000,0.0606,0.1346,9.7865,13.9508,-0.3937,-2.2220,0.2191,0.0580,9.7487,14.1523,-0.6358,-2.4213
416.2767,0.3326,0.1909,-82.3836,14.3111,11.7046,24.7380,-32.9678,-6.6563,-5.9028,1496,1503,1.0000,-0.1381,0.1633,9.7123,14.3477,-0.5082,-2.0540,0.1569,0.1777,9.8540,14.2745,-0.4068,-2.2915
416.2953,0.6416,0.1831,-82.4183,13.2882,11.9422,12.7331,37.1531,-12.8378,16.8217,1509,1490,1.0000,-0.0208,0.3333,9.7051,13.5081,-0.2105,-1.8174,0.0779,0.3525,9.7990,13.0684,-0.3381,-1.9633
416.3139,0.8788,0.1378,-82.4514,11.6394,11.8967,-2.4450,108.1701,-17.5858,39.0805,1521,1478,1.0000,0.1635,0.2017,9.6620,11.8058,-0.1495,-1.7792,0.1736,0.3166,9.7487,11.4729,-0.1625,-1.8106
416.3324,1.1161,0.1064,-82.4768,10.3913,11.6709,-12.1861,163.5231,-22.3329,56.9529,1531,1468,1.0000,0.1300,0.3549,9.6836,10.5386,0.1711,-1.3289,0.0946,0.2304,9.7343,10.2439,-0.0098,-1.4595
416.3509,1.3721,0.0879,-82.4818,10.5210,11.4984,-9.3441,184.8019,-27.4676,65.4783,1536,1463,1.0000,0.1132,0.4794,9.7147,9.7676,0.6139,-1.1151,0.1329,0.3357,9.7870,11.2745,0.4634,0.5863
416.3693,1.5463,0.0746,-82.4965,8.2157,11.0060,-26.6952,254.8184,-30.9671,86.8327,1547,1452,1.0000,0.0845,0.3357,9.6883,8.4470,0.4841,-0.8403,0.2766,0.3237,9.8133,7.9844,0.4711,-0.7877
416.3880,1.6991,0.1270,-82.5089,7.1165,10.4226,-31.3495,285.8029,-34.0396,97.0446,1553,1446,1.0000,-0.2052,0.3525,9.6500,7.3859,0.8047,-0.7869,0.1712,0.3333,9.7966,6.8470,0.3795,-0.5969
416.4064,1.8220,0.1437,-82.5172,5.6241,9.7028,-39.0642,322.1657,-36.5162,108.4645,1559,1440,1.0000,-0.0663,0.3716,9.5854,5.8974,0.4460,-0.4892,0.1736,0.3668,9.7990,5.3508,0.3718,-0.4518
416.4248,1.8796,0.1313,-82.5192,4.2882,8.8906,-44.1644,343.4810,-37.6868,115.0181,1563,1436,1.0000,0.0725,0.2040,9.5734,4.6684,0.4612,-0.0617,0.1952,0.3549,9.9809,3.9081,0.5474,-0.1770
416.4432,1.9654,0.1061,-82.5130,2.8607,7.9861,-48.9963,367.2721,-39.4228,122.5476,1567,1432,1.0000,0.1587,0.4698,9.7051,3.2409,0.6063,0.2131,0.0084,0.4387,9.8971,2.4806,0.8985,0.4031
416.4617,2.0070,0.1105,-82.4967,1.3226,6.9866,-54.0775,386.6879,-40.2739,128.4096,1570,1429,1.0000,0.0079,0.4028,9.5112,1.0882,0.6444,0.9460,-0.0586,0.4770,9.9977,1.5569,0.4711,0.7695
416.4801,1.9742,0.1085,-82.4731,-2.9332,5.0892,-74.7995,442.5881,-39.6369,112.0428,1561,1438,0.7795,-0.0065,0.4291,9.5447,-2.2019,-0.1571,1.2284,0.0443,0.4004,9.7894,-3.6645,0.3566,1.3268
416.4987,1.8767,0.1024,-82.4398,-5.7347,0.6894,-16.4438,263.3109,-37.7068,37.7730,1520,1479,0.4080,0.0869,0.3692,9.6069,-5.0263,0.8200,1.8315,0.1233,0.3453,9.6529,-6.4431,1.1734,1.6856
416.5172,1.7501,0.1249,-82.3986,-8.4484,0.0000,-0.0000,201.3796,-35.1914,23.4118,1512,1487,0.3165,-0.0496,0.4459,9.6093,-7.7362,1.0337,2.1063,0.0994,0.5440,9.8780,-9.1606,0.8298,2.2886
416.5356,1.5668,0.1471,-82.3372,-12.0515,0.0000,-0.0000,180.2965,-31.5427,12.9496,1507,1492,0.1955,-0.0543,0.4722,9.6309,-11.5835,0.7971,2.1673,0.0300,0.3788,9.9690,-12.5194,1.0589,4.4947
416.5541,1.3377,0.1922,-82.2729,-13.0820,0.0000,-0.0000,153.9306,-26.9735,4.2956,1502,1497,0.0759,-0.0974,0.3285,9.7985,-12.6065,1.4612,2.4269,0.0731,0.3166,9.9690,-13.5576,1.9902,4.4871
416.5727,1.0932,0.2061,-82.2212,-13.6240,-0.6751,-16.5476,173.4551,-22.0948,0.3766,1500,1499,0.0063,-0.0136,0.2543,9.4920,-12.0492,1.0337,2.5643,-0.0227,0.2687,10.0336,-15.1988,1.0131,2.9451
416.5912,0.8021,0.2070,-82.1681,-15.4981,-5.2342,-89.0323,290.5926,-16.2803,74.9852,1541,1458,0.8378,0.0247,0.1681,9.7410,-15.1866,0.6750,2.7398,0.0324,0.1490,10.0144,-15.8095,0.9367,2.9222
416.6097,0.5136,0.2117,-82.1115,-15.8797,-7.1072,-83.7603,250.2742,-10.2771,75.2153,1541,1458,1.0000,0.0917,0.1586,9.7314,-15.6523,0.8658,2.9612,-0.1975,0.0939,9.8085,-16.1072,2.7153,3.0902
416.6282,0.1942,0.2328,-82.0494,-16.3301,-8.4906,-74.8786,198.3261,-3.8850,57.4738,1531,1468,1.0000,-0.0974,0.0053,9.8224,-16.1408,0.3162,3.1521,0.0635,-0.0569,9.8277,-16.5194,0.6848,3.5558
416.6467,-0.1291,0.2251,-81.9875,-16.9446,-9.7587,-68.5111,152.0483,2.5830,41.2820,1522,1477,1.0000,0.0582,-0.0138,9.8823,-16.4690,0.6826,3.1597,-0.0610,-0.0761,9.9977,-17.4202,0.7153,3.5024
416.6652,-0.4982,0.2307,-81.9294,-17.7576,-10.9586,-64.9357,129.6901,9.9685,31.3290,1517,1482,1.0000,-0.0113,-0.2173,9.7937,-17.6675,0.5605,2.9994,-0.0538,0.0245,9.8684,-17.8477,0.6314,3.2657
416.6836,-0.8264,0.3172,-81.8675,-16.5782,-11.8015,-45.7532,36.6799,16.5356,2.0026,1501,1498,1.0000,-0.4254,-0.1886,9.7458,-17.0874,0.5452,3.1673,-0.3651,-0.1024,9.9809,-16.0690,-0.3457,3.5787
416.7020,-1.1823,0.2501,-81.7982,-19.1622,-12.9056,-59.9350,36.5660,23.6579,-1.5904,1499,1500,1.0000,0.2377,-0.1623,9.8392,-18.6141,-0.7754,3.5108,0.1952,-0.0474,9.9761,-19.7103,0.2115,3.9451
416.7206,-1.5575,0.2171,-81.7274,-19.7042,-13.9254,-54.8496,-21.2510,31.1769,-21.5387,1488,1511,1.0000,0.1013,-0.2461,9.9924,-19.9118,-0.0273,3.4727,-0.1113,-0.2580,9.8157,-19.4965,-0.5213,4.1131
416.7391,-1.9582,0.2248,-81.6554,-19.4217,-14.7498,-44.6423,-96.7614,39.2112,-46.6988,1474,1525,1.0000,-0.0520,-0.4807,10.0187,-19.0187,-0.1113,3.6559,-0.0921,-0.1934,9.9426,-19.8248,0.4024,4.1360
416.7575,-2.3573,0.2548,-81.5836,-20.3912,-15.5960,-45.9174,-139.0126,47.2164,-62.5318,1465,1534,1.0000,-0.1908,-0.4544,10.0116,-20.1866,-0.1037,3.7704,-0.1376,-0.4711,9.9163,-20.5958,-0.4068,3.9756
416.7761,-2.7575,0.2282,-81.5121,-19.2767,-16.1481,-29.7398,-231.6599,55.2486,-92.4891,1449,1550,1.0000,0.0007,-0.6243,10.2079,-19.4767,-1.1113,3.6406,-0.0802,-0.5238,9.7535,-19.0767,-1.0938,3.9375
416.7947,-3.1361,0.1793,-81.4387,-19.0782,-16.5876,-23.5915,-292.9351,62.8520,-113.4478,1437,1562,1.0000,0.1563,-0.5860,9.8488,-18.8049,-0.4624,3.8238,0.0324,-0.4831,9.9642,-19.3515,-0.7350,3.9451
416.8132,-3.5023,0.1625,-81.3657,-18.3835,-16.8570,-14.5624,-361.0748,70.2101,-136.2060,1425,1574,1.0000,-0.0065,-0.6674,9.9685,-18.6446,-0.9892,3.7322,0.0060,-0.6483,9.8133,-18.1225,-0.6816,4.0367
416.8317,-3.8618,0.1302,-81.2945,-16.5668,-16.8135,2.3570,-451.1756,77.4391,-165.0487,1409,1590,1.0000,0.1276,-0.8638,9.9589,-16.5683,-0.3403,3.7551,-0.2358,-0.7632,9.6026,-16.5652,-0.2465,3.8917
416.8503,-4.1625,0.0865,-81.2243,-15.7194,-16.6494,8.8075,-504.3620,83.4954,-182.9691,1399,1600,1.0000,0.1061,-0.7058,9.9302,-15.7744,-1.0960,3.7398,-0.0347,-0.7321,9.8995,-15.6645,-1.2389,3.5863
416.8688,-4.4764,0.0621,-81.1562,-14.6049,-16.3427,16.5941,-562.9127,89.8183,-202.5247,1388,1611,1.0000,0.0007,-0.9117,9.8176,-15.8202,-1.3098,3.5261,-0.0203,-0.7943,9.6266,-13.3897,-1.5518,3.6169
416.8872,-4.6846,-0.0153,-81.0911,-11.8339,-15.6664,36.7141,-644.8140,94.0283,-227.5621,1374,1625,1.0000,0.1779,-0.7297,9.9062,-11.9042,-1.6915,3.3200,0.1162,-0.6220,9.6122,-11.7637,-3.1244,3.3650
416.9057,-4.8617,-0.0412,-81.0336,-9.1469,-14.6885,52.9273,-711.8863,97.6183,-248.1373,1363,1636,1.0000,0.0390,-0.8422,9.9397,-9.8049,-1.1571,3.0910,0.2263,-0.9165,9.5308,-8.4889,-1.2389,2.9222
416.9242,-4.9570,-0.0488,-80.9790,-6.3721,-13.4410,67.6337,-765.2174,99.5754,-264.0486,1354,1645,1.0000,-0.0328,-0.7177,9.7314,-6.8584,-1.0197,2.9689,-0.0802,-0.7776,9.5859,-5.8858,-1.2999,2.7390
416.9425,-5.0084,-0.0960,-80.9291,-3.6851,-11.9776,79.6221,-805.6548,100.6527,-275.9097,1348,1651,1.0000,0.1707,-0.7752,9.9397,-4.4996,-0.9357,2.6940,-0.1017,-0.6698,9.2986,-2.8706,-1.0862,2.5558
416.9610,-4.9925,-0.0951,-80.9051,-0.4523,-10.2488,93.4895,-843.7578,100.3837,-286.4440,1342,1657,1.0000,-0.1693,-0.7393,9.8559,-1.2782,-2.1037,0.3505,-0.0155,-0.7321,9.4590,0.3737,-2.2770,2.1360
416.9795,-4.9408,-0.0954,-80.8698,1.7958,-8.4421,97.8923,-850.4979,99.4009,-287.8398,1341,1658,1.0000,-0.0879,-0.7536,9.5375,1.7600,-1.3708,1.9078,0.1784,-0.5046,9.4925,1.8317,-1.3305,1.6627
416.9980,-4.7832,-0.1101,-80.8398,5.8149,-6.3036,115.7268,-883.7131,96.2949,-295.5871,1337,1662,1.0000,-0.0208,-0.5956,9.6692,5.7065,-1.2716,1.6101,0.2598,-1.0170,9.5404,5.9233,-1.3381,1.4031
417.0165,-4.5366,-0.2142,-80.8227,8.7081,-1.1450,34.3592,-621.0003,91.4093,-219.5847,1379,1620,1.0000,0.4365,-0.4184,9.8057,8.7142,-1.1342,1.1826,-0.1568,-0.7106,9.6505,8.7019,-0.7503,0.4413
417.0349,-4.2012,-0.2546,-80.8045,11.6088,0.0000,0.0000,-483.4429,84.7426,-177.7353,1402,1597,1.0000,0.1755,-0.2006,9.9924,11.7371,-1.3021,1.4650,-0.0730,-0.9093,10.0480,11.4806,-0.1167,0.3497
417.0534,-3.8536,-0.2378,-80.7951,15.0668,0.0000,0.0000,-443.4475,77.8303,-163.0804,1410,1589,1.0000,-0.0950,-0.3801,9.3939,14.6149,-0.9586,0.6864,-0.0969,-0.4687,9.6673,15.5187,-0.6129,0.1589
417.0718,-3.4751,-0.2732,-80.7901,15.7844,0.0034,0.1368,-400.2807,70.2945,-147.2258,1419,1580,1.0000,0.0486,-0.2461,9.5615,15.8821,-1.0350,0.3047,-0.0323,-0.4376,9.7702,15.6867,-2.7885,-0.0549
417.0914,-3.1999,-0.3015,-80.7898,16.4485,3.9015,78.8650,-595.3490,64.8225,-199.1090,1390,1609,1.0000,0.1396,-0.7752,9.2622,16.6531,-0.2334,-0.0769,0.0467,-0.0186,9.8732,16.2439,-0.3686,0.0367
417.1100,-2.8419,-0.2464,-80.7840,12.8684,6.2372,62.8976,-508.1705,57.6918,-171.1336,1405,1594,1.0000,-0.2746,0.0005,9.5662,12.9584,-0.6685,0.4040,0.0491,-0.1623,9.7894,12.7783,-1.1015,0.0825
417.1286,-2.6512,-0.2449,-80.7773,13.7500,7.3641,60.7199,-479.9456,53.9028,-161.3362,1411,1588,1.0000,0.0630,-0.7656,9.5255,13.1035,0.1101,0.5414,0.1377,-0.3514,9.3010,14.3966,0.6237,0.1283
417.1471,-2.4310,-0.2462,-80.7684,11.7157,8.0168,35.3184,-381.4540,49.5238,-131.5690,1427,1572,1.0000,0.0558,-0.4424,9.6093,12.5997,0.3544,0.4040,-0.2382,-0.0785,9.5907,10.8317,-0.3915,0.5482
417.1655,-2.2619,-0.2497,-80.7752,10.2081,8.3455,17.8347,-311.6391,46.1639,-110.3409,1439,1560,1.0000,0.0462,-0.5046,9.8416,9.5920,-0.0884,0.4269,-0.0275,-0.3418,9.2435,10.8241,-0.2236,-1.3602
417.1841,-2.0556,-0.2302,-80.7628,11.3913,8.8024,24.6360,-307.4943,42.0597,-107.1283,1441,1558,1.0000,-0.0615,-0.4017,9.6836,10.9355,0.0566,0.7704,0.1377,-0.3155,9.2627,11.8470,-0.4144,0.4947
417.2025,-1.8111,-0.2503,-80.7480,12.3531,9.3350,28.8839,-291.5939,37.1879,-100.2403,1444,1555,1.0000,0.1827,-0.2652,9.6524,12.0958,0.4307,0.7627,0.2478,-0.3538,9.4662,12.6103,0.8298,0.8917
417.2210,-1.6434,-0.2645,-80.7259,9.9523,9.4276,5.0021,-203.5115,33.8494,-73.9079,1459,1540,1.0000,0.1779,-0.3849,9.5016,10.7447,0.8734,1.2513,0.1641,-0.2724,9.8492,9.1600,0.7840,1.1589
417.2395,-1.5060,-0.3031,-80.7003,9.1546,9.3866,-2.2124,-166.9234,31.1166,-62.2968,1465,1534,1.0000,0.3383,-0.4256,9.8152,9.0653,1.1024,1.4803,0.2119,-0.5573,9.4518,9.2439,1.4711,1.3115
417.2580,-1.4023,-0.3057,-80.6735,9.0210,9.3318,-2.9719,-152.8015,29.0563,-57.3126,1468,1531,1.0000,0.1946,-0.5429,9.6453,9.2332,1.8276,1.5643,0.1066,-0.4951,9.7271,8.8088,1.1047,1.3573
417.2764,-1.2703,-0.3292,-80.6417,8.6928,9.2360,-5.2024,-131.1887,26.4290,-49.9473,1472,1527,1.0000,0.2449,-0.3610,9.7027,8.0577,0.9421,1.9231,0.3508,-0.3418,9.6912,9.3279,1.0436,1.5100
417.2949,-1.1858,-0.3926,-80.6120,5.2577,8.6392,-32.2911,-36.2105,24.7514,-22.5146,1487,1512,1.0000,0.4365,-0.2748,9.5662,5.7752,1.1711,1.6101,0.0707,-0.2054,9.8277,4.7401,0.8069,1.6474
417.3134,-1.1580,-0.4247,-80.5803,4.0019,7.9436,-37.5644,-25.0693,24.2074,-19.1231,1489,1510,1.0000,0.2832,-0.4113,9.7075,3.7294,0.5834,1.6940,0.2670,-0.3299,9.6410,4.2745,1.0360,1.7390
417.3319,-1.1380,-0.4488,-80.5505,2.9371,7.1926,-40.5883,-14.0502,23.8173,-15.8427,1491,1508,1.0000,0.2832,-0.3538,9.6453,3.2867,1.2398,1.6482,0.3508,-0.3275,9.9378,2.5874,1.1276,1.5787
417.3504,-1.1649,-0.4530,-80.5196,0.8722,6.2446,-51.3413,13.8244,24.3667,-8.3125,1495,1504,1.0000,0.1803,-0.3993,9.8033,1.3859,1.0032,1.5795,0.1856,-0.3155,9.9330,0.3584,0.8833,1.7924
417.3688,-1.2418,-0.4721,-80.4898,-1.2194,4.0713,-48.1935,-4.0939,25.9178,-4.1114,1497,1502,0.2915,0.2737,-0.4496,9.7195,-0.9423,1.1559,1.7322,0.1641,-0.4472,9.8205,-1.4965,1.2955,1.4718
417.3874,-1.3326,-0.4637,-80.4604,-1.5019,1.3186,-17.1133,-104.0561,27.7476,-3.1729,1498,1501,0.0738,0.1180,-0.4998,9.7267,-1.4156,0.8734,1.5872,0.0563,-0.4687,9.7535,-1.5881,0.8222,1.5558
417.4059,-1.4324,-0.4576,-80.4331,-1.7729,0.0616,-0.9078,-162.2103,29.7576,-7.2365,1496,1503,0.1200,0.0893,-0.5286,9.6596,-1.8584,0.4383,1.4421,0.1305,-0.5190,9.6194,-1.6874,0.4329,1.4718
417.4243,-1.5677,-0.4716,-80.4036,-1.8377,0.0000,-0.0000,-180.3915,32.4789,-13.0799,1492,1507,0.1960,0.2593,-0.7153,9.6955,-1.5912,1.3467,1.6482,0.1353,-0.5406,9.8133,-2.0843,1.2573,1.5100
417.4427,-1.6692,-0.4507,-80.3781,-2.9065,0.0000,-0.0000,-192.0739,34.5261,-18.5387,1489,1510,0.2609,0.1013,-0.4879,9.7219,-2.6370,1.3085,1.4650,0.0276,-0.4927,9.7319,-3.1759,1.3489,1.3115
417.4612,-1.7935,-0.3995,-80.3532,-3.0820,0.0000,-0.0000,-206.3806,37.0306,-26.5031,1485,1514,0.3473,-0.0041,-0.5932,9.7267,-3.0034,1.8505,1.4269,0.0419,-0.6244,9.8804,-3.1606,1.7306,1.3115
417.4796,-1.9476,-0.3304,-80.3311,-3.8950,0.0000,-0.0000,-224.1146,40.1323,-38.1597,1479,1520,0.4608,-0.1286,-0.6890,9.7578,-3.7820,1.4460,1.2131,-0.0514,-0.6220,9.8229,-4.0080,1.4024,1.2123
417.4981,-2.0977,-0.2789,-80.3105,-4.3950,0.0000,-0.0000,-241.3858,43.1551,-51.0975,1471,1528,0.5731,-0.0472,-0.6483,9.7051,-4.2324,1.4612,1.2589,-0.0059,-0.5669,9.8205,-4.5576,1.6237,0.9985
417.5166,-2.2597,-0.2200,-80.2917,-4.5515,0.0000,-0.0000,-260.0233,46.4169,-66.2879,1463,1536,0.6904,-0.0998,-0.7177,9.7482,-4.5072,1.5757,1.1292,-0.2023,-0.6004,9.8923,-4.5958,1.1810,0.9451
417.5351,-2.3663,-0.1481,-80.2733,-3.3492,0.0000,-0.0000,-272.2907,48.5727,-76.6460,1457,1542,0.7624,-0.2243,-0.5908,9.8942,-4.3240,0.9727,1.0147,-0.2190,-0.6818,9.7607,-2.3744,0.6314,1.0215
417.5535,-2.4687,-0.0694,-80.2532,-5.0324,0.0000,-0.0000,-284.0731,50.6452,-86.5935,1452,1547,0.8258,-0.2986,-0.4615,9.8942,-3.8584,0.6979,1.1597,-0.2118,-0.4400,9.9498,-6.2065,0.2497,1.0596
417.5721,-2.5698,-0.0196,-80.2351,-4.8721,0.0000,-0.0000,-295.7134,52.6940,-96.1716,1447,1552,0.8811,-0.2052,-0.4735,9.7602,-4.5225,0.2017,1.0757,-0.1640,-0.4592,9.9929,-5.2217,0.0054,0.8688
417.5907,-2.6897,0.0299,-80.2163,-5.4179,0.0000,-0.0000,-309.5017,55.1173,-106.8224,1441,1558,0.9352,-0.1908,-0.5214,9.6500,-5.2324,0.0872,1.0070,-0.2334,-0.4304,10.1246,-5.6034,0.5398,1.0291
417.6093,-2.7799,0.1097,-80.1967,-5.4828,-0.0609,-0.3996,-318.7348,56.9499,-113.7573,1437,1562,0.9663,-0.3105,-0.4089,9.7721,-5.4309,0.9345,1.0452,-0.3076,-0.2844,9.8301,-5.5347,0.3718,1.1436
417.6278,-2.8832,0.1296,-80.1750,-5.7309,-0.3961,-2.2047,-325.4223,59.0445,-119.4540,1434,1565,0.9902,-0.0663,-0.4615,9.7841,-5.7744,0.2475,1.1063,-0.1544,-0.4544,9.6625,-5.6874,0.6543,1.2963
417.6463,-2.9723,0.1408,-80.1510,-4.9942,-0.7064,-2.0587,-336.0995,60.8568,-124.4654,1431,1568,0.9994,-0.0783,-0.4903,10.0571,-5.2171,0.1330,1.3429,0.2143,-0.3969,9.8133,-4.7713,-0.2160,1.2276
417.6648,-3.0358,0.2282,-80.1291,-5.3645,-1.1512,-3.5612,-339.0788,62.1570,-126.0206,1430,1569,1.0000,-0.4302,-0.3442,9.8488,-5.0950,-0.7067,1.2208,-0.6739,-0.5406,9.6888,-5.6339,0.6390,1.1360
417.6832,-3.1320,0.2436,-80.1032,-4.3912,-1.2610,-0.8399,-357.9833,64.1118,-132.2912,1427,1572,1.0000,-0.1286,-0.6052,10.0642,-4.8355,-0.7220,1.4116,0.1042,-0.4927,10.0216,-3.9469,0.4329,1.3726
417.7017,-3.2039,0.3239,-80.0808,-2.9942,-0.9153,2.0935,-374.7065,65.5820,-137.7088,1424,1575,1.0000,-0.2459,-0.6100,9.7171,-2.9194,2.3085,1.2742,-0.2908,-0.5501,9.8947,-3.0690,1.3413,1.3726
417.7202,-3.3006,0.3281,-80.0550,-5.3912,-1.3768,-3.9159,-368.5273,67.5490,-136.9622,1424,1575,1.0000,-0.0807,-0.5382,9.7386,-5.1255,-0.2563,1.4574,-0.0538,-0.3897,10.0144,-5.6568,-0.0175,1.3192
417.7386,-3.3572,0.4227,-80.0312,-2.8797,-0.9668,2.5354,-393.6193,68.7144,-144.5706,1420,1579,1.0000,-0.3488,-0.5860,9.9086,-3.3316,1.6673,1.2513,-0.5159,-0.5765,9.6457,-2.4278,1.6161,1.5405
417.7571,-3.4003,0.4360,-80.0046,-3.8301,-0.9272,0.2567,-392.0202,69.6111,-144.5712,1420,1579,1.0000,-0.0950,-0.4496,9.7123,-3.3240,0.0108,1.4116,-0.1879,-0.2820,10.0432,-4.3362,0.7230,1.4871
417.7756,-3.4599,0.4938,-79.9818,-3.2003,-0.7226,1.1389,-401.4123,70.8364,-147.8136,1418,1581,1.0000,-0.2219,-0.5932,10.0140,-3.5988,1.4460,1.2971,-0.3028,-0.6698,9.6218,-2.8019,1.2726,1.3421
417.7940,-3.4637,0.5007,-79.9608,-2.1049,-0.3423,1.3477,-402.4515,70.9471,-148.1600,1418,1581,1.0000,-0.0567,-0.4280,9.8919,-2.3011,0.8505,1.1750,0.1664,-0.6722,9.8540,-1.9087,0.4940,1.1589
417.8125,-3.4780,0.5022,-79.9450,-0.0439,-0.0020,0.0186,-400.2713,71.2683,-147.7101,1418,1581,1.0000,0.1013,-0.6842,10.2582,-0.4232,1.9498,1.0910,0.0683,-0.6411,9.9737,0.3355,2.3871,0.8764
417.8310,-3.4759,0.5580,-79.9324,0.8378,0.0000,0.0000,-399.9761,71.2610,-147.6238,1418,1581,1.0000,-0.2722,-0.6627,9.8176,0.8897,1.2169,0.7398,-0.3531,-0.5382,9.9833,0.7859,0.2802,0.7237
417.8495,-3.4168,0.5639,-79.9215,0.2157,0.0000,0.0000,-393.1822,70.1144,-145.1482,1420,1579,1.0000,-0.0759,-0.3586,10.1816,0.6760,0.4307,0.4956,-0.1424,-0.3107,9.8445,-0.2446,0.6543,0.7161
417.8680,-3.3226,0.6034,-79.9156,4.3760,0.0000,0.0000,-382.3381,68.2630,-141.1862,1422,1577,1.0000,-0.2555,-0.5358,10.0211,3.9661,0.3315,0.3658,-0.2573,-0.3466,9.6362,4.7859,0.3108,0.2810
417.8864,-3.1680,0.5616,-79.9091,4.8531,0.0000,0.0000,-364.5414,65.2017,-134.6724,1425,1574,1.0000,0.0845,-0.2676,10.0283,4.3248,0.6750,0.3734,-0.0658,-0.3251,10.0719,5.3813,-1.1473,0.2199
417.9048,-3.0567,0.5878,-79.9075,3.4294,0.0000,0.0000,-351.7356,63.0066,-129.9893,1428,1571,1.0000,-0.2004,-0.3107,9.7769,3.4470,0.4918,0.2055,-0.1304,-0.6244,10.0168,3.4119,-0.1244,-0.1083
417.9233,-2.9519,0.5959,-79.9106,4.8226,0.0000,0.0000,-339.6791,60.9407,-125.3661,1431,1568,0.9983,-0.1214,-0.4591,9.9972,4.5768,-0.1189,0.0452,-0.1855,-0.4448,9.7319,5.0684,0.6314,-0.4289
417.9418,-2.8928,0.6369,-79.9205,4.4142,0.0000,0.0000,-332.8819,59.7883,-122.0787,1432,1567,0.9917,-0.2914,-0.6172,9.8895,4.5844,0.2704,-0.3899,-0.2478,-0.5932,10.1988,4.2439,-0.1549,-0.6808
417.9602,-2.8170,0.6138,-79.9366,4.6699,0.0000,0.0000,-324.1534,58.2995,-117.0842,1435,1564,0.9764,0.0055,-0.5453,9.9134,4.2027,-0.0121,-0.6495,0.0396,-0.4400,9.6553,5.1371,0.3108,-1.1312
417.9787,-2.7240,0.6474,-79.9563,6.1126,0.0000,0.0000,-313.4481,56.4661,-109.9793,1439,1560,0.9481,-0.2938,-0.5980,10.2103,6.2790,0.1559,-0.9014,-0.1879,-0.6698,10.1366,5.9462,-0.5747,-1.2839
417.9971,-2.6594,0.6228,-79.9797,5.3722,0.0007,0.0056,-306.0340,55.2014,-104.5519,1442,1557,0.9229,-0.0783,-0.6220,9.8224,5.0271,-1.0655,-1.1075,-0.2166,-0.6722,9.6074,5.7172,-0.7579,-1.5205
418.0156,-2.5865,0.6082,-80.0131,7.3684,0.4793,4.5926,-310.8531,53.7688,-101.3259,1444,1555,0.8894,-0.0400,-0.7560,9.9852,7.0729,0.0337,-1.5350,-0.1065,-0.8494,9.6888,7.6638,0.0970,-2.0778
418.0341,-2.5352,0.5888,-80.0547,7.2310,1.5054,10.3246,-321.4652,52.7694,-100.4593,1444,1555,0.8631,-0.0783,-0.8255,9.8128,7.2103,-0.6533,-2.1075,-0.1017,-0.7560,9.7894,7.2516,-0.6511,-2.4060
418.0524,-2.4566,0.5615,-80.1065,7.7920,2.9587,18.2106,-335.1338,51.2223,-97.7900,1446,1553,0.8187,-0.0352,-0.7465,10.0020,7.6378,-0.6685,-2.6418,-0.0059,-0.7441,9.7391,7.9462,-0.4679,-3.0244
418.0709,-2.3970,0.5585,-80.1690,8.3798,4.5501,25.3403,-348.7985,50.0524,-95.9530,1447,1552,0.7821,-0.1214,-0.8518,9.7099,8.1264,-0.1724,-3.1456,-0.1711,-0.7584,9.8540,8.6332,-0.5442,-3.6045
418.0894,-2.3068,0.5481,-80.2401,9.1432,5.8389,31.0719,-354.9307,48.2723,-122.4859,1432,1567,0.9917,-0.1190,-0.7848,9.9733,9.0882,-0.6456,-3.7029,-0.1879,-0.8422,9.7870,9.1981,-0.6969,-4.0015
418.1078,-2.2128,0.5711,-80.3215,9.0630,6.3495,26.0106,-329.5409,46.4151,-115.4790,1436,1563,1.0000,-0.2267,-0.7321,9.8057,9.0729,-0.8747,-4.2449,-0.2645,-0.6866,9.8277,9.0531,0.7764,-4.5969
418.1262,-2.0961,0.5319,-80.4111,8.9103,6.7336,20.8653,-301.2941,44.1021,-106.4134,1441,1558,1.0000,-0.0328,-0.6004,9.9158,9.0119,-1.1724,-4.7411,-0.1831,-0.7034,9.7822,8.8088,-1.2770,-5.0854
418.1447,-1.9889,0.5262,-80.5094,8.3035,6.9691,12.7646,-265.6193,41.9765,-95.3616,1447,1552,1.0000,-0.1501,-0.5693,9.8128,8.3935,-0.7678,-5.2220,-0.1735,-0.5501,9.8062,8.2134,-0.8648,-5.4824
418.1631,-1.8572,0.5118,-80.6314,8.2081,7.1550,10.0972,-242.7911,39.3625,-87.6628,1451,1548,1.0000,-0.1142,-0.4232,9.7554,8.0500,-0.8518,-7.4739,-0.1711,-0.3586,9.8947,8.3661,-0.8724,-5.6885
418.1816,-1.6856,0.5215,-80.7425,7.9714,7.2774,6.6279,-213.0470,35.9463,-77.6263,1457,1542,1.0000,-0.2052,-0.2030,9.9014,8.1798,-0.6227,-5.8861,-0.2765,-0.2150,9.7966,7.7630,-0.6969,-6.2610
418.2001,-1.5573,0.5172,-80.8544,6.6470,7.1829,-5.0913,-164.5305,33.3956,-62.7664,1465,1534,1.0000,-0.1812,-0.2628,9.8081,6.7371,-1.1800,-5.9701,-0.2358,-0.2078,9.9019,6.5569,-1.1167,-6.1923
418.2195,-1.3999,0.5025,-80.9729,6.2348,7.0406,-7.3535,-139.9053,30.2620,-54.3045,1470,1529,1.0000,-0.1166,-0.1000,9.9349,6.3859,-0.9739,-6.0006,-0.2382,-0.1335,9.8038,6.0836,-0.9030,-6.3984
418.2391,-1.2854,0.5120,-81.0929,5.5630,6.8190,-11.2799,-115.4254,27.9854,-46.3118,1474,1525,1.0000,-0.2387,-0.2173,9.7889,5.6455,-1.3785,-6.2449,-0.2430,0.0388,9.9354,5.4806,-0.9030,-6.0320
418.2577,-1.1736,0.4624,-81.2072,4.1279,6.4153,-21.7604,-72.3712,25.7602,-33.1441,1481,1518,1.0000,-0.0520,-0.0545,9.8751,4.4546,-1.3937,-6.1762,-0.2382,-0.1216,10.1102,3.8012,-3.1244,-6.2992
418.2761,-1.0984,0.4298,-81.3157,3.2042,5.9251,-26.0583,-51.3443,24.2680,-26.4616,1485,1514,0.9982,-0.0136,-0.1192,9.6261,3.2180,-0.9739,-6.0006,-0.0921,-0.1719,9.6673,3.1905,-0.8190,-5.7953
418.2947,-1.0375,0.4189,-81.4236,2.6470,4.9438,-24.1764,-49.7508,23.0594,-18.2148,1489,1510,0.7154,-0.1166,-0.1311,9.6453,2.8897,-1.1113,-5.8479,-0.0251,-0.0306,10.0552,2.4042,-0.8266,-5.8488
418.3132,-0.9898,0.4016,-81.5277,1.5248,3.2681,-21.3497,-52.4060,22.1158,-0.5798,1499,1500,0.0225,-0.0567,-0.0880,9.6476,1.8439,-0.7220,-5.7487,0.0467,0.0340,10.0432,1.2058,-0.5595,-5.5129
418.3316,-0.9723,0.4016,-81.6266,0.0363,1.3181,-12.5094,-75.8527,19.4554,-0.0000,1500,1500,0.0000,-0.0998,-0.0928,9.5998,0.4852,-0.3403,-5.4205,-0.0826,0.0484,9.9019,-0.4126,-0.2312,-5.3297
418.3500,-0.9632,0.4158,-81.7252,-1.1011,0.1232,-1.5714,-106.3105,19.2739,-0.0000,1500,1500,0.0000,-0.1765,-0.0282,9.5758,-0.7820,-0.4014,-5.4128,-0.1328,-0.0569,9.8947,-1.4202,-0.4755,-5.3526
418.3686,-0.9833,0.4125,-81.8216,-2.5553,0.0000,-0.0000,-113.1465,19.6757,-0.0000,1500,1500,0.0000,-0.1070,-0.0402,9.7889,-2.1179,-0.6304,-5.3365,-0.0203,0.0101,10.0025,-2.9927,-0.3152,-5.0396
418.3872,-1.0271,0.3938,-81.9147,-4.4294,0.0000,-0.0000,-118.1863,20.5521,-0.0237,1499,1500,0.0005,-0.0328,0.0077,9.6429,-3.8355,-0.4472,-5.0693,0.0228,-0.0282,9.8612,-5.0232,-0.4908,-4.9785
418.4057,-1.1045,0.3851,-81.9993,-6.1965,0.0000,-0.0000,-127.0886,22.1104,-0.3684,1499,1500,0.0079,-0.0567,-0.0066,9.7075,-5.6828,-0.3174,-4.7640,-0.0490,0.0628,9.7942,-6.7103,-0.2007,-4.3908
418.4241,-1.1784,0.3709,-82.0841,-6.7423,0.0000,-0.0000,-135.6021,23.6019,-1.1178,1499,1500,0.0225,-0.0496,0.0484,9.7602,-7.0874,-0.2945,-4.8250,0.0276,0.0556,9.8325,-6.3973,-0.6892,-4.4366
418.4428,-1.3250,0.3717,-82.1637,-10.6736,0.0000,-0.0000,-152.4684,26.5466,-3.9534,1497,1502,0.0706,-0.1142,0.0293,9.5615,-9.2400,-0.6609,-4.4739,-0.3028,0.1202,10.0408,-12.1072,-0.3839,-4.0625
418.4612,-1.4950,0.3605,-82.2394,-11.1469,-0.3612,-7.2794,-151.0677,29.9619,-8.7904,1495,1504,0.1535,-0.0376,-0.0617,9.7913,-10.7133,-0.3021,-4.2067,-0.0634,-0.1072,9.9426,-11.5805,-0.0938,-4.0549
418.4796,-1.6809,0.3195,-82.3113,-12.1545,-3.3301,-47.7133,-56.0044,33.6958,-8.7434,1495,1504,0.2688,0.0917,-0.0833,9.7434,-11.7133,-0.2716,-4.0235,-0.0419,0.0460,9.9067,-12.5958,-0.4373,-3.8564
418.4982,-1.9075,0.3028,-82.3802,-13.3568,-6.1466,-68.4209,-22.4460,38.2476,-25.4087,1486,1513,1.0000,-0.0328,-0.1910,9.9278,-13.1637,-0.6609,-3.8708,0.2024,-0.1312,9.8229,-13.5500,-0.2541,-3.5969
418.5167,-2.1283,0.2813,-82.4484,-13.6927,-7.2785,-61.3800,-68.1336,42.6852,-40.4200,1477,1522,1.0000,0.0390,-0.1766,9.7003,-13.5377,-0.0502,-3.9090,0.0252,-0.2102,9.7631,-13.8477,0.1276,-3.5129
418.5351,-2.3468,0.2738,-82.5125,-13.7690,-8.2521,-52.9623,-117.5184,47.0784,-56.4444,1468,1531,1.0000,-0.0448,-0.2006,9.7697,-13.6675,-0.2334,-3.6495,-0.0131,-0.2748,9.8492,-13.8706,-0.2236,-3.3755
418.5536,-2.5892,0.2270,-82.5724,-14.0935,-9.1283,-47.2607,-161.8312,51.9520,-71.2888,1460,1539,1.0000,0.1539,-0.3179,9.7626,-13.8584,-0.2182,-3.2831,0.0228,-0.1120,9.8157,-14.3286,0.1199,-3.2305
418.5720,-2.8385,0.2157,-82.6328,-14.1584,-9.8828,-40.8964,-208.8491,56.9665,-86.9610,1452,1547,1.0000,-0.0089,-0.3897,9.7626,-14.1179,-0.1418,-3.3136,0.0419,-0.2102,9.7200,-14.1988,-0.0327,-3.2915
418.5904,-3.0714,0.1859,-82.6852,-14.2958,-10.5447,-35.9926,-249.7686,61.6545,-100.7624,1444,1555,1.0000,0.0845,-0.3514,9.9182,-13.9194,-0.3479,-3.0617,-0.0706,-0.3610,9.8085,-14.6721,0.1734,-2.6732
418.6089,-3.3902,0.1669,-82.7383,-14.8606,-11.1921,-35.0782,-289.0938,68.0653,-114.9789,1436,1563,1.0000,0.0390,-0.7345,9.6812,-15.5530,0.5910,-3.0846,0.1760,-0.0521,10.0887,-14.1683,-0.6663,-2.6885
418.6275,-3.6053,0.2022,-82.7873,-13.9408,-11.6044,-22.1528,-351.0699,72.4029,-134.5010,1426,1573,1.0000,-0.2746,-0.3801,9.7195,-13.1637,-0.4701,-2.8479,0.1401,-0.2221,9.9881,-14.7179,-1.0633,-2.5282
418.6460,-3.7987,0.2093,-82.8353,-15.0973,-12.1284,-28.3262,-355.5459,76.3087,-137.7072,1424,1575,1.0000,-0.0639,-0.2102,9.6931,-15.1408,0.2780,-2.7258,0.3029,-0.5477,9.8636,-15.0538,0.2955,-2.4747
418.6645,-4.0101,0.1752,-82.8833,-13.4026,-12.3195,-10.3431,-431.6705,80.5777,-161.1566,1411,1588,1.0000,0.1156,-0.4975,10.0906,-13.5148,0.1788,-2.7563,0.1688,-0.4017,9.8349,-13.2904,-0.0404,-2.4671
418.6829,-4.2169,0.1223,-82.9275,-13.7461,-12.5335,-11.6007,-451.8385,84.7543,-168.8919,1407,1592,1.0000,0.2928,-0.4783,9.8272,-13.5988,0.5070,-2.6495,0.0036,-0.1168,9.7056,-13.8935,1.5627,-2.0091
418.7013,-4.3756,0.0500,-82.9676,-12.8034,-12.5740,-2.2025,-497.1682,87.9720,-183.1931,1399,1600,1.0000,0.2521,-0.3634,9.8152,-12.9042,-0.3632,-2.3365,0.2718,-0.4304,10.0432,-12.7026,-0.8266,-2.1541
418.7198,-4.5390,-0.0277,-83.0041,-14.4713,-12.8586,-15.4101,-477.9403,91.2863,-179.4664,1401,1598,1.0000,0.3742,-0.2748,9.8559,-12.9576,-0.1800,-2.1609,0.1401,-0.5118,10.1270,-15.9851,0.9444,-1.7648
418.7382,-4.6941,-0.0279,-83.0399,-11.7042,-12.6854,9.3730,-567.1605,94.4344,-206.0221,1386,1613,1.0000,-0.0328,-0.4998,9.9445,-12.2171,-0.3098,-2.2373,0.0372,-0.4448,9.7678,-11.1912,-0.2236,-1.6732
418.7566,-4.8682,-0.0774,-83.0713,-11.8416,-12.5588,6.8813,-580.0265,97.9660,-211.3904,1383,1616,1.0000,0.2066,-0.6052,9.7578,-11.1942,-0.5769,-1.8174,0.0946,-0.4065,9.9905,-12.4889,0.1963,-1.6579
418.7752,-4.9981,-0.0864,-83.1344,-11.7003,-12.4301,6.9309,-595.1135,100.6130,-216.9383,1380,1619,1.0000,-0.0089,-0.4232,9.7458,-11.7515,0.0108,-3.5579,0.1257,-0.6459,9.4470,-11.6492,-0.8801,-3.3144
418.7937,-5.1118,-0.1159,-83.1751,-9.9332,-12.0555,20.2388,-646.5357,102.9399,-232.4999,1372,1627,1.0000,0.1396,-0.5501,10.1001,-9.6370,-0.2945,-1.2449,0.0300,-0.5023,9.5165,-10.2294,0.2879,-3.2686
418.8122,-5.2164,-0.1917,-83.1940,-8.2500,-11.4847,30.9556,-689.4276,105.0822,-245.5808,1364,1635,1.0000,0.3215,-0.6746,10.1313,-8.8584,-0.5922,-1.1915,0.1688,-0.6028,9.3896,-7.6416,-0.7121,-0.9785
418.8306,-5.2527,-0.2639,-83.2088,-5.9866,-10.6600,44.7392,-733.3125,105.8625,-258.2587,1357,1642,1.0000,0.3622,-0.5621,10.0810,-6.6675,-0.5693,-0.9930,-0.0251,-0.5406,9.3225,-5.3057,0.1886,-0.6198
418.8491,-5.2481,-0.2284,-83.2190,-3.5973,-9.6006,57.4098,-769.2688,105.8220,-268.3063,1352,1647,1.0000,-0.2770,-0.5789,9.9709,-3.9118,-0.8518,-0.6418,0.4130,-0.5238,9.7535,-3.2828,-2.3992,-0.7266
418.8675,-5.3223,-0.1643,-83.2261,-2.7500,-8.5730,55.7212,-772.9505,107.3601,-270.1062,1351,1648,1.0000,-0.2579,-0.9931,9.6596,-3.6446,-0.1876,-0.3976,0.1928,-0.7824,9.1118,-1.8553,0.4940,-0.3526
418.8860,-5.2441,-0.1727,-83.2383,5.6203,-6.4440,115.1986,-935.2447,105.8484,-314.7927,1326,1673,1.0000,-0.0974,-1.0338,9.9780,4.2714,-1.3403,-0.8327,-0.3100,-1.0888,8.6210,6.9691,-2.5824,-0.8640
418.9044,-5.0068,-0.2414,-83.2534,6.2806,-2.3477,53.5735,-730.4536,101.1525,-255.1032,1359,1640,1.0000,0.2306,-0.3275,9.9349,5.5844,-1.8060,-0.9090,0.2024,-0.5501,9.8445,6.9768,-0.7656,-0.9556
418.9228,-4.7477,-0.3241,-83.2733,10.4294,0.0000,0.0000,-546.3428,96.0179,-200.9850,1389,1610,1.0000,0.4293,-0.5429,9.9445,8.8134,0.1101,-0.8556,0.2335,-0.4520,9.0616,12.0455,-0.1244,-1.3373
418.9413,-4.4930,-0.3762,-83.2761,14.7195,0.0000,0.0000,-517.0326,90.9692,-190.2537,1395,1604,1.0000,0.2066,-0.8757,9.6596,13.9203,-1.0273,-0.9777,0.3723,-0.8183,9.2675,15.5187,-0.9030,0.5863
418.9597,-4.1480,-0.4411,-83.2986,17.5745,0.0000,0.0000,-477.3228,84.1096,-175.7052,1403,1596,1.0000,0.2856,-0.6722,9.6812,17.0042,-0.8212,-1.2907,0.2071,-0.3442,9.1741,18.1447,-0.8037,-1.2992
418.9782,-3.6884,-0.4175,-83.3274,18.5859,4.3368,106.3178,-730.6325,74.9554,-242.0548,1366,1633,1.0000,-0.1166,-0.1647,9.9230,18.6455,-0.7983,-1.3594,-0.0514,-0.4735,9.7319,18.5264,-0.8648,-1.9404
418.9966,-3.3759,-0.4223,-83.3477,18.2386,7.1704,106.0174,-693.8037,68.7389,-228.6345,1374,1625,1.0000,-0.0065,-0.7369,9.6668,18.1798,-1.1342,-1.1685,0.0922,-0.4639,9.5859,18.2974,-1.0175,-1.2457
419.0151,-3.0990,-0.4613,-83.3692,17.8951,8.7791,87.2074,-607.7629,63.2313,-201.7893,1389,1610,1.0000,0.1468,-0.7800,9.2789,17.3325,-1.1189,-1.3594,0.2431,-0.8063,9.5332,18.4577,-0.9946,-1.1541
419.0336,-2.7918,-0.5520,-83.3914,19.2195,10.3451,84.4559,-564.4873,57.1152,-186.6141,1397,1602,1.0000,0.4293,-0.7273,9.3508,18.8439,-0.6456,-1.1380,0.2119,-0.5190,9.5955,19.5951,-0.4755,-1.4060
419.0521,-2.5078,-0.5857,-83.3958,19.0096,11.6448,70.3935,-491.3104,51.4610,-163.2974,1410,1589,1.0000,0.1755,-0.7872,9.7290,18.5920,-0.6151,-1.0464,0.3580,-0.5454,9.8205,19.4271,-1.0327,0.4718
419.0706,-2.1087,-0.5749,-83.4214,22.0096,13.1995,83.9334,-484.3747,43.4992,-157.3745,1413,1586,1.0000,-0.1118,-0.4687,9.9302,20.7294,-0.7983,-1.2144,-0.1209,-0.2748,9.1214,23.2897,-3.0709,-1.8488
419.0891,-1.6593,-0.5830,-83.4487,23.1623,14.6939,80.8640,-423.8261,34.5286,-135.9356,1425,1574,1.0000,0.0534,-0.2772,9.9900,23.6760,-0.5159,-1.4205,0.0922,-0.0378,9.5045,22.6485,-1.4068,-1.7037
419.1075,-1.3138,-0.6159,-83.4780,21.7882,15.7581,57.7815,-264.6574,27.6312,-87.9197,1451,1548,1.0000,0.1827,-0.5429,9.8296,21.1645,-1.1953,-1.4281,0.0228,-0.3945,9.3656,22.4119,-0.3534,-1.9709
419.1259,-0.9949,-0.6193,-83.5098,21.1890,16.5727,44.2726,-201.6570,21.2634,-67.0957,1463,1536,1.0000,0.0965,-0.5597,9.6979,21.6760,0.1635,-1.4968,-0.0131,-0.3347,9.7271,20.7019,-0.8037,-2.1770
419.1444,-0.6950,-0.6298,-83.5433,19.0134,16.9388,19.7392,-114.0184,13.9070,-38.8787,1478,1521,1.0000,0.1659,-0.4232,9.9852,19.2256,-0.3250,-1.5655,0.2143,-0.4951,9.7367,18.8012,0.7230,-2.2152
419.1629,-0.4387,-0.6342,-83.5789,17.0019,16.9483,0.5120,-43.2946,8.7781,-16.5115,1490,1509,1.0000,0.1492,-0.4065,10.0116,17.6073,0.3849,-1.6495,0.0874,-0.2700,9.8133,16.3966,-0.0098,-2.3755
419.1814,-0.1607,-0.6238,-83.6146,14.3874,16.5642,-20.8273,34.5733,3.2162,8.0724,1504,1495,1.0000,0.0318,-0.0162,9.7051,14.6455,-0.2029,-1.9701,-0.0419,-0.2245,9.8109,14.1294,-0.4984,-1.9327
419.1999,0.0375,-0.6451,-83.6485,13.4409,16.0957,-25.2778,77.1166,-0.7506,21.9679,1512,1487,1.0000,0.1970,-0.2652,9.7817,13.1493,-0.2869,-1.6037,0.2024,-0.0258,9.7942,13.7325,0.1657,-2.1999
419.2186,0.2205,-0.6870,-83.6799,11.7844,15.4490,-34.5659,124.9261,-4.4128,37.1857,1520,1479,1.0000,0.3168,-0.1718,9.7674,12.1264,0.3085,-1.6571,0.2885,-0.0402,10.0384,11.4424,-0.0022,-1.7572
419.2372,0.3022,-0.6756,-83.7091,6.2157,14.0640,-74.4897,249.3009,-6.0465,72.8275,1540,1459,1.0000,0.1755,-0.1335,9.5351,7.1493,1.0566,-1.7105,0.4968,0.2447,10.6776,5.2821,1.8527,-1.4671
419.2558,0.3496,-0.6553,-83.7300,7.8149,13.1266,-50.5447,185.7973,-6.9956,55.5210,1530,1469,1.0000,0.1013,-0.3873,10.1624,5.6684,1.1635,-1.1838,0.0372,-0.5549,9.4542,9.9615,0.4863,-1.1999
419.2742,0.4293,-0.6880,-83.7488,5.7615,12.0219,-59.7856,221.5818,-8.5903,66.3381,1536,1463,1.0000,0.2856,-0.0833,9.2933,7.7218,0.4307,-1.0998,0.1736,0.0221,10.8117,3.8012,0.3642,-0.9633
419.2926,0.4487,-0.6722,-83.7659,1.9790,10.5154,-81.9208,287.5602,-8.9779,85.0058,1546,1453,1.0000,0.0893,-0.0019,9.6788,1.5768,0.2856,-0.9014,0.1233,-0.0210,10.1318,2.3813,0.8680,-1.0015
419.3111,0.4524,-0.6066,-83.7797,2.5630,9.3226,-64.6838,238.3447,-9.0522,71.2626,1539,1460,1.0000,0.0199,-0.1359,9.8488,2.9661,2.4841,-0.8327,0.0922,0.1178,9.9953,2.1600,2.4253,-0.7572
419.3295,0.4159,-0.5540,-83.7911,-2.8759,7.4928,-99.1079,277.7360,-8.3213,81.9267,1545,1454,1.0000,-0.0591,0.1274,9.2215,-1.1866,1.2093,-0.5808,-0.1424,0.1945,10.2012,-4.5652,0.4558,-0.6579
419.3479,0.2755,-0.5180,-83.8006,-6.2232,4.9303,-101.4814,269.9757,-5.5133,55.5689,1530,1469,0.7092,-0.0304,-0.0450,10.0283,-6.5530,0.4078,-0.5808,0.0898,-0.1647,9.8852,-5.8935,0.6772,-0.4747
419.3664,0.1241,-0.4887,-83.8078,-4.6278,0.8911,-18.5373,56.3931,-2.4840,0.0000,1500,1500,0.0000,0.0390,-0.2628,9.9852,-4.8278,0.7589,-0.3289,0.0659,-0.1527,10.2084,-4.4278,1.3184,-0.5663
419.3849,-0.0251,-0.4643,-83.8123,-8.4370,0.0000,-0.0000,-2.4054,0.5020,-0.0000,1500,1500,0.0000,0.0007,0.0436,9.7865,-7.7210,0.5986,-0.2983,0.0324,-0.0019,10.0073,-9.1530,0.0512,-0.1770
419.4034,-0.2004,-0.4381,-83.8120,-9.6736,0.0000,-0.0000,-19.2152,4.0097,-0.0000,1500,1500,0.0000,-0.0591,0.0149,9.9302,-9.6370,-0.4090,-0.0769,0.1090,-0.0043,10.0408,-9.7103,0.1734,0.1360
419.4220,-0.3611,-0.4115,-83.8089,-8.7881,0.0000,-0.0000,-34.6229,7.2249,-0.0000,1500,1500,0.0000,-0.0089,-0.0210,9.9924,-8.8889,0.3696,-0.0006,0.0060,-0.0569,9.6457,-8.6874,0.5703,0.3802
419.4404,-0.5577,-0.3941,-83.8030,-9.2423,0.0000,-0.0000,-53.4739,11.1586,-0.0000,1500,1500,0.0000,0.0318,-0.1886,9.8799,-9.0187,0.5299,0.1826,-0.1663,-0.0713,9.7583,-9.4660,0.3260,0.4718
419.4588,-0.7651,-0.3659,-83.7964,-10.6507,-0.3008,-5.8007,-59.4420,15.3091,-0.0000,1500,1500,0.0000,-0.0400,-0.1551,9.7793,-10.1637,0.3085,0.2513,-0.0419,-0.1240,9.9929,-11.1377,0.2192,0.4718
419.4773,-1.0050,-0.3534,-83.7900,-11.0629,-2.7214,-35.5991,-13.1233,20.1108,-0.0003,1499,1500,0.0000,-0.0041,-0.3011,10.0882,-11.1103,-0.1876,0.2589,0.0539,-0.3706,9.9067,-11.0156,0.0283,0.4031
419.4958,-1.2237,-0.3651,-83.7798,-10.4981,-5.1930,-44.2923,-13.2529,24.4971,-13.1160,1492,1507,0.8218,0.1516,-0.2916,9.9349,-10.2935,0.3467,0.3963,-0.0323,-0.2628,9.8588,-10.7026,0.3718,0.7314
419.5142,-1.4157,-0.3381,-83.7690,-10.3683,-6.2656,-39.3619,-49.5399,28.3501,-28.0462,1484,1515,1.0000,-0.0543,-0.2221,10.0906,-10.3240,0.2169,0.5108,0.0611,-0.1958,9.9929,-10.4126,0.0131,0.6779
419.5327,-1.6006,-0.3088,-83.7570,-9.9790,-6.8226,-30.0780,-97.5555,32.0644,-43.3477,1476,1523,1.0000,-0.0711,-0.2485,10.0355,-10.0797,0.0032,0.5261,-0.0945,-0.1671,9.8876,-9.8782,0.1734,0.8001
419.5512,-1.7809,-0.2844,-83.7442,-9.8187,-7.2720,-24.2757,-135.0188,35.6891,-55.6498,1469,1530,1.0000,-0.0280,-0.2748,9.9661,-9.6294,0.2780,0.6253,-0.0371,-0.2509,9.9737,-10.0080,0.4558,0.8001
419.5697,-1.9732,-0.2656,-83.7311,-10.0744,-7.6924,-22.7859,-161.4336,39.5542,-64.9785,1464,1535,1.0000,-0.0136,-0.3394,9.9158,-9.9500,0.3238,0.5643,0.0419,-0.3658,9.9546,-10.1988,0.2268,0.9222
419.5882,-2.1682,-0.2365,-83.7138,-10.2690,-8.0789,-20.9059,-189.2880,43.4760,-74.7386,1458,1541,1.0000,-0.0687,-0.3754,10.0954,-10.1103,0.1788,0.9002,0.0611,-0.3275,9.8516,-10.4278,0.3718,0.9833
419.6067,-2.3488,-0.2117,-83.6917,-10.6087,-8.4584,-20.5261,-211.1583,47.1105,-82.6796,1454,1545,1.0000,-0.0615,-0.3035,9.8344,-10.4538,0.0719,1.1215,0.0348,-0.2221,10.0049,-10.7637,0.2115,1.3192
419.6252,-2.5351,-0.1993,-83.6670,-11.2576,-8.8782,-22.7123,-226.3087,50.8633,-88.7981,1451,1548,1.0000,0.0031,-0.3155,9.8679,-10.4309,0.2246,1.2895,0.1114,-0.3730,9.8612,-12.0843,0.2955,1.4184
419.6437,-2.7023,-0.1768,-83.6393,-9.4752,-8.9678,-4.8246,-297.0612,54.2336,-110.2939,1439,1560,1.0000,-0.0328,-0.3945,9.8392,-9.4614,0.4765,1.5108,-0.1400,-0.4209,9.8540,-9.4889,0.1199,1.5024
419.6622,-2.8697,-0.1598,-83.6090,-8.8148,-8.9448,1.2414,-333.7926,57.6099,-122.2669,1432,1567,1.0000,-0.1022,-0.4807,9.7841,-9.0339,-0.3708,1.6330,0.1593,-0.3514,9.7870,-8.5958,-1.0633,1.5634
419.6806,-3.0295,-0.1310,-83.5764,-7.4790,-8.7250,11.9339,-382.9794,60.8367,-137.6526,1424,1575,1.0000,-0.0687,-0.5956,9.9110,-7.8736,0.1788,1.7627,-0.0395,-0.4017,9.5236,-7.0843,0.6619,1.8077
419.6991,-3.1414,-0.1214,-83.5408,-8.6507,-8.7138,0.6010,-363.2175,63.1061,-133.2539,1426,1573,1.0000,-0.1046,-0.3035,9.7362,-8.0645,-0.8289,1.8544,-0.1616,-0.3490,9.9546,-9.2370,-1.5137,1.8993
419.7177,-3.2585,-0.2591,-83.5009,-7.4675,-8.5269,10.0857,-404.0084,65.4806,-145.8627,1419,1580,1.0000,0.7070,-0.4304,9.8919,-7.9652,-0.5464,2.1750,0.3460,-0.4472,9.3728,-6.9698,1.7153,2.1360
419.7362,-3.3707,-0.1730,-83.4586,-6.7576,-8.2615,14.3449,-429.1881,67.7586,-154.0520,1415,1584,1.0000,-0.3177,-0.4998,9.7219,-6.5759,1.3620,2.2513,-0.1400,-0.3849,9.8947,-6.9393,-1.4297,2.3955
419.7546,-3.4575,-0.1684,-83.4164,-7.0935,-8.0863,9.5072,-425.2453,69.5294,-153.8334,1415,1584,1.0000,-0.0017,-0.3682,9.8942,-7.2095,-1.0960,2.2971,0.0300,-0.6076,9.6625,-6.9774,1.1886,2.2657
419.7733,-3.5965,-0.1845,-83.3717,-6.0591,-7.7822,16.2844,-460.7552,72.3446,-165.1837,1409,1590,1.0000,0.1563,-0.7081,9.6668,-5.9118,0.7513,2.4345,0.1329,-0.4711,9.6721,-6.2065,0.0741,2.4031
419.7917,-3.6797,-0.2070,-83.3401,-6.0019,-7.5152,14.4651,-465.0946,74.0462,-167.2496,1408,1591,1.0000,0.1300,-0.4687,9.5136,-6.0568,-0.3098,2.3734,0.2239,-0.6579,9.9833,-5.9469,0.2039,0.6092
419.8102,-3.7623,-0.1442,-83.2806,-4.9103,-7.1244,21.1383,-493.8121,75.7346,-176.1347,1403,1596,1.0000,-0.2507,-0.5741,9.5375,-5.0721,0.2398,2.5719,0.1760,-0.4783,9.8421,-4.7484,-0.7427,4.2886
419.8288,-3.8608,-0.1063,-83.2364,-5.1813,-6.8329,15.6546,-489.3603,77.7442,-175.8930,1403,1596,1.0000,-0.0543,-0.6339,9.3675,-4.8126,0.2704,2.3582,-0.0754,-0.6052,9.8492,-5.5500,2.0512,2.5711
419.8473,-3.9713,-0.1089,-83.1923,-4.2385,-6.4438,21.0391,-517.5782,79.9929,-184.9184,1398,1601,1.0000,-0.0496,-0.8015,10.0283,-5.0645,-1.1724,2.5566,0.1257,-1.1295,9.5931,-3.4126,-0.8037,1.8993
419.8670,-3.9674,-0.1452,-83.1544,1.0935,-4.6053,49.8967,-600.2398,79.9547,-208.0445,1385,1614,1.0000,0.2784,-0.7560,9.8128,1.1035,0.8582,2.1139,0.0467,-0.8350,9.4781,1.0836,1.2039,1.7924
419.8867,-3.8519,-0.1801,-83.1160,-1.1965,-2.8047,18.7016,-497.1126,77.6843,-178.0337,1402,1597,1.0000,0.0845,-0.0737,9.9709,-1.1790,-0.9586,1.9841,0.0611,-0.2197,9.7990,-1.2141,-1.6892,1.7085
419.9057,-3.7215,-0.1936,-83.0805,4.5516,-0.0978,2.1543,-434.4522,75.1139,-159.2036,1412,1587,1.0000,0.0797,-0.4376,9.8631,3.2867,-0.5311,1.9841,-0.1065,-0.3011,9.1669,5.8165,0.0741,1.6245
419.9245,-3.4988,-0.2157,-83.0483,6.6241,0.0000,0.0000,-402.6187,70.6947,-148.0806,1418,1581,1.0000,0.1659,-0.1982,10.0714,6.9737,0.4536,1.8238,0.0659,-0.3083,9.6721,6.2745,-0.2694,1.5940
419.9441,-3.4520,-0.2475,-83.0101,4.0745,0.0000,0.0000,-397.2305,69.7928,-146.1209,1419,1580,1.0000,0.0821,-0.7465,9.7003,4.4165,-1.3098,1.9841,0.1257,-0.6435,10.0623,3.7325,-0.9793,1.6703
419.9638,-3.3344,-0.2661,-82.9818,6.1432,0.0000,0.0000,-383.6974,67.4742,-141.1723,1422,1577,1.0000,0.1085,-0.5765,9.6788,5.1874,-0.0960,1.4116,-0.0466,-0.5789,9.2890,7.0989,-0.5976,1.4337
419.9834,-3.1597,-0.2795,-82.9532,5.4638,0.0000,0.0000,-363.5856,64.0104,-133.8092,1426,1573,1.0000,0.1013,-0.2987,10.0858,6.1722,-0.5693,1.6177,0.2742,-0.1958,9.8995,4.7554,0.6848,1.2123
420.0026,-3.0257,-0.2959,-82.9176,6.1813,0.0000,0.0000,-348.1727,61.3619,-128.1693,1429,1570,1.0000,0.0606,-0.4639,9.7937,5.8287,-1.0579,1.8773,0.0539,-0.4783,9.4494,6.5340,-0.3763,1.7008
420.0214,-2.8644,-0.3493,-82.8841,5.3035,0.0000,0.0000,-329.6136,58.1650,-119.7770,1434,1565,0.9868,0.3000,-0.2317,9.6740,5.4928,0.2017,1.7933,0.2143,-0.4520,9.7415,5.1142,-0.3381,1.8230
420.0406,-2.7467,-0.3390,-82.8434,6.4294,0.0000,0.0000,-316.0645,55.8376,-111.2876,1438,1561,0.9559,-0.0208,-0.5238,9.9469,6.3172,-0.6685,2.2131,-0.0059,-0.4113,9.7918,6.5416,-0.2236,1.8688
420.0603,-2.6264,-0.3809,-82.7994,5.1928,0.0526,0.2873,-303.0516,53.4584,-101.3585,1444,1555,0.9084,0.2354,-0.3897,9.7290,5.3859,-0.0731,2.3963,0.2694,-0.5166,9.7224,4.9997,-0.2389,1.9527
420.0794,-2.5419,-0.4492,-82.7535,4.9638,0.2464,0.9624,-295.2726,51.7939,-94.0957,1448,1551,0.8667,0.3742,-0.5022,9.9158,5.0424,-0.1342,2.4727,0.2622,-0.5190,9.8900,4.8852,-0.1702,2.2505
420.0981,-2.4577,-0.4426,-82.7058,5.0974,0.5536,1.9191,-288.3374,50.1343,-86.6846,1452,1547,0.8193,0.0678,-0.4735,9.7314,4.7371,1.1330,2.5566,0.0898,-0.4209,9.8133,5.4577,-1.5747,2.5634
420.1175,-2.3336,-0.4746,-82.6501,4.9790,0.8733,2.1565,-274.7407,47.6756,-74.6598,1458,1541,0.7409,0.1707,-0.2987,9.7267,5.0653,-0.8976,2.9765,0.1832,-0.1910,9.6697,4.8928,-0.2312,2.6550
420.1374,-2.2415,-0.4824,-82.5881,4.2042,0.9563,0.5243,-259.4343,45.8548,-64.7546,1464,1535,0.6776,0.0606,-0.3658,9.8152,4.4012,-0.5311,3.0605,0.1856,-0.3347,10.0240,4.0073,-1.0556,3.1436
420.1570,-2.2096,-0.5364,-82.5241,2.6165,0.5988,-1.6359,-249.5442,45.2393,-60.5709,1466,1533,0.6549,0.3000,-0.4591,9.6548,2.7065,-0.9968,3.2437,0.1425,-0.5573,9.6338,2.5264,0.7764,3.2428
420.1762,-2.1758,-0.5882,-82.4539,1.8760,0.2346,-0.9908,-247.5177,44.5859,-57.7527,1468,1531,0.6305,0.2665,-0.3897,9.7290,2.1264,-0.7831,3.5948,0.2622,-0.3035,9.8900,1.6256,-0.7503,3.6550
420.1952,-2.1528,-0.5964,-82.3797,0.6813,0.0032,-0.0234,-247.6596,44.1478,-56.1067,1469,1530,0.6137,0.1324,-0.3227,9.6907,0.7600,-0.2792,3.9307,0.1329,-0.2557,9.6314,0.6027,-0.0480,3.8993
420.2144,-2.1451,-0.6145,-82.3006,0.2958,0.0000,-0.0000,-246.8382,44.0148,-55.4086,1469,1530,0.6081,0.1994,-0.3562,9.6596,0.4470,0.2398,4.0681,0.1569,-0.2245,9.6625,0.1447,-0.2236,4.2276
420.2340,-2.1578,-0.6298,-82.2107,-0.9752,0.0000,-0.0000,-248.2972,44.2900,-56.5923,1468,1531,0.6174,0.1707,-0.3394,9.7195,-0.7515,-0.2411,4.3811,0.1688,-0.1910,9.7631,-1.1988,-0.0480,4.8993
420.2540,-2.1981,-0.6276,-82.1139,-1.4294,0.0000,-0.0000,-252.9362,45.1182,-60.3835,1466,1533,0.6466,0.1156,-0.4137,9.7506,-1.4232,0.1177,4.7704,0.1808,-0.3634,9.7487,-1.4355,-0.0938,4.9222
420.2735,-2.2409,-0.6159,-82.0118,-2.2500,0.0000,-0.0000,-257.8561,45.9957,-64.4631,1464,1535,0.6772,0.0749,-0.3777,9.9373,-1.9652,0.1253,5.2131,0.1545,-0.3418,9.8085,-2.5347,-0.1396,5.2581
420.2924,-2.3068,-0.5920,-81.9095,-2.9065,0.0000,-0.0000,-265.4487,47.3384,-70.8412,1461,1538,0.7229,0.0103,-0.4232,9.6764,-2.8660,-0.0502,5.3811,0.1545,-0.5382,9.9019,-2.9469,0.0207,5.5329
420.3115,-2.3628,-0.6081,-81.8005,-2.6889,0.0000,-0.0000,-271.8862,48.4809,-76.2952,1458,1541,0.7601,0.2042,-0.4161,9.9278,-2.6294,0.0108,5.7627,0.1569,-0.4280,9.7487,-2.7484,0.2039,5.6016
420.3310,-2.4393,-0.5994,-81.6807,-2.6049,0.0000,-0.0000,-280.6922,50.0358,-83.7478,1453,1546,0.8083,0.1252,-0.5142,9.8152,-2.5759,0.4460,6.0528,0.1233,-0.4232,9.8876,-2.6339,0.4100,6.2734
420.3506,-2.4934,-0.5900,-81.5548,-2.9599,0.0000,-0.0000,-286.9172,51.1426,-88.9653,1451,1548,0.8400,0.1013,-0.3945,9.7841,-2.9881,0.2093,6.4727,0.2143,-0.3371,9.7774,-2.9316,0.2268,6.3955
420.3700,-2.5532,-0.5621,-81.4263,-3.3759,0.0000,-0.0000,-293.8010,52.3646,-94.6292,1447,1552,0.8726,0.0366,-0.3921,9.7841,-3.4080,0.3162,6.6559,-0.0682,-0.4735,9.7200,-3.3439,0.4558,6.5940
420.3889,-2.6168,-0.5460,-81.2965,-2.9446,0.0000,-0.0000,-301.1147,53.6619,-100.4652,1444,1555,0.9039,0.1013,-0.4687,9.8559,-3.0568,0.7284,6.8315,0.0803,-0.4209,9.7990,-2.8324,0.3489,7.0291
420.4077,-2.6649,-0.5333,-81.1635,-3.1431,0.0000,-0.0000,-306.6575,54.6519,-104.7244,1442,1557,0.9252,0.1132,-0.3945,9.8344,-2.9958,0.6521,7.0910,0.0994,-0.4711,9.7774,-3.2904,0.4482,7.1054
420.4273,-2.7277,-0.5086,-81.0244,-3.0286,0.0000,-0.0000,-313.8749,55.9336,-109.9926,1439,1560,0.9494,0.0318,-0.4663,9.9230,-3.2171,0.3620,7.0834,0.0707,-0.4927,9.8038,-2.8400,0.0207,7.1512
420.4470,-2.7951,-0.4765,-80.8806,-2.4370,0.0000,-0.0000,-321.6339,57.3100,-115.2296,1436,1563,0.9707,-0.0065,-0.5358,9.7243,-2.6904,0.4460,7.3811,0.1976,-0.5765,10.0073,-2.1835,-0.1167,7.1894
420.4665,-2.8410,-0.4609,-80.7384,-1.8454,0.0000,0.0000,-326.9161,58.2565,-118.4980,1434,1565,0.9820,0.0749,-0.5214,9.9326,-1.8507,0.4154,7.3124,0.0731,-0.6339,9.9283,-1.8400,0.2497,7.3115
420.4857,-2.9092,-0.4605,-80.5971,-1.4523,0.0000,0.0000,-334.7638,59.6495,-122.8176,1432,1567,0.9940,0.1252,-0.6507,9.6524,-1.6141,0.1711,7.5108,0.0826,-0.5597,9.8397,-1.2904,0.2497,7.1589
420.5045,-2.9781,-0.4635,-80.4635,0.3187,0.0000,0.0000,-342.6962,61.0579,-126.4388,1430,1569,0.9996,0.1659,-0.8350,9.8966,-0.0492,0.5299,7.1063,0.0372,-0.8470,9.7990,0.6867,0.2879,7.0596
420.5239,-3.0332,-0.4513,-80.3306,0.9714,0.0000,0.0000,-349.0362,62.1901,-128.8252,1429,1570,1.0000,0.0941,-0.8231,9.7314,0.7218,0.5528,6.9307,0.1066,-0.7560,9.8876,1.2210,0.2879,6.7008
420.5435,-3.0852,-0.4517,-80.2018,2.2081,0.0000,0.0000,-355.0182,63.2606,-131.0354,1427,1572,1.0000,0.1635,-0.9380,9.9517,1.7294,0.6215,6.7475,0.0826,-0.8662,9.6625,2.6867,0.5245,6.2657
420.5636,-3.1016,-0.4241,-80.0802,3.7958,0.0000,0.0000,-356.9088,63.6202,-131.7446,1427,1572,1.0000,0.0390,-0.9140,9.7721,3.5844,0.7666,6.1215,-0.0802,-0.9356,9.7295,4.0073,0.2802,5.9527
420.5828,-3.0906,-0.4166,-79.9706,4.5897,0.0000,0.0000,-355.6451,63.4315,-131.2964,1427,1572,1.0000,0.0965,-0.8757,9.8655,4.2561,0.3773,5.7398,0.0324,-0.7129,9.7128,4.9233,0.2726,5.6321
420.6016,-3.0588,-0.4195,-79.8675,5.6661,0.0000,0.0000,-351.9829,62.8256,-129.9680,1428,1571,1.0000,0.1109,-0.8781,9.9278,5.5386,0.0719,5.6482,-0.0442,-0.7560,9.7391,5.7935,-0.2160,5.2199
420.6210,-3.0045,-0.4210,-79.7690,6.4103,0.0000,0.0000,-345.7369,61.7701,-127.6914,1429,1570,1.0000,0.1085,-0.8374,9.8966,6.2638,0.1101,5.1597,0.0372,-0.8374,9.7870,6.5569,-0.0404,4.8688
420.6408,-2.9440,-0.4106,-79.6782,7.2882,0.0000,0.0000,-338.7659,60.5880,-124.8593,1431,1568,0.9977,0.0342,-0.8781,9.8416,7.0653,-0.1037,4.7093,-0.0802,-0.7010,9.7870,7.5111,-0.2999,4.3192
420.6604,-2.8706,-0.3634,-79.5962,6.6928,0.2684,2.1890,-336.6268,59.1493,-122.3420,1432,1567,0.9880,-0.1190,-0.7441,9.8799,5.5844,0.0337,4.3124,-0.1472,-0.6339,9.6266,7.8012,-0.0709,3.9222
420.6798,-2.7724,-0.3596,-79.5248,8.1699,1.4970,12.8734,-356.0928,57.2121,-123.7034,1431,1568,0.9641,0.0558,-0.7584,9.9397,7.8668,0.0490,3.8391,-0.0059,-0.8207,9.7176,8.4729,-0.2923,3.4108
420.6986,-2.6887,-0.3483,-79.4653,8.9218,3.4511,26.4214,-385.4867,55.5663,-126.8799,1430,1569,0.9349,0.0199,-0.8590,9.8344,8.7523,0.0872,3.2666,0.1856,-0.7704,9.7271,9.0913,-0.1244,2.9451
420.7179,-2.5814,-0.3114,-79.4132,9.1852,5.2257,31.0871,-386.5752,53.4459,-119.7025,1434,1565,0.8869,-0.0950,-0.7776,9.8751,9.0958,0.2246,2.8238,0.0635,-0.7273,9.7511,9.2745,-0.2770,2.4337
420.7382,-2.4708,-0.2998,-79.3932,9.1890,6.1005,26.8822,-361.7400,51.2590,-126.9167,1430,1569,1.0000,-0.0065,-0.7584,9.7530,9.1569,-0.3174,0.3582,0.0467,-0.7297,9.6386,9.2210,0.0741,1.8153
420.7579,-2.3487,-0.2863,-79.3597,9.6508,6.6330,27.0148,-348.0733,48.8408,-121.8809,1432,1567,1.0000,-0.0089,-0.7153,9.7937,9.3935,0.0719,1.8620,0.0396,-0.6794,9.7343,9.9081,-0.2923,1.4108
420.7774,-2.2237,-0.2701,-79.3335,10.1394,7.1590,27.0384,-333.7502,46.3618,-116.6310,1435,1564,1.0000,-0.0280,-0.7153,9.7458,10.0195,0.0414,1.5414,-0.1448,-0.6698,9.7607,10.2592,-0.3992,1.0138
420.7961,-2.0781,-0.2605,-79.3194,10.6394,7.6810,27.8402,-319.3099,43.4715,-111.1425,1438,1561,1.0000,-0.0208,-0.6267,9.8871,10.3706,-0.3785,0.8009,-0.1544,-0.6914,9.6290,10.9081,-0.2541,0.6092
420.8153,-1.9265,-0.2502,-79.3115,10.9714,8.1746,25.7545,-295.8527,40.4578,-103.0676,1443,1556,1.0000,-0.0136,-0.6148,9.7219,10.9203,-0.2029,0.5872,-0.2023,-0.4735,9.6721,11.0226,-0.2083,0.0825
420.8349,-1.7652,-0.2267,-79.3125,10.8645,8.5781,20.5347,-262.2643,37.2504,-92.0592,1449,1550,1.0000,-0.0927,-0.5453,9.6788,10.5386,-0.2640,0.0376,-0.2358,-0.5430,9.6505,11.1905,-0.6740,-0.2534
420.8545,-1.5587,-0.1909,-79.3174,11.4638,9.0109,22.0796,-242.9514,33.1360,-84.5944,1453,1546,1.0000,-0.0639,-0.3801,9.7674,11.4546,1.1864,-0.1762,-0.1041,-0.3945,9.8971,11.4729,-0.1931,-0.3526
420.8740,-1.3652,-0.1758,-79.3265,10.8340,9.2844,14.0506,-197.5580,29.2791,-69.9558,1461,1538,1.0000,-0.0376,-0.3442,9.7099,10.9508,-0.0350,-0.3594,-0.2166,-0.2150,9.8014,10.7172,-0.1396,-0.6579
420.8924,-1.1944,-0.1329,-79.3387,10.3035,9.4373,8.3296,-134.5238,25.8752,-50.6042,1472,1527,1.0000,-0.1980,-0.3203,9.7793,10.3630,-0.3327,-0.5655,-0.2262,-0.2700,9.8277,10.2439,-0.3152,-0.8717
420.9118,-1.0275,-0.1206,-79.3558,9.1661,9.3966,-2.0884,-93.5162,22.5474,-37.4582,1479,1520,1.0000,-0.0687,-0.2580,9.7530,9.3477,-0.3937,-0.7640,-0.1879,-0.2293,9.9522,8.9844,-0.5289,-1.0931
420.9315,-0.8670,-0.0930,-79.3726,8.0935,9.2011,-9.9607,-59.2289,19.3454,-26.2568,1485,1514,1.0000,-0.1214,-0.1718,9.8775,8.2943,-0.3021,-0.7334,-0.1927,-0.2365,9.8852,7.8928,-0.1702,-1.0702
420.9509,-0.7349,-0.0589,-79.3906,6.5172,8.7985,-20.6753,-20.8535,14.7062,-13.1921,1492,1507,1.0000,-0.1836,-0.1335,9.7793,6.8745,-0.5235,-0.9319,-0.1903,-0.0354,10.0264,6.1600,-0.6434,-0.9480
420.9700,-0.6243,-0.0390,-79.4048,4.5134,8.1558,-33.7360,21.0976,12.4931,-0.3392,1499,1500,1.0000,-0.1477,-0.0186,9.9110,4.8668,-0.5464,-0.6953,-0.0514,-0.0593,9.9737,4.1600,-1.0098,-0.8411
420.9889,-0.5114,-0.0485,-79.4169,3.1126,7.3993,-40.0074,46.9749,10.2340,8.0360,1504,1495,1.0000,-0.0113,0.1346,9.7027,3.5462,-0.7449,-0.6189,-0.1640,0.0125,9.8852,2.6790,-0.7427,-0.6808
421.0083,-0.4671,-0.0240,-79.4263,1.2310,6.4740,-47.7154,69.7225,9.3475,14.8486,1508,1491,1.0000,-0.1693,-0.0042,9.8128,1.6836,-0.6304,-0.4510,-0.1041,0.0795,9.9235,0.7783,-1.0022,-0.5511
421.0279,-0.4298,-0.0152,-79.4338,-0.2767,4.9966,-47.1772,72.0105,8.6005,11.7262,1506,1493,0.7392,-0.1118,0.1035,9.7530,0.1264,-0.9357,-0.3670,-0.2142,0.0077,9.8421,-0.6797,-0.9335,-0.4137
421.0476,-0.4395,-0.0265,-79.4346,-1.3606,2.0818,-24.4245,16.4719,8.7950,0.0000,1500,1500,0.0000,-0.0400,-0.0019,9.8152,-1.1637,-0.9968,-0.0617,-0.0371,0.0173,9.8540,-1.5576,-1.1625,-0.0320
421.0666,-0.4773,-0.0343,-79.4317,-2.0400,0.2253,-3.3242,-37.7871,9.5500,-0.0000,1500,1500,0.0000,-0.0496,-0.0737,9.8440,-1.9194,-0.9968,0.1521,-0.0275,0.0053,9.8660,-2.1606,-1.0862,0.1360
421.0854,-0.5314,-0.0444,-79.4266,-2.6851,0.0000,-0.0000,-50.9599,10.6340,-0.0000,1500,1500,0.0000,-0.0304,-0.1000,9.8559,-2.6675,-1.0121,0.2742,0.0659,-0.0593,9.7918,-2.7026,-0.8495,0.2428
421.1047,-0.5753,-0.0508,-79.4017,-2.9370,0.0000,-0.0000,-55.1667,11.5119,-0.0000,1500,1500,0.0000,-0.0232,-0.0378,9.8966,-2.6675,-0.6685,0.3276,-0.0227,-0.0019,9.7774,-3.2065,-0.7503,2.4795
421.1242,-0.6353,-0.0621,-79.4066,-3.6507,0.0000,-0.0000,-60.9151,12.7114,-0.0000,1500,1500,0.0000,-0.0041,-0.0497,9.8200,-3.4690,-0.6609,0.5795,0.1162,-0.0761,9.9139,-3.8324,-0.7350,-1.3068
421.1439,-0.6952,-0.0943,-79.3888,-3.9675,0.0000,-0.0000,-66.6646,13.9112,-0.0000,1500,1500,0.0000,-0.0113,-0.0282,9.8009,-3.7362,-2.6685,0.8085,0.1904,-0.1431,10.0528,-4.1988,-1.0098,0.9604
421.1630,-0.7725,-0.1327,-79.3692,-4.2767,0.0000,-0.0000,-74.0770,15.4580,-0.0000,1500,1500,0.0000,0.0965,-0.1024,9.8847,-4.1103,-0.9205,0.9918,0.0946,-0.0019,10.0575,-4.4431,-1.2847,1.0367
421.1817,-0.8464,-0.1572,-79.3487,-4.5820,0.0000,-0.0000,-97.3998,16.9374,-0.0000,1500,1500,0.0000,0.0127,-0.0809,9.9445,-4.4080,-1.4853,1.1215,0.0300,-0.0378,9.7846,-4.7561,-1.3915,1.0215
421.2010,-0.9267,-0.2082,-79.3292,-4.9713,0.0000,-0.0000,-106.6393,18.5441,-0.0000,1500,1500,0.0000,0.1372,-0.0761,9.9613,-4.8278,-1.3708,1.0757,0.1688,-0.0785,9.9761,-5.1148,-1.3915,0.8993
421.2206,-1.0258,-0.2664,-79.3082,-5.7118,0.0000,-0.0000,-118.0383,20.5263,-0.0214,1499,1500,0.0005,0.1779,-0.1000,9.9014,-5.4843,-1.3861,1.0681,0.1281,-0.2269,9.9522,-5.9393,-1.3152,1.0215
421.2402,-1.1377,-0.3221,-79.2902,-5.9981,0.0000,-0.0000,-130.9098,22.7748,-0.6515,1499,1500,0.0136,0.1899,-0.1527,9.8512,-5.9576,-1.2945,0.8238,0.0898,-0.1503,9.7583,-6.0385,-1.1320,0.9680
421.2596,-1.2709,-0.3808,-79.2700,-6.2309,-0.1266,-0.9906,-143.3903,25.4526,-2.6477,1498,1501,0.0501,0.1563,-0.2556,9.8871,-5.9729,-0.9892,0.9460,0.0635,-0.1312,9.8445,-6.4889,-3.0098,1.0444
421.2783,-1.4024,-0.3914,-79.2544,-6.6851,-0.7535,-5.2134,-146.3617,28.0969,-5.7873,1496,1503,0.1052,0.0965,-0.2485,9.9038,-6.6065,-1.0273,0.8467,0.1257,-0.1982,9.8876,-6.7637,0.7306,0.7848
421.2975,-1.5099,-0.4060,-79.2374,-6.8797,-1.7355,-9.5401,-146.2736,30.2624,-9.0797,1495,1504,0.1619,0.0582,-0.1311,10.0762,-6.8431,-0.8670,0.9154,0.1233,-0.2580,9.7678,-6.9164,-0.9182,0.8230
421.3173,-1.6892,-0.4265,-79.2419,-7.4255,-3.0314,-15.0777,-150.9495,33.8639,-16.2434,1491,1508,0.2744,0.0821,-0.4065,9.7985,-7.0492,-0.8594,0.6253,0.1018,-0.2844,9.9714,-7.8019,-0.9030,-1.3450
421.3368,-1.8599,-0.4240,-79.2323,-7.4294,-4.2065,-16.5739,-166.2870,37.2972,-25.7981,1485,1514,0.3956,0.0414,-0.4161,10.0475,-6.7210,-0.6380,0.4574,0.2143,-0.4113,10.3089,-8.1377,0.2497,0.4795
421.3560,-2.0051,-0.4413,-79.2246,-10.2767,-5.9297,-39.8965,-115.8279,40.2215,-52.4575,1471,1528,0.9984,0.1348,-0.0857,9.6812,-9.8584,-0.1724,0.3811,-0.0083,-0.2557,9.9043,-10.6950,-0.2389,0.4337
421.3749,-2.1859,-0.4454,-79.1796,-9.4484,-6.4640,-27.8821,-171.2352,43.8595,-69.8756,1461,1538,1.0000,0.1228,-0.3610,10.0451,-9.4003,1.0948,2.2437,-0.0778,-0.3586,10.0360,-9.4965,-0.9106,2.5405
421.3940,-2.3730,-0.4617,-79.1730,-10.8645,-7.1241,-34.5355,-173.5959,47.6239,-72.4188,1460,1539,1.0000,0.1516,-0.2772,9.7219,-10.4232,-0.1037,0.2208,0.0515,-0.5382,9.9594,-11.3057,0.1276,0.4947
421.4123,-2.5825,-0.4448,-79.1693,-11.1698,-7.7310,-33.0275,-202.0512,51.8405,-82.4946,1454,1545,1.0000,0.0007,-0.4256,9.7889,-11.0721,0.0719,0.1063,-0.0490,-0.4496,9.7032,-11.2675,-0.1167,0.2886
421.4309,-2.7983,-0.4198,-79.1678,-11.3263,-8.2703,-29.1354,-238.0977,56.1852,-94.7600,1447,1552,1.0000,-0.0472,-0.4687,9.7697,-11.2171,-0.0731,0.1139,0.0515,-0.5310,9.8469,-11.4355,-0.0785,0.0138
421.4494,-3.0232,-0.4133,-79.1693,-11.0095,-8.6812,-22.2011,-283.9430,60.7124,-109.8603,1439,1560,1.0000,0.0845,-0.5789,9.8392,-10.8813,0.2169,-0.1685,-0.0419,-0.6291,9.6721,-11.1377,0.7764,0.0291
421.4678,-3.2629,-0.3545,-79.1734,-11.0744,-9.0401,-19.4879,-319.3399,65.5389,-122.1846,1432,1567,1.0000,-0.1429,-0.6770,9.6788,-10.9271,0.7055,-0.3136,-0.0562,-0.6627,9.7200,-11.2217,0.7077,-0.0778
421.4863,-3.5067,-0.3689,-79.1796,-10.0248,-9.1878,-7.9933,-380.5012,70.4501,-141.7654,1422,1577,1.0000,0.0486,-0.8470,10.0403,-10.4538,-0.4166,-0.4892,0.3269,-0.8638,9.4877,-9.5958,-1.3610,-0.3450
421.5047,-3.6903,-0.3049,-79.1905,-8.4026,-9.0701,6.3765,-443.0147,74.1591,-161.1237,1411,1588,1.0000,-0.1190,-0.7129,9.5184,-8.2248,0.6368,-0.6800,-0.0107,-0.7632,9.5236,-8.5805,2.3108,-0.3068
421.5231,-3.9224,-0.3159,-79.2050,-7.9026,-8.8949,9.5310,-478.8135,78.8409,-173.4883,1404,1595,1.0000,0.0821,-1.0194,9.6692,-8.7210,0.0566,-0.8708,0.2909,-0.9069,9.5979,-7.0843,-0.3915,-0.8030
421.5417,-4.1080,-0.2847,-79.2286,-4.8530,-8.2887,32.6577,-566.7793,82.5943,-199.9954,1390,1609,1.0000,0.0558,-1.0840,9.4992,-4.9423,1.3009,-1.1456,-0.3339,-0.9117,9.2411,-4.7637,2.2650,-1.2457
421.5602,-4.2131,-0.2786,-79.2550,-5.5629,-7.8798,22.0897,-548.4337,84.7376,-195.9302,1392,1607,1.0000,0.0821,-0.7105,9.7290,-5.3698,1.0490,-1.1380,-0.1663,-0.7680,9.8397,-5.7561,0.3947,-1.6961
421.5786,-4.3148,-0.2349,-79.2867,-3.6965,-7.2523,34.0380,-594.5496,86.8149,-209.8813,1384,1615,1.0000,-0.0735,-0.8614,9.6405,-4.0416,0.4841,-1.5121,-0.1544,-0.7920,9.4087,-3.3515,1.8298,-1.8564
421.5971,-4.3526,-0.2062,-79.3254,-2.7843,-6.5821,36.1881,-605.0876,87.6137,-213.2314,1382,1617,1.0000,-0.0376,-0.6603,9.5447,-2.6904,0.9803,-1.8021,-0.1209,-0.6483,9.8157,-2.8782,0.4863,-2.3602
421.6156,-4.3443,-0.1689,-79.3710,-2.6011,-5.9845,32.3550,-593.0949,87.4914,-209.8123,1384,1615,1.0000,-0.0041,-0.4783,9.7674,-2.7057,1.4460,-2.2220,-0.2238,-0.6244,9.3872,-2.4965,2.0131,-2.4976
421.6340,-4.3948,-0.1016,-79.4257,-1.1126,-4.4412,33.5996,-602.4953,88.5461,-212.9717,1382,1617,1.0000,-0.2195,-0.8446,9.3196,-1.6904,1.3009,-2.8327,-0.1711,-0.4903,9.7200,-0.5347,0.3337,-3.0320
421.6525,-4.4349,-0.0059,-79.4889,-0.8187,-2.4979,19.5470,-566.6363,89.3921,-203.3542,1388,1611,1.0000,-0.2459,-0.8350,9.3244,-0.6752,1.9803,-3.2678,-0.2382,-0.5454,9.7631,-0.9622,2.5245,-3.2457
421.6711,-4.4764,0.0739,-79.5595,-1.0515,-1.1585,8.1686,-538.6455,90.2673,-195.9544,1392,1607,1.0000,-0.2267,-0.7991,9.0802,-1.1332,1.8276,-3.7334,-0.7984,-0.7800,9.4135,-0.9698,1.3031,-3.6503
421.6895,-4.5320,0.0590,-79.6406,3.3531,0.0000,0.0000,-521.5103,91.4232,-191.7345,1394,1605,1.0000,0.1132,-1.3306,9.9972,2.0500,0.5223,-4.0540,0.4561,-1.0888,8.8724,4.6561,1.7688,-4.6732
421.7079,-4.4360,0.1000,-79.7342,5.6279,0.0000,0.0000,-510.4663,89.5483,-187.7047,1396,1603,1.0000,0.0175,-0.7943,9.4489,6.3706,3.0872,-4.7869,-0.0490,-0.5884,9.6697,4.8852,2.7230,-4.9709
421.7264,-4.2015,0.1986,-79.8383,4.4256,0.0000,0.0000,-483.4857,84.9014,-177.8267,1402,1597,1.0000,-0.3560,-0.0402,9.8655,3.7142,1.9192,-5.3518,-0.5279,-0.2365,9.4111,5.1371,1.5932,-5.7953
