timestamp,roll_deg,pitch_deg,yaw_deg,omega_raw,omega_filtered,alpha,tau_ff,tau_pid,tau_total,pwm_left,pwm_right,deadzone_factor,accel1_x,accel1_y,accel1_z,gyro1_x,gyro1_y,gyro1_z,accel2_x,accel2_y,accel2_z,gyro2_x,gyro2_y,gyro2_z
213.8565,3.2551,-0.2910,-43.6862,-15.0286,0.0000,-0.0000,374.5707,-65.3030,137.5313,1575,1424,1.0000,-0.1190,1.6262,9.5423,-13.7591,-0.4930,-0.3060,0.0826,1.4873,9.8325,-16.2981,-0.0709,-0.0625
213.8757,3.0644,-0.2994,-43.6976,-19.8759,0.0000,-0.0000,352.6195,-61.5186,129.4927,1571,1428,1.0000,-0.0543,1.3365,9.2550,-18.8355,-1.0655,0.3429,0.2718,1.1402,10.3592,-20.9164,-2.2847,-1.3526
213.8951,2.7381,-0.3940,-43.6682,-25.2996,-1.6822,-74.7581,530.3828,-55.0215,167.7556,1592,1407,0.9531,0.5274,1.1761,9.0515,-23.7133,0.3238,1.0986,-0.4656,0.3213,9.1861,-26.8858,1.7764,1.8993
213.9140,2.2032,-0.4222,-43.6377,-23.9484,-7.2336,-156.4138,703.9946,-44.3449,219.2909,1620,1379,1.0000,0.0678,0.1083,9.9254,-25.3698,-2.2182,1.3505,-0.0490,-0.3155,9.7990,-22.5271,-0.6358,1.8840
213.9326,1.6270,-0.4318,-43.5946,-24.0629,-9.7580,-135.9386,578.7200,-32.8368,178.4600,1598,1401,1.0000,0.5346,-0.2269,9.8392,-22.6675,5.0032,1.7780,0.2814,-0.0881,10.1581,-25.4584,4.7077,2.2963
213.9510,0.9895,-0.3541,-43.5585,-28.0362,-12.4997,-148.9904,452.4590,-20.0965,136.7368,1575,1424,1.0000,-0.2698,-0.2748,9.4561,-27.4614,0.3391,1.7398,-0.0442,-0.4352,9.8109,-28.6110,0.0207,2.0062
213.9693,0.2444,-0.3159,-43.5182,-28.9026,-14.9602,-133.9159,344.8337,-4.8904,98.9986,1554,1445,1.0000,0.0318,-0.8183,9.6740,-28.3851,1.3238,2.0528,-0.1663,-0.9308,9.7678,-29.4202,2.1428,1.9680
213.9878,-0.4231,-0.2429,-43.4787,-26.7767,-16.7326,-96.2159,228.4186,8.4658,59.7243,1532,1467,1.0000,-0.1669,-0.7680,9.8895,-27.4767,1.4841,1.9765,-0.3220,-0.9260,9.4877,-26.0767,1.2115,2.0978
214.0063,-0.8484,-0.1745,-43.4482,-21.4332,-17.4377,-38.0329,11.9069,16.9770,-5.1546,1497,1502,1.0000,-0.1836,-0.1982,10.7322,-21.4767,0.7513,1.7780,0.1449,-1.2564,10.6226,-21.3897,1.8909,1.4795
214.0247,-1.3395,-0.1349,-43.4233,-21.7767,-18.0886,-35.4157,-52.1419,26.8040,-28.0018,1484,1515,1.0000,-0.0280,-0.5549,9.5136,-21.0721,1.9727,1.2360,0.0108,-0.5262,9.4351,-22.4813,0.8680,1.4260
214.0431,-1.8232,-0.1371,-43.4040,-19.9904,-18.3738,-15.5024,-165.1494,36.4958,-64.4897,1464,1535,1.0000,0.0582,-0.7776,9.9493,-21.3240,0.1711,0.9307,-0.0251,-0.6339,9.5643,-18.6568,0.2955,1.0825
214.0615,-2.1629,-0.1055,-43.3903,-15.7805,-17.9848,21.1294,-309.7353,43.3108,-108.3813,1440,1559,1.0000,-0.1429,-0.5477,9.9876,-15.9271,-0.2869,0.7551,-0.1927,-0.6675,9.8516,-15.6339,-0.1854,0.6779
214.0799,-2.4090,-0.1240,-43.3845,-13.5286,-17.3164,36.2713,-381.6620,48.2567,-130.9937,1427,1572,1.0000,0.2162,-0.3442,9.7099,-13.8126,1.0872,0.4650,0.0084,-0.6603,9.5691,-13.2446,1.4787,0.2276
214.0984,-2.6465,-0.0828,-43.3823,-10.7423,-16.3303,53.5002,-458.6153,53.0338,-154.9292,1414,1585,1.0000,-0.1860,-0.5884,9.7650,-11.2324,0.1864,0.1292,-0.0849,-0.7560,9.5212,-10.2523,-0.5671,0.0673
214.1168,-2.8328,-0.1355,-43.3878,-7.9255,-15.0696,68.1885,-522.3599,56.7888,-174.6552,1403,1596,1.0000,0.2928,-0.6674,10.2366,-8.0339,-0.5540,-0.0617,0.2598,-0.5621,9.7798,-7.8171,1.1505,-0.5587
214.1353,-2.9953,-0.1384,-43.4057,-6.7156,-13.8165,68.0291,-540.6008,60.0688,-181.4026,1400,1599,1.0000,0.2737,-0.6746,9.9637,-6.9881,2.7589,-0.6342,0.2407,-0.7297,9.6745,-6.4431,2.7459,-1.0702
214.1536,-3.1149,-0.1522,-43.4325,-4.4790,-12.4159,76.2308,-577.9863,62.4922,-193.0823,1393,1606,1.0000,0.2928,-0.7058,10.1073,-5.0034,2.3544,-1.1380,-0.0562,-0.7560,9.7343,-3.9545,2.1963,-1.5816
214.1721,-3.1802,-0.1273,-43.4655,-1.7996,-10.8234,86.3021,-614.5011,63.8292,-203.9749,1387,1612,1.0000,-0.0950,-0.7225,10.3803,-2.8889,0.6902,-1.5273,0.0228,-0.5334,9.8421,-0.7103,-0.4831,-2.0702
214.1905,-3.1674,-0.1299,-43.5080,1.2157,-9.0175,97.8876,-646.3979,63.6055,-212.7941,1382,1617,1.0000,-0.0280,-0.6220,10.2845,0.6378,-0.9663,-2.4434,0.1066,-0.3538,9.4327,1.7935,-0.0938,-2.2305
214.2089,-3.0858,-0.1405,-43.5597,6.8989,-6.6301,129.6884,-728.5943,62.0044,-235.0086,1370,1629,1.0000,0.0558,-0.7704,9.9493,5.0577,0.2398,-2.8250,0.1808,-0.2628,9.7702,8.7401,-0.2923,-2.8182
214.2283,-2.8211,-0.1534,-43.6182,13.6737,-0.3552,15.5741,-369.4795,56.7377,-128.8474,1429,1570,0.9774,-0.0304,-0.5453,10.0116,13.3630,-1.4319,-3.1227,-0.1376,-0.2724,9.4734,13.9844,-0.8877,-3.0702
214.2469,-2.5355,-0.1926,-43.6813,15.0439,0.0000,0.0000,-291.7634,51.0515,-92.5566,1449,1550,0.8632,0.1946,-0.4759,10.2079,14.9203,-0.3708,-3.3441,0.0898,-0.1934,10.0264,15.1676,0.1657,-3.4976
214.2653,-2.2246,-0.2094,-43.7490,13.7882,0.0000,0.0000,-255.9879,44.8559,-62.6392,1465,1534,0.6656,0.0917,-0.1671,9.9038,14.1111,0.1559,-3.4968,-0.0059,-0.3921,10.2682,13.4653,-0.3992,-3.9022
214.2837,-1.8409,-0.2849,-43.8160,16.7462,0.5088,17.1496,-261.2175,37.1989,-35.0125,1480,1519,0.3816,0.3575,-0.0306,10.3300,15.5615,-0.6533,-3.3594,0.1233,-0.2197,9.9570,17.9310,-0.2847,-3.9556
214.3022,-1.4445,-0.3097,-43.8952,16.3302,5.3136,97.4604,-446.8990,29.2854,-121.1711,1433,1566,0.8669,0.1276,0.1131,9.7865,17.3019,-0.0579,-3.4128,0.1856,0.5201,10.7471,15.3584,-0.5518,-5.2381
214.3206,-1.0384,-0.3235,-43.9736,10.7233,6.3631,41.8516,-200.0153,21.1742,-66.5914,1463,1536,1.0000,0.0390,0.7212,9.7147,10.8897,-0.4090,-3.3365,0.1425,0.6589,9.8325,10.5569,-1.2236,-5.2152
214.3390,-0.7398,-0.3142,-44.0275,12.7768,7.3252,52.1252,-196.0400,15.2099,-62.4962,1465,1534,1.0000,0.0582,0.1155,10.0786,12.0271,0.3162,-3.0006,0.1760,0.2256,9.7391,13.5264,0.8756,-2.8106
214.3575,-0.4567,-0.2767,-44.0746,7.9981,7.4261,5.4786,-56.9379,9.1377,-20.5115,1488,1511,1.0000,-0.1429,0.4770,9.4705,9.7676,0.1253,-2.7411,-0.0658,0.7355,10.2060,6.2287,-0.7121,-2.3221
214.3759,-0.3032,-0.2747,-44.1148,1.6775,6.5638,-46.7491,83.1189,6.0680,20.2393,1511,1488,1.0000,-0.0280,0.4842,9.7338,2.2867,-0.6304,-2.2144,0.0419,0.4961,9.8947,1.0684,-0.8724,-2.0931
214.3943,-0.2148,-0.3030,-44.1493,-0.7461,5.0114,-54.6854,110.6449,4.2987,21.5024,1511,1488,0.7458,0.0941,0.4219,9.8942,-0.0568,-1.0197,-2.0693,-0.0083,0.5703,10.0767,-1.4355,-1.0098,-1.6274
214.4127,-0.1582,-0.3035,-44.1939,-4.9523,0.8505,-18.4454,29.1034,3.1647,0.0000,1500,1500,0.0000,-0.0160,0.6398,9.7099,-4.0034,-1.0197,-1.5960,-0.0371,0.6972,10.0144,-5.9011,-0.6053,-3.2305
214.4312,-0.1407,-0.2526,-44.2114,-8.2881,0.0000,-0.0000,-13.4930,2.8157,-0.0000,1500,1500,0.0000,-0.2172,0.7619,9.7554,-7.4156,-0.4701,-1.0693,-0.1352,0.6015,10.1677,-9.1606,-0.2465,-0.7190
214.4496,-0.2309,-0.2248,-44.2197,-11.2729,0.0000,-0.0000,-22.1375,4.6195,-0.0000,1500,1500,0.0000,-0.1190,0.5129,9.6285,-10.6217,-0.5311,-0.4128,0.0300,0.3836,9.9091,-11.9240,-0.1931,-0.4366
214.4680,-0.3834,-0.1820,-44.2237,-11.9370,0.0000,-0.0000,-36.7645,7.6718,-0.0000,1500,1500,0.0000,-0.1812,0.2783,9.8775,-11.5377,-0.3632,-0.3136,-0.0514,0.0580,10.2012,-12.3362,-0.0175,-0.0854
214.4865,-0.6061,-0.1413,-44.2201,-13.2996,-0.2229,-6.0472,-43.6095,12.1287,-0.0000,1500,1500,0.0000,-0.1765,0.0412,9.7889,-12.6523,-0.1495,0.1521,-0.1640,-0.1024,9.9330,-13.9469,-0.2999,0.2352
214.5050,-0.8813,-0.0998,-44.2140,-13.4904,-3.6086,-59.0779,68.7295,17.6356,1.1133,1500,1499,0.1068,-0.1908,-0.2197,9.8368,-13.7515,-0.3327,0.1597,-0.1903,-0.3634,9.8421,-13.2294,-0.1931,0.4871
214.5234,-1.1319,-0.0518,-44.2037,-10.2156,-5.6463,-41.8519,-9.7159,22.6498,-13.5056,1492,1507,0.9616,-0.2459,-0.4424,10.0211,-10.9423,-0.5464,0.4192,-0.2334,-0.6028,9.7248,-9.4889,-0.2770,0.6779
214.5419,-1.3846,-0.0481,-44.1914,-6.6469,-5.8652,-7.2156,-138.5414,27.7167,-52.3407,1471,1528,0.9941,-0.0136,-0.8063,10.0068,-7.5148,-0.0731,0.6788,0.0587,-0.9835,9.4877,-5.7790,-0.0404,0.6169
214.5603,-1.6075,-0.0408,-44.1801,-1.8530,-4.5233,28.1439,-266.0278,32.1911,-46.3466,1474,1525,0.5116,-0.0807,-1.1367,9.9948,-2.8584,-0.4930,0.7169,-0.1448,-1.1319,9.4303,-0.8477,-0.8266,0.4337
214.5787,-1.7715,-0.0440,-44.1693,2.8569,-1.1676,19.0378,-258.6759,35.4891,-29.9029,1483,1516,0.3316,-0.0663,-1.3043,9.9445,1.8516,-1.0121,0.6330,-0.1304,-1.2588,9.5428,3.8623,-1.0785,0.4413
214.5972,-1.8339,-0.0427,-44.1650,8.2081,0.0000,0.0000,-211.0276,36.7555,-29.1718,1483,1516,0.3766,-0.0639,-1.3211,10.0092,6.5997,-0.9663,0.5337,-0.0945,-1.4168,9.2579,9.8165,-0.5366,-0.1541
214.6157,-1.7911,-0.0507,-44.1671,15.3111,0.0000,0.0000,-206.1036,35.9176,-26.1521,1485,1514,0.3456,-0.0160,-1.4408,9.8775,13.7371,-0.5998,0.0299,-0.0778,-1.4288,8.9849,16.8852,-0.8266,-0.3373
214.6341,-1.6572,-0.0718,-44.1760,19.6203,0.0862,4.1001,-202.4987,33.2553,-18.5484,1489,1510,0.2530,0.0606,-1.3450,9.6524,17.4165,-0.5998,-0.2983,-0.0395,-1.3091,9.3225,21.8241,-0.4831,-0.7495
214.6525,-1.3793,-0.0624,-44.2099,24.8607,6.5255,175.7128,-664.7720,27.7122,-199.9923,1390,1609,1.0000,-0.0783,-1.1295,9.8559,23.8058,-0.3785,-0.6266,-0.2190,-0.9787,9.3010,25.9157,-0.6892,-3.2457
214.6710,-1.0773,-0.0486,-44.2307,27.2768,9.6382,168.6435,-508.0512,21.6830,-153.0958,1415,1584,1.0000,-0.1262,-1.1846,9.8799,25.1493,-0.6685,-0.9701,-0.2118,-0.8111,9.3967,29.4042,-1.0098,-1.4060
214.6895,-0.6320,-0.0671,-44.2599,31.6584,12.9413,178.7142,-489.5197,12.7832,-143.4571,1421,1578,1.0000,0.0127,-0.8374,9.8607,30.6760,-0.7831,-1.0540,0.0156,-0.6866,9.5260,32.6409,-1.0938,-2.2610
214.7079,-0.1128,-0.0068,-44.3012,32.6241,15.8937,160.3668,-474.8323,2.2564,-134.0813,1426,1573,1.0000,-0.2866,-0.4831,9.6405,32.7829,0.0261,-1.8098,-0.1400,-0.2748,9.6936,32.4653,-0.4755,-2.8564
214.7263,0.4374,-0.1079,-44.3482,31.9790,18.3065,130.9902,-326.9191,-8.7526,-87.1610,1452,1547,1.0000,0.4341,-0.2078,9.8535,32.9050,-1.4090,-2.1304,0.3316,-0.0019,9.8971,31.0531,0.4787,-3.0702
214.7450,1.0706,-0.0804,-44.4039,30.9714,20.2062,101.5133,-169.1616,-21.4233,-36.6536,1479,1520,1.0000,-0.1525,0.3238,9.9613,31.3935,0.9192,-2.7105,0.2670,0.3477,10.0384,30.5493,-1.9640,-3.3984
214.7635,1.7214,-0.1391,-44.4432,24.0783,20.7870,31.4144,107.6105,-34.4564,47.3592,1526,1473,1.0000,0.2330,1.0995,9.5279,27.0042,-1.4166,-2.7869,0.3676,1.1737,10.0456,21.1523,0.3260,-1.4671
214.7819,2.2864,-0.1312,-44.5003,20.6508,20.7666,-1.1100,266.2915,-45.7785,97.4509,1553,1446,1.0000,0.0534,1.1569,9.7458,20.5462,0.9116,-2.9319,0.0803,0.9869,9.6960,20.7554,0.3947,-3.3984
214.8005,2.8780,-0.0872,-44.5526,13.0477,19.6088,-62.3832,510.8400,-57.6399,171.8552,1594,1405,1.0000,-0.1142,1.8872,9.1209,16.3477,0.8276,-2.8556,0.1162,2.1266,10.2826,9.7477,0.3947,-2.8869
214.8189,3.2264,-0.0954,-44.6020,0.3302,16.7170,-156.6957,822.5455,-64.6390,262.6322,1644,1355,1.0000,0.1085,1.9039,8.7738,1.9050,0.7742,-2.7640,0.1569,1.4083,9.7774,-1.2446,0.4863,-2.6350
214.8373,3.3159,-0.1864,-44.6486,-5.0897,13.4460,-177.4455,892.6144,-66.4639,283.1640,1655,1344,1.0000,0.4389,1.3126,9.1161,-3.6294,-0.3174,-2.5731,-0.0514,1.3389,9.7271,-6.5500,0.4634,-2.4595
214.8557,3.2386,-0.2248,-44.6877,-15.4408,9.1130,-235.7687,1051.6860,-64.9496,326.9469,1679,1320,1.0000,0.2138,1.4083,8.9414,-13.2858,0.1406,-2.3365,-0.3076,1.0923,9.4734,-17.5958,-0.1473,-1.8488
214.8742,2.9761,-0.3210,-44.7208,-19.6813,3.0922,-150.9774,777.2840,-59.7301,247.3998,1636,1363,0.9996,0.6208,0.9846,9.4370,-18.1255,-0.5769,-2.3136,-0.2885,0.6110,9.4781,-21.2370,3.9215,-1.3984
214.8926,2.4037,-0.5599,-44.7499,-26.6202,0.0000,-0.0000,276.6002,-48.3061,79.8947,1543,1456,0.7864,1.0805,0.1083,9.2047,-25.5835,0.5834,-1.5884,1.7610,0.3932,10.0336,-27.6568,-1.0556,-1.8793
214.9111,1.8560,-0.0620,-44.7618,-24.0858,-0.3067,-17.0183,262.5861,-37.3704,36.2171,1519,1480,0.3928,-1.6824,-0.0761,9.6644,-22.7591,7.7437,-1.4510,-0.2262,-0.0833,9.6936,-25.4126,5.2573,-0.4137
214.9295,1.2871,-0.2811,-44.7745,-25.6087,-6.8532,-179.2468,553.6112,-26.0041,168.0132,1592,1407,1.0000,0.9632,-0.1359,10.2749,-26.2248,-2.6151,-1.0388,-0.1328,-0.1096,9.7702,-24.9927,-0.4679,-0.4900
214.9480,0.5081,-0.3482,-44.7732,-27.4484,-9.9425,-167.3369,450.3347,-10.4305,131.3090,1572,1427,1.0000,0.4963,-0.9954,9.3053,-25.4690,1.8353,-0.3365,-0.0179,-1.0002,8.9873,-29.4278,1.6695,-0.0015
214.9664,-0.3207,-0.2790,-44.7824,-25.7118,-12.3079,-128.1874,332.2762,6.4173,89.8287,1549,1450,1.0000,-0.2100,-1.7305,10.7969,-28.3164,0.9345,-0.7640,-0.2358,-1.8502,9.3872,-23.1072,0.7688,-0.6579
214.9855,-0.9108,-0.1538,-44.7970,-14.6087,-12.6530,-18.0520,-52.8108,18.2243,-23.8992,1486,1513,1.0000,-0.1836,-1.4096,9.3723,-15.4919,3.7360,-1.1151,0.2862,-0.6914,9.0113,-13.7255,4.0665,-0.5663
215.0040,-1.2733,-0.0480,-44.8081,-15.0629,-13.0145,-19.5519,-90.2107,25.4792,-37.9986,1479,1520,1.0000,-0.3895,-0.5022,8.9581,-14.4690,2.9956,-0.6266,-0.2262,-0.3825,10.0384,-15.6568,-1.9869,-0.5969
215.0224,-1.5534,-0.0951,-44.8173,-10.5171,-12.6399,20.3492,-237.3600,31.0972,-82.0094,1454,1545,1.0000,0.2521,-0.6555,10.4784,-12.4690,-0.8747,-0.4815,0.1688,-0.8877,8.6737,-8.5652,1.0741,-0.5587
215.0409,-1.7235,-0.0334,-44.8287,-2.9332,-11.1839,78.8390,-425.3810,34.5159,-136.3646,1424,1575,1.0000,-0.0304,-0.7991,9.7171,-3.6370,2.0108,-0.5960,0.1928,-0.6627,9.4422,-2.2294,3.7459,-0.5053
215.0595,-1.8602,-0.0042,-44.8417,-4.2767,-10.1478,55.6627,-374.3612,37.2681,-123.4552,1432,1567,1.0000,0.2114,-0.5453,9.4441,-3.8584,4.9192,-0.4968,0.0491,-0.1623,9.9163,-4.6950,3.1657,-0.6656
215.0780,-1.8989,0.0560,-44.8510,-2.8339,-9.0507,59.3419,-389.4149,38.0618,-128.0671,1429,1570,1.0000,-0.2004,-0.2700,10.3108,-4.1637,0.7895,-0.4434,0.0922,-0.1862,9.9546,-1.5042,1.4176,-0.4900
215.0965,-1.8097,0.0702,-44.8578,-2.2118,-8.0249,55.4455,-367.9283,36.2958,-121.1678,1433,1566,1.0000,0.1324,0.2831,9.9685,-2.2553,2.7131,-0.2983,0.0803,0.2328,10.0528,-2.1683,2.0894,-0.2992
215.1149,-1.7282,0.0382,-44.8609,-2.3072,-7.1672,46.5386,-332.8907,34.6818,-110.5503,1439,1560,1.0000,0.0965,0.2687,10.1528,-2.4767,-0.5998,-0.3899,0.1281,0.6158,9.6457,-2.1377,-0.3915,0.0062
215.1334,-1.6375,-0.0147,-44.8645,-3.0706,-6.5527,33.3014,-284.3322,32.8844,-96.0552,1447,1552,1.0000,0.3862,0.3836,9.9900,-3.6599,1.2398,-0.3670,0.4178,1.0324,10.0288,-2.4813,2.0665,0.0749
215.1518,-1.5214,-0.0007,-44.8648,-6.0400,-6.4758,4.1763,-187.0988,30.5788,-67.6771,1462,1537,1.0000,0.1132,0.7763,9.7985,-6.3698,1.3849,-0.0235,-0.0849,0.9343,9.7248,-5.7103,2.6466,0.1054
215.1702,-1.4599,0.0206,-44.8598,-4.1927,-6.1334,18.5977,-221.5477,29.3620,-76.7144,1457,1542,1.0000,-0.0783,0.3908,9.9828,-4.7973,-0.1495,0.2666,0.0252,0.5225,9.7894,-3.5881,0.7306,0.2963
215.1886,-1.4512,0.0268,-44.8558,-6.2003,-6.1434,-0.5454,-165.4125,29.2022,-60.9166,1466,1533,1.0000,0.1204,0.3094,9.5184,-5.2629,0.9650,0.2284,0.1018,0.3261,10.1605,-7.1377,2.7306,0.2886
215.2071,-1.5335,0.0180,-44.8453,-9.9065,-6.7079,-30.5283,-88.5355,30.8641,-40.2220,1477,1522,1.0000,0.0702,0.2208,9.8727,-9.2248,0.1024,0.5414,0.1090,0.0604,10.0911,-10.5881,0.6848,0.6092
215.2256,-1.6578,0.0067,-44.8347,-9.6469,-7.1487,-23.9110,-121.8960,33.3666,-50.8142,1472,1527,1.0000,0.1851,-0.0138,10.0954,-9.4996,1.1711,0.6101,0.2407,-0.0617,10.1988,-9.7942,1.9062,0.6169
215.2440,-1.8087,0.0141,-44.8253,-10.4675,-7.6465,-27.0128,-130.3281,36.4029,-54.6933,1469,1530,1.0000,0.0486,-0.0904,9.8248,-10.6828,1.6597,0.6635,0.0539,0.0340,10.3377,-10.2523,0.2039,0.3955
215.2624,-2.0186,-0.0026,-44.8175,-12.2080,-8.3308,-37.1160,-125.3858,40.6213,-55.4187,1469,1530,1.0000,0.0223,-0.2365,9.9326,-12.4614,-0.7220,0.3811,0.0563,-0.4807,9.8109,-11.9545,-0.5213,0.4031
215.2808,-2.2675,-0.0497,-44.8122,-10.3797,-8.6381,-16.7173,-212.7767,45.6222,-82.3885,1454,1545,1.0000,0.1683,-0.6291,10.1624,-11.9347,-0.7754,0.2666,0.1114,-0.7106,9.6074,-8.8248,-0.6129,0.2276
215.2993,-2.4812,-0.1158,-44.8105,-7.2690,-8.4327,11.1422,-317.6002,49.9205,-113.8883,1437,1562,1.0000,0.2976,-0.8039,10.4018,-7.5835,-0.5540,0.0147,0.3245,-0.7967,9.9043,-6.9545,-0.2465,0.1054
215.3177,-2.6731,-0.2009,-44.8125,-4.8034,-7.8883,29.4802,-392.5038,53.7865,-136.7943,1424,1575,1.0000,0.4341,-0.9236,9.9972,-5.1103,0.0261,-0.0769,0.3843,-0.8734,9.7750,-4.4965,0.1963,-0.1923
215.3361,-2.8096,-0.2553,-44.8185,-2.8950,-7.1393,40.7696,-440.7178,56.5433,-151.6726,1416,1583,1.0000,0.2330,-0.8757,10.1385,-3.2324,-0.6227,-0.3670,0.0755,-0.8111,9.7224,-2.5576,-0.9030,-0.4060
215.3545,-2.8766,-0.2518,-44.8234,-0.7232,-6.1769,52.3521,-481.7886,57.9127,-163.8572,1409,1590,1.0000,-0.0807,-0.7512,10.0690,-1.3545,-0.9357,-0.3212,0.2502,-0.6459,9.9785,-0.0919,-1.3763,-0.3450
215.3729,-2.9169,-0.3234,-44.8289,1.4829,-3.7864,46.9881,-470.9723,58.7468,-160.4329,1411,1588,0.9950,0.3120,-0.8326,10.0379,0.9432,-0.9586,-0.3441,0.2311,-0.4472,9.9091,2.0226,-0.7198,-0.3831
215.3913,-2.8625,-0.3439,-44.8427,4.0592,-0.4603,9.2920,-356.1471,57.6874,-126.8244,1430,1569,0.9865,0.1492,-0.6124,10.1145,3.1951,-0.6762,-0.7792,0.0635,-0.4616,9.8085,4.9233,0.6390,-0.7343
215.4097,-2.7820,-0.4034,-44.8528,5.6813,0.0000,0.0000,-320.1301,56.1065,-113.8005,1437,1562,0.9670,0.1587,-0.6124,9.9014,5.6760,-1.9892,-0.6647,0.1329,-0.4616,9.6314,5.6867,-2.1320,-0.6503
215.4282,-2.5992,-0.4563,-44.8669,11.4867,0.0000,0.0000,-299.0914,52.4760,-98.5029,1445,1554,0.8956,0.2473,-0.6243,10.0618,10.3325,-1.1495,-0.8327,0.1569,-0.4616,9.6122,12.6409,-0.5213,-0.8030
215.4466,-2.3605,-0.4922,-44.8785,12.9790,0.0000,0.0000,-271.6284,47.7265,-75.8076,1458,1541,0.7587,0.1851,-0.4639,9.9613,13.1111,-0.5006,-0.5884,0.2502,0.0173,10.2730,12.8470,-0.9106,-0.7648
215.4650,-2.0604,-0.5146,-44.8836,11.9600,0.0949,2.3868,-243.9645,41.7443,-48.6263,1473,1526,0.5452,0.0845,-0.0378,9.9062,13.3325,-1.1037,-0.3060,0.0707,0.0005,10.0719,10.5874,-1.3457,-0.2992
215.4834,-1.7864,-0.5251,-44.8847,8.9180,1.3529,14.8851,-248.4248,36.2813,-30.0113,1483,1516,0.3422,-0.0160,0.1538,9.8895,9.2409,-1.3937,-0.1609,-0.0419,0.1825,9.9522,8.5951,-2.2312,0.0138
215.5020,-1.5704,-0.5607,-44.8785,6.5783,2.2800,9.9361,-209.3155,31.9768,-14.7396,1491,1508,0.1976,0.0630,0.1226,9.8895,7.2485,-2.3785,0.2666,0.0922,0.2591,9.9259,5.9081,-2.0938,0.3497
215.5204,-1.3916,-0.5897,-44.8676,3.0630,1.7068,-4.6816,-146.6531,28.4167,-5.5284,1496,1503,0.1000,0.1132,0.2902,9.6453,3.8210,-1.2487,0.4803,0.1688,0.3190,10.1461,2.3050,-1.4602,0.7619
215.5388,-1.2799,-0.6044,-44.8513,0.8836,0.6373,-4.6857,-133.7828,26.1946,-2.6935,1498,1501,0.0533,0.0678,0.2017,9.6381,0.4165,-1.1418,0.9612,-0.0251,0.4291,10.0097,1.3508,-1.2999,0.8535
215.5572,-1.2641,-0.5922,-44.8316,-2.2576,0.0000,-0.0000,-145.4602,25.8914,-2.5608,1498,1501,0.0477,-0.0520,0.0484,9.8105,-1.8965,-1.1189,1.0986,-0.1328,-0.0354,9.6505,-2.6187,-1.2923,1.0520
215.5757,-1.3233,-0.5405,-44.8117,-3.3454,0.0000,-0.0000,-152.2700,27.0882,-3.9292,1497,1502,0.0699,-0.2315,-0.2006,9.7003,-2.9881,-0.9968,0.9994,-0.3028,-0.3347,9.5835,-3.7026,-1.3305,1.1131
215.5941,-1.4779,-0.4368,-44.7978,-4.7156,0.0000,-0.0000,-170.0574,30.1945,-9.0299,1495,1504,0.1440,-0.4159,-0.5190,9.4753,-5.0568,-1.5998,0.8849,-0.5758,-0.6746,9.7487,-4.3744,0.6924,0.5176
215.6125,-1.7813,-0.2231,-44.8037,-7.0133,0.0000,-0.0000,-204.9688,36.2801,-25.5718,1485,1514,0.3386,-0.8803,-1.0194,9.3651,-7.0492,-0.2945,-0.0540,-0.7362,-1.1128,9.3824,-6.9774,0.5474,-0.7495
215.6310,-2.2764,-0.0170,-44.8352,-6.5973,0.0000,-0.0000,-261.9449,46.2056,-67.7075,1462,1537,0.7020,-0.9282,-2.0776,9.7314,-7.1332,0.0108,-1.7869,-0.0538,-1.3953,9.2292,-6.0614,0.7230,-1.7572
215.6493,-2.4652,0.1782,-44.8762,-3.4179,0.0000,-0.0000,-283.6729,50.0066,-86.0243,1452,1547,0.8237,-0.8851,-1.0074,9.9900,-3.8584,0.3696,-2.1685,-0.7050,-0.5118,9.1932,-2.9774,0.9367,-2.2457
215.6677,-2.3813,0.3428,-44.9116,-4.2805,0.0000,-0.0000,-274.0190,48.3526,-77.9088,1457,1542,0.7721,-0.7080,0.3238,9.4944,-3.5683,0.9727,-1.9319,-0.5758,0.4028,9.7104,-4.9927,0.8527,-1.9327
215.6862,-2.3643,0.4818,-44.9434,-5.8377,0.0000,-0.0000,-272.0624,48.0361,-76.2635,1458,1541,0.7611,-0.6553,0.1729,9.5926,-5.7897,0.5223,-1.7487,-0.7912,0.0077,9.7391,-5.8858,0.3642,-1.7495
215.7046,-2.5115,0.5677,-44.9734,-6.1316,-0.0049,-0.0471,-288.8683,51.0057,-90.4483,1450,1549,0.8502,-0.4350,-0.5573,9.7554,-5.9042,0.3238,-1.6113,-0.4369,-0.6770,9.6769,-6.3591,0.8680,-1.5511
215.7230,-2.6917,0.5985,-45.0049,-5.5019,-0.1956,-1.1300,-306.4837,54.6363,-105.8983,1441,1558,0.9360,-0.1956,-0.7919,9.7482,-6.1561,0.6673,-1.6800,-0.1233,-0.7441,9.4518,-4.8477,0.5550,-1.6198
215.7418,-2.7309,0.5888,-45.0367,-3.4026,-0.1912,0.0143,-314.2855,55.4468,-110.0011,1439,1560,0.9506,-0.0448,-0.3394,9.5974,-3.3240,0.2322,-1.6647,-0.0778,-0.3299,9.6481,-3.4813,0.2039,-1.7343
215.7604,-2.7494,0.5615,-45.0689,-1.9561,-0.0445,0.1651,-316.8513,55.8447,-111.6059,1438,1561,0.9568,0.0342,-0.3682,9.5878,-2.5759,0.2246,-1.8098,0.0874,-0.6124,9.3153,-1.3362,0.2039,-1.6579
215.7789,-2.7960,0.5443,-45.1055,3.2806,0.0000,0.0000,-321.7376,56.8046,-115.0418,1436,1563,0.9709,0.0390,-0.9715,9.8703,2.1569,0.5147,-1.7105,0.2143,-0.9212,9.4781,4.4042,1.0665,-2.0778
215.7973,-2.7791,0.5178,-45.1451,7.2424,0.0000,0.0000,-319.7945,56.4946,-113.7967,1437,1562,0.9661,0.1037,-1.0026,9.6405,6.7523,0.8124,-1.8632,0.1377,-1.0146,9.5667,7.7325,1.1657,-2.2534
215.8157,-2.7129,0.4978,-45.1914,8.0516,0.0000,0.0000,-312.1791,55.1982,-108.5811,1440,1559,0.9441,0.1180,-0.8614,9.8200,8.5844,1.3620,-2.1151,0.1018,-0.8183,9.4781,7.5187,1.5092,-2.7114
215.8342,-2.5637,0.4746,-45.2395,10.2462,0.0000,0.0000,-295.0101,52.2399,-95.4598,1447,1552,0.8780,0.1132,-0.6363,9.6405,10.1569,1.2551,-2.4663,0.0348,-0.6363,9.6050,10.3355,1.0894,-2.6274
215.8526,-2.3661,0.4328,-45.2943,10.9180,0.1032,2.2685,-278.7997,48.3106,-77.9216,1457,1542,0.7623,0.1396,-0.4520,9.8344,10.5844,0.4307,-2.7792,0.0252,-0.4496,9.8780,11.2516,0.3642,-3.1618
215.8710,-2.1334,0.3743,-45.3517,12.3455,2.7337,42.9535,-369.1993,43.6787,-75.0632,1458,1541,0.5995,0.2449,-0.3897,9.9445,11.9584,0.5757,-2.7563,0.0826,-0.1024,9.8923,12.7325,0.6161,-3.4671
215.8895,-1.8900,0.3649,-45.4106,11.6165,5.5661,55.0878,-376.1310,38.8284,-117.6579,1435,1564,0.9433,0.0151,-0.2293,9.8200,11.9508,0.6215,-3.0693,-0.0514,-0.1742,10.1174,11.2821,0.3795,-3.3526
215.9078,-1.6763,0.3407,-45.4738,10.0248,6.3598,35.1540,-294.1312,34.5713,-99.6424,1445,1554,1.0000,0.0414,-0.1886,9.9086,9.9890,0.1024,-3.2983,-0.0131,-0.1072,9.7295,10.0607,-0.1473,-3.6274
215.9263,-1.4865,0.2882,-45.5372,10.2615,6.9450,31.7509,-262.4917,30.7904,-88.8929,1451,1548,1.0000,0.1420,-0.2820,9.8392,10.2943,-0.3021,-3.3289,0.0276,-0.3394,9.8133,10.2287,-0.6053,-3.5969
215.9448,-1.3166,0.2204,-45.6034,9.6699,7.3537,22.1174,-215.1990,27.4060,-73.9587,1459,1540,1.0000,0.1899,-0.2963,9.8823,9.8821,-0.8823,-3.4739,0.2167,-0.3227,9.9953,9.4577,-0.7198,-3.7419
215.9632,-1.1714,0.1883,-45.6539,8.6546,7.5489,10.5811,-137.7175,24.5128,-50.8173,1472,1527,1.0000,0.0678,-0.2892,9.7171,8.8439,-0.5998,-1.6418,0.1928,-0.2964,9.8708,8.4653,-0.2083,-3.9709
215.9816,-1.0230,0.1432,-45.7227,8.1088,7.6329,4.5590,-109.0392,21.5561,-41.3090,1477,1522,1.0000,0.1539,-0.2054,9.8368,8.1111,-0.2334,-3.6418,0.2048,-0.1790,9.9666,8.1065,-0.1625,-3.8488
216.0000,-0.8493,0.1056,-45.7953,7.8226,7.6613,1.5454,-85.1513,18.0908,-32.8878,1481,1518,1.0000,0.0917,-0.0378,9.9445,7.9661,-0.4777,-3.9319,-0.0610,-0.0091,9.7678,7.6790,-0.8877,-4.0015
216.0185,-0.7052,0.0627,-45.8658,6.9142,7.5492,-6.0761,-53.0418,14.1115,-21.9074,1487,1512,1.0000,0.0725,-0.0713,9.8966,7.1722,-1.2258,-3.8861,-0.0179,0.0293,9.7463,6.6561,-1.2694,-3.8030
216.0369,-0.5583,0.0054,-45.9344,4.6890,7.1202,-23.2889,2.3553,11.1720,-4.9265,1497,1502,1.0000,0.1204,0.1586,9.8631,5.3706,-1.5769,-3.6953,-0.1209,0.2016,9.9426,4.0073,-1.6358,-3.8030
216.0553,-0.4993,-0.0178,-45.9817,1.0783,6.2139,-49.2990,70.4392,9.9910,14.7275,1508,1491,1.0000,-0.0184,0.0819,9.7578,1.7829,-1.4319,-1.6266,-0.0419,0.1681,9.9139,0.3737,-1.4755,-3.6427
216.0737,-0.5063,-0.0611,-46.0276,-0.3416,4.3749,-44.6343,58.5694,10.1318,4.9597,1502,1497,0.4376,0.1013,-0.0904,9.7602,-0.3927,-1.1876,-3.5350,-0.0993,0.0101,9.8038,-0.2904,-1.2541,-1.3755
216.0921,-0.5281,-0.1078,-46.0877,-1.5629,1.5059,-19.7909,-3.1425,10.5674,-0.0000,1500,1500,0.0000,0.0941,-0.0569,9.7482,-0.9652,-1.5769,-3.2831,0.0443,-0.0426,9.9737,-2.1606,-1.4908,-3.2763
216.1105,-0.5905,-0.1419,-46.1473,-3.0324,0.0158,-0.2991,-55.9087,11.8166,-0.0000,1500,1500,0.0000,0.0175,-0.1216,9.7865,-3.0263,-1.7602,-3.4586,0.0898,-0.1431,9.8780,-3.0385,-1.8801,-3.0473
216.1289,-0.6460,-0.1829,-46.2044,-1.2500,0.0000,-0.0000,-61.9465,12.9267,-0.0000,1500,1500,0.0000,0.0821,-0.2509,9.7937,-2.1026,-1.6533,-3.0693,0.1257,-0.1695,9.8253,-0.3973,-1.3381,-3.1770
216.1474,-0.7300,-0.1847,-46.2626,-2.8683,0.0000,-0.0000,-70.0017,14.6076,-0.0000,1500,1500,0.0000,-0.0496,-0.2604,9.8488,-2.7820,-0.9739,-3.1838,0.0396,-0.1168,9.6218,-2.9545,-0.9793,-3.1694
216.1658,-0.8358,-0.2215,-46.3229,-1.7652,0.0000,-0.0000,-96.1796,16.7252,-0.0000,1500,1500,0.0000,0.0725,-0.4687,9.8655,-2.3087,-1.3174,-3.1762,0.0180,-0.4424,9.5165,-1.2217,-1.6740,-3.4442
216.1843,-0.9292,-0.2751,-46.3662,0.0096,0.0000,-0.0000,-106.9242,18.5936,-0.0000,1500,1500,0.0000,0.1037,-0.5765,9.7650,-0.1942,-1.8212,-3.3441,0.1090,-0.5262,9.5260,0.2134,-2.3763,-1.4137
216.2027,-0.9975,-0.3401,-46.4307,0.8798,0.0000,-0.0000,-114.7849,19.9606,-0.0000,1500,1500,0.0000,0.1923,-0.5453,9.6860,0.6989,-2.0273,-3.4281,0.1545,-0.6028,9.7319,1.0607,-1.4602,-3.6808
216.2211,-1.0514,-0.3783,-46.4998,1.9294,0.0000,0.0000,-120.9878,21.0392,-0.0866,1499,1500,0.0020,0.2066,-0.5956,9.8512,1.6378,-0.5693,-3.7945,0.1090,-0.4089,9.6912,2.2210,-0.0404,-3.7953
216.2395,-1.0396,-0.3748,-46.5710,2.1966,0.0000,0.0000,-119.6237,20.8125,-0.0509,1499,1500,0.0012,0.0199,-0.3155,9.7075,2.1645,-0.0426,-3.9472,-0.0706,-0.1359,9.6481,2.2287,-0.5289,-3.8106
216.2581,-0.9745,-0.3634,-46.6450,2.5248,0.0000,0.0000,-112.1320,19.5201,-0.0000,1500,1500,0.0000,-0.0280,-0.0976,9.8535,2.4317,-0.6227,-3.8708,0.0491,-0.0593,9.7942,2.6180,-0.1244,-4.0931
216.2765,-0.8944,-0.3581,-46.7134,1.3874,0.0000,-0.0000,-102.9175,17.8969,-0.0000,1500,1500,0.0000,0.0510,0.0867,9.6572,1.9355,0.1788,-3.7563,-0.0083,-0.0737,9.9450,0.8394,0.2421,-3.6503
216.2949,-0.8439,-0.3603,-46.7810,-0.4255,0.0000,-0.0000,-97.1111,16.8872,-0.0000,1500,1500,0.0000,0.0534,0.1155,9.7602,-0.2477,-0.1647,-3.6953,0.0372,0.1011,9.9019,-0.6034,-0.1549,-3.6045
216.3135,-0.8178,-0.3471,-46.8301,-0.7156,0.0000,-0.0000,-94.0983,16.3633,-0.0000,1500,1500,0.0000,0.0510,0.0365,9.6788,-0.7210,0.3315,-1.6418,0.0874,0.0053,9.8373,-0.7103,0.9673,-3.6427
216.3320,-0.7777,-0.3144,-46.8982,0.5287,0.0000,-0.0000,-74.5778,15.5625,-0.0000,1500,1500,0.0000,0.0318,0.0005,9.9182,-0.4843,1.4536,-3.5426,0.0036,-0.0402,9.9522,1.5416,1.5169,-3.7724
216.3504,-0.7574,-0.2784,-46.9668,-0.4103,0.0000,-0.0000,-72.6321,15.1565,-0.0000,1500,1500,0.0000,-0.0472,-0.0042,10.0020,-0.3316,0.9192,-3.6724,-0.0419,-0.0737,10.0360,-0.4889,0.7459,-3.7343
216.3688,-0.7344,-0.2616,-47.0328,-0.3835,0.0000,-0.0000,-70.4180,14.6945,-0.0000,1500,1500,0.0000,0.0390,0.0101,9.9326,-0.5759,0.5834,-3.5044,0.0779,-0.0186,9.9235,-0.1912,1.1505,-3.6427
216.3872,-0.7108,-0.2321,-47.0983,0.1813,0.0000,-0.0000,-68.1632,14.2239,-0.0000,1500,1500,0.0000,0.0079,-0.0354,10.1289,0.1645,1.4231,-3.4052,0.0755,0.0293,10.0719,0.1981,1.0360,-3.6885
216.4056,-0.6854,-0.2012,-47.1776,-0.2194,0.0000,-0.0000,-65.7258,13.7153,-0.0000,1500,1500,0.0000,-0.0328,0.0149,10.0690,-0.1332,0.8811,-3.3594,0.0108,-0.0306,10.0480,-0.3057,0.9138,-5.2457
216.4240,-0.6860,-0.1743,-47.2212,-0.2423,0.0000,-0.0000,-65.7777,13.7261,-0.0000,1500,1500,0.0000,-0.0304,-0.1048,10.0642,-0.3469,0.8887,-3.2983,-0.0778,0.0245,10.0336,-0.1377,0.5627,-1.3831
216.4425,-0.6394,-0.1499,-47.2773,-0.0553,0.0000,-0.0000,-61.3118,12.7942,-0.0000,1500,1500,0.0000,-0.0376,0.1035,10.0762,0.0577,0.5452,-3.0006,0.0348,0.2184,10.0767,-0.1683,0.6543,-3.0702
216.4609,-0.5834,-0.1393,-47.3285,-0.8683,0.0000,-0.0000,-55.9423,11.6737,-0.0000,1500,1500,0.0000,0.0175,0.2304,10.0379,-0.8126,0.5681,-2.9548,0.0180,0.1609,10.0528,-0.9240,0.4405,-2.5434
216.4794,-0.5599,-0.1360,-47.3755,-0.5095,0.0000,-0.0000,-53.6929,11.2044,-0.0000,1500,1500,0.0000,0.0318,0.0556,9.8368,-0.6828,0.2169,-2.5960,0.2191,-0.0976,9.8181,-0.3362,0.4634,-2.4824
216.4978,-0.5184,-0.1254,-47.4203,0.1966,0.0000,0.0000,-49.7112,10.3735,-0.0000,1500,1500,0.0000,0.0271,0.0819,9.9948,0.2332,0.7360,-2.3899,0.2048,0.0556,9.9761,0.1600,0.6161,-2.4595
216.5162,-0.5076,-0.1210,-47.4578,0.4371,0.0000,0.0000,-48.6743,10.1571,-0.0000,1500,1500,0.0000,0.0462,-0.0785,10.0978,0.2638,0.6979,-2.1075,-0.0011,-0.0665,9.9785,0.6103,0.3337,-1.9480
216.5346,-0.4588,-0.1055,-47.4864,0.9447,0.0000,0.0000,-43.9927,9.1802,-0.0000,1500,1500,0.0000,-0.0448,0.0580,9.9421,0.8821,0.1024,-1.5655,-0.0155,0.1538,9.9761,1.0073,0.1047,-1.5358
216.5532,-0.3910,-0.0754,-47.5107,1.1737,0.0000,0.0000,-37.4910,7.8234,-0.0000,1500,1500,0.0000,-0.1286,0.1346,9.8559,0.9661,-0.0655,-1.4434,-0.0562,0.1131,9.8492,1.3813,-0.0556,-1.1694
216.5717,-0.3232,-0.0481,-47.5300,2.5325,0.0000,0.0000,-30.9962,6.4681,-0.0000,1500,1500,0.0000,-0.1381,0.0317,9.9757,2.1798,-0.2182,-1.0235,-0.1759,-0.0043,9.7822,2.8852,-0.3076,-1.0625
216.5901,-0.2703,0.0116,-47.5453,3.5096,0.0000,0.0000,-25.9234,5.4096,-0.0000,1500,1500,0.0000,-0.3249,-0.1144,10.0307,3.3477,-0.2640,-0.8785,-0.1735,-0.0138,9.8421,3.6714,-0.7961,-0.8030
216.6085,-0.1776,0.0631,-47.5541,3.9867,0.0000,0.0000,-17.0300,3.5537,-0.0000,1500,1500,0.0000,-0.3800,0.0460,9.8751,3.8974,-1.2563,-0.5426,-0.3220,-0.0091,9.8588,4.0760,-1.8877,-0.4366
216.6269,-0.0919,0.1025,-47.5616,4.7310,0.0000,0.0000,-8.8115,1.8387,-0.0000,1500,1500,0.0000,-0.3440,-0.0378,9.8224,4.5844,-1.7296,-0.2983,-0.2501,0.0077,9.6984,4.8775,-1.7198,-0.5358
216.6453,0.0112,0.1381,-47.5644,4.5592,0.0000,0.0000,1.0787,-0.2251,0.0000,1500,1500,0.0000,-0.3345,0.0700,9.6309,4.6378,-1.7754,-0.1380,-0.3100,0.1633,9.7415,4.4806,-1.8953,-0.1847
216.6638,0.1255,0.1350,-47.5718,4.6584,0.0000,0.0000,12.0327,-2.5109,0.0000,1500,1500,0.0000,-0.1549,0.1322,9.5854,3.8974,-1.8594,-0.3518,-0.2262,0.1490,9.7128,5.4195,-1.6587,-0.4595
216.6822,0.2067,0.1742,-47.5743,2.8951,0.0000,0.0000,19.8163,-4.1352,0.0000,1500,1500,0.0000,-0.2914,0.1490,9.6620,3.1111,-1.0273,-0.0617,-0.2382,0.1131,9.6410,2.6790,-1.0556,-0.2228
216.7006,0.2818,0.1990,-47.5779,2.8378,0.0000,0.0000,27.0223,-5.6389,0.0000,1500,1500,0.0000,-0.2339,0.1370,9.4633,2.1798,-1.0273,-0.1609,-0.3124,0.1825,9.5356,3.4958,-1.2923,-0.2305
216.7191,0.3155,0.2157,-47.5825,0.5172,0.0000,-0.0000,30.2547,-6.3134,0.0000,1500,1500,0.0000,-0.1597,0.1562,9.5638,0.7905,-0.8899,-0.1456,-0.0203,0.1609,9.5715,0.2439,-0.2694,-0.3602
216.7375,0.3253,0.2002,-47.5864,-0.1049,0.0000,-0.0000,31.1963,-6.5099,0.0000,1500,1500,0.0000,-0.0328,0.1035,9.3843,0.0653,-0.7296,-0.2144,-0.1304,0.1346,9.7678,-0.2752,-0.9411,-0.2076
216.7560,0.3159,0.1783,-47.5948,-1.7958,0.0000,-0.0000,30.2945,-6.3217,0.0000,1500,1500,0.0000,-0.0687,0.1610,9.5662,-1.4461,-1.5159,-0.5044,-0.0682,0.1585,9.7942,-2.1454,-1.6969,-0.3908
216.7745,0.2641,0.1377,-47.6071,-3.1431,0.0000,-0.0000,25.3230,-5.2843,0.0000,1500,1500,0.0000,0.0462,0.0795,9.5279,-3.0110,-1.2640,-0.5960,0.0563,0.1107,9.6338,-3.2752,-1.3076,-0.7266
216.7930,0.2016,0.1087,-47.6225,-3.7767,0.0000,-0.0000,19.3306,-4.0338,0.0000,1500,1500,0.0000,0.0271,0.0748,9.6931,-3.4461,-0.9663,-0.7792,0.0156,0.1466,9.5739,-4.1072,-1.0098,-0.8946
216.8114,0.1057,0.0785,-47.6382,-5.7347,0.0000,-0.0000,10.1315,-2.1142,0.0000,1500,1500,0.0000,0.0654,0.0724,9.4106,-5.1255,-0.9128,-0.8632,0.0156,0.1394,9.6793,-6.3439,-0.3381,-0.8488
216.8298,-0.0299,0.0612,-47.6592,-7.1355,0.0000,-0.0000,-2.8635,0.5975,-0.0000,1500,1500,0.0000,0.0414,0.0005,9.3651,-7.0645,-0.3937,-1.0998,-0.0706,-0.0186,9.5548,-7.2065,-0.1931,-1.1847
216.8482,-0.1797,0.0373,-47.6814,-6.8225,0.0000,-0.0000,-17.2329,3.5961,-0.0000,1500,1500,0.0000,0.1156,-0.1168,9.5998,-6.7668,-0.0655,-1.2754,-0.0514,-0.0881,9.4997,-6.8782,0.4329,-1.1312
216.8667,-0.3322,0.0220,-47.7069,-6.9599,-0.0275,-0.3141,-31.1055,6.6482,-0.0000,1500,1500,0.0000,0.0725,-0.1359,9.3651,-6.8431,0.0948,-1.4357,0.0467,-0.0761,9.5069,-7.0767,0.1810,-1.3297
216.8852,-0.4980,-0.0140,-47.7346,-7.1278,-0.5999,-5.1461,-35.3985,9.9641,-0.0000,1500,1500,0.0000,0.1252,-0.2125,9.5567,-7.1561,0.2093,-1.5579,0.0324,-0.1120,9.5476,-7.0996,-1.1015,-1.4518
216.9037,-0.6457,0.0019,-47.7648,-7.3950,-1.7334,-11.8425,-33.4937,12.9203,-0.0000,1500,1500,0.0000,0.0342,-0.1311,9.4250,-7.1255,1.2398,-1.5884,0.0874,-0.1335,9.6314,-7.6645,1.3108,-1.6656
216.9222,-0.8061,-0.0089,-47.7999,-7.1622,-2.9135,-14.2868,-51.6129,16.1304,-0.0000,1500,1500,0.0000,0.1324,-0.2341,9.6788,-7.3851,1.0108,-1.8403,-0.0227,-0.3347,9.4662,-6.9393,0.9367,-1.9633
216.9407,-0.9748,0.0001,-47.8385,-5.0286,-3.0436,-1.5296,-107.7604,19.5051,-0.0250,1499,1500,0.0006,0.0725,-0.4807,9.7003,-5.4767,1.1635,-1.9853,0.0539,-0.4568,9.5212,-4.5805,1.6008,-2.1923
216.9592,-1.1298,0.0130,-47.8821,-3.9179,-2.6681,3.9993,-141.5237,22.6074,-0.6157,1499,1500,0.0121,0.0725,-0.5382,9.5974,-4.0034,1.5986,-2.2983,0.0276,-0.4831,9.6074,-3.8324,1.5856,-2.3679
216.9776,-1.2545,0.0445,-47.9267,-2.2194,-1.6827,7.7622,-166.7151,25.1148,-2.6345,1498,1501,0.0445,-0.0184,-0.5741,9.7482,-2.8049,1.4994,-2.2983,-0.0227,-0.6004,9.4638,-1.6339,1.6619,-2.5053
216.9961,-1.3430,0.0862,-47.9758,1.1394,-0.2294,2.9082,-162.9155,26.8976,-4.6162,1497,1502,0.0782,-0.0496,-0.7249,9.8535,0.5615,1.7742,-2.5350,0.0252,-0.5789,9.5141,1.7172,1.9367,-2.7037
217.0146,-1.3420,0.1113,-48.0262,3.7348,0.0000,0.0000,-154.4185,26.8899,-4.4045,1497,1502,0.0777,0.0127,-0.5477,9.9254,3.3096,1.7284,-2.6266,0.0228,-0.5621,9.5332,4.1600,1.7535,-2.7572
217.0329,-1.2916,0.1137,-48.0814,5.9752,0.0000,0.0000,-148.6213,25.8952,-3.1409,1498,1501,0.0576,0.1109,-0.4998,9.7506,5.4241,1.5986,-2.8479,0.1976,-0.5262,9.5021,6.5264,1.9062,-3.0702
217.0514,-1.1975,0.1072,-48.1372,7.7768,0.0000,0.0000,-137.7956,24.0256,-1.3827,1499,1500,0.0273,0.1539,-0.4472,9.7123,7.5081,1.6902,-3.0006,0.0084,-0.2987,9.6457,8.0455,1.7535,-2.9633
217.0699,-1.0485,0.1197,-48.1905,8.9142,0.0000,0.0000,-120.6496,21.0560,-0.0769,1499,1500,0.0017,0.1132,-0.2820,9.9158,8.5004,2.2246,-2.7563,0.1473,-0.1958,9.7200,9.3279,2.2955,-2.9251
217.0884,-0.8397,0.1271,-48.2420,9.8798,0.0000,0.0000,-96.6272,16.8891,-0.0000,1500,1500,0.0000,0.1492,-0.0569,9.8488,9.7600,2.3925,-2.7563,0.0491,0.0436,9.8349,9.9997,2.4024,-2.7648
217.1068,-0.6153,0.1374,-48.2896,9.0134,0.5128,7.0451,-75.9134,12.3129,-0.0000,1500,1500,0.0000,0.0821,0.1274,9.9278,9.1416,1.9192,-2.4968,-0.0227,0.1921,10.0121,8.8852,1.5932,-2.6579
217.1252,-0.3902,0.1490,-48.3321,8.3989,1.9968,17.3552,-79.0717,7.8084,-0.0000,1500,1500,0.0000,0.0630,0.2256,9.8009,8.2790,1.6597,-2.3136,0.1114,0.1633,9.8804,8.5187,1.6848,-2.3144
217.1436,-0.1751,0.1538,-48.3695,7.9180,3.5048,20.2849,-65.4787,3.5047,-1.5150,1499,1500,0.0754,0.1013,0.2543,9.8847,8.2256,1.7818,-1.9701,-0.0826,0.2806,10.1773,7.6103,1.5932,-2.1007
217.1621,0.0327,0.1569,-48.4019,6.2768,4.0992,8.7194,-17.7909,-0.6543,-1.4166,1499,1500,0.3044,0.0917,0.4028,9.9445,6.5462,1.5834,-1.7716,0.1257,0.3716,10.0623,6.0073,1.4940,-1.7724
217.1805,0.2068,0.1707,-48.4273,5.2195,4.1362,0.5560,18.4977,-4.1385,2.3316,1501,1498,0.3217,0.0175,0.3740,9.9541,5.3019,1.2093,-1.3594,0.1281,0.3764,9.9594,5.1371,1.3642,-1.4442
217.1989,0.3600,0.2075,-48.4439,3.7653,3.5256,-8.0321,53.7995,-7.2040,1.5184,1500,1499,0.0813,-0.1956,0.4363,10.0978,4.4852,0.3009,-1.0693,-0.0179,0.3956,10.4430,3.0455,0.0054,-0.7572
217.2174,0.4890,0.1993,-48.4558,0.7729,1.7603,-13.8311,80.0813,-9.7841,0.0000,1500,1500,0.0000,0.1994,0.6063,9.9134,1.8134,1.7895,-0.6113,0.3388,0.1131,9.7702,-0.2675,2.8680,-0.7724
217.2358,0.5624,0.2428,-48.4635,2.7653,1.2110,-3.7507,62.9281,-11.2531,0.0000,1500,1500,0.0000,-0.1453,0.1921,10.0379,2.9432,1.8505,-0.4586,-0.1592,0.2232,10.1677,2.5874,0.2650,-0.4137
217.2542,0.6405,0.2477,-48.4623,-0.7805,0.1284,-1.5172,65.0557,-12.8156,0.0000,1500,1500,0.0000,-0.1070,0.5249,9.7793,0.1493,-0.4014,0.1063,-0.0323,0.3621,10.3065,-1.7103,-0.5671,-0.0167
217.2726,0.6467,0.2213,-48.4603,-2.0973,0.0000,-0.0000,62.0168,-12.9413,0.0000,1500,1500,0.0000,0.1204,0.3285,10.0044,-2.4003,0.2093,0.0070,0.0970,0.2064,9.8923,-1.7942,0.7001,0.1894
217.2910,0.6274,0.2104,-48.4575,-1.1889,0.0000,-0.0000,60.1639,-12.5547,0.0000,1500,1500,0.0000,0.0342,0.1226,9.9828,-0.9423,0.4460,0.1292,-0.0131,0.1729,10.0504,-1.4355,-0.0022,0.1741
217.3096,0.5868,0.1856,-48.4526,-2.7919,0.0000,-0.0000,56.2669,-11.7415,0.0000,1500,1500,0.0000,0.0534,0.1562,9.7554,-2.5225,-0.2640,0.2055,0.0922,0.1921,10.1653,-3.0614,-0.2923,0.3268
217.3281,0.5143,0.1559,-48.4462,-2.4255,0.0000,-0.0000,49.3178,-10.2914,0.0000,1500,1500,0.0000,0.1180,-0.0258,9.9900,-2.8584,0.1330,0.3505,0.0419,-0.0354,9.9546,-1.9927,0.0741,0.3421
217.3465,0.4483,0.1379,-48.4405,-1.5400,0.0000,-0.0000,42.9862,-8.9701,0.0000,1500,1500,0.0000,0.0127,-0.0904,9.9373,-1.5301,-0.5846,0.3734,0.0300,0.0317,9.9833,-1.5500,-0.4297,0.2657
217.3649,0.4119,0.1230,-48.4344,-2.5820,0.0000,-0.0000,39.5008,-8.2428,0.0000,1500,1500,0.0000,-0.0065,0.1322,9.8535,-2.4690,-0.5464,0.2589,0.0228,-0.0330,9.9642,-2.6950,-0.6663,0.4108
217.3833,0.3700,0.0783,-48.4272,-2.0400,0.0000,-0.0000,35.4787,-7.4035,0.0000,1500,1500,0.0000,0.1300,0.0508,9.8535,-2.1332,-0.5464,0.5719,0.2167,0.0364,9.8038,-1.9469,-0.7579,0.2047
217.4017,0.3264,0.0438,-48.4216,-1.4141,0.0000,-0.0000,31.2990,-6.5313,0.0000,1500,1500,0.0000,0.0678,-0.0162,9.7578,-2.4003,-0.7983,0.3887,0.0036,0.0652,9.6769,-0.4278,-1.0862,0.2276
217.4202,0.2774,-0.0045,-48.4124,-2.1927,0.0000,-0.0000,26.6001,-5.5508,0.0000,1500,1500,0.0000,0.0893,0.0197,9.9302,-2.3774,-1.5617,0.4345,0.2191,-0.0713,9.7367,-2.0080,-1.3457,0.5711
217.4387,0.2064,-0.0261,-48.4069,-2.4561,0.0000,-0.0000,19.7930,-4.1303,0.0000,1500,1500,0.0000,0.0869,-0.0737,9.8703,-2.3545,-0.1342,0.3734,0.1473,0.0029,9.7152,-2.5576,-0.1702,0.2199
217.4571,0.1283,-0.0337,-48.4060,-2.1851,0.0000,-0.0000,12.2983,-2.5663,0.0000,1500,1500,0.0000,-0.0256,-0.1431,9.8751,-2.3927,-0.6533,0.0605,0.0300,-0.0186,9.7248,-1.9774,-0.8648,0.0367
217.4756,0.0506,-0.0533,-48.4067,-3.0286,0.0000,-0.0000,4.8546,-1.0130,0.0000,1500,1500,0.0000,0.0127,-0.0857,9.7913,-1.8507,-0.9892,0.0681,-0.0011,-0.0138,9.9714,-4.2065,-0.9793,-0.1618
217.4940,-0.0075,-0.0842,-48.4086,-2.6889,0.0000,-0.0000,-0.7228,0.1508,-0.0000,1500,1500,0.0000,0.0654,-0.0282,9.7961,-2.6675,-1.0731,-0.0235,0.0300,-0.1599,9.7678,-2.7103,-0.9717,-0.1923
217.5125,-0.1165,-0.0943,-48.4129,-3.1431,0.0000,-0.0000,-11.1674,2.3304,-0.0000,1500,1500,0.0000,-0.0280,-0.2365,9.9110,-4.1942,-0.9052,-0.2678,-0.1017,-0.1575,9.8109,-2.0919,-1.2160,-0.2076
217.5309,-0.1964,-0.1352,-48.4217,-1.5553,0.0000,0.0000,-18.8311,3.9296,-0.0000,1500,1500,0.0000,0.0294,-0.2604,9.8631,-1.6828,-1.2029,-0.4281,-0.0155,-0.2173,9.8109,-1.4278,-3.0709,-0.5663
217.5493,-0.2620,-0.1488,-48.4387,-1.1813,0.0000,0.0000,-25.1227,5.2425,-0.0000,1500,1500,0.0000,-0.0232,-0.2389,9.8751,-1.1179,-1.1266,-0.8174,-0.0251,-0.2724,9.8923,-1.2446,-1.4450,-1.0549
217.5678,-0.3277,-0.1735,-48.4585,-1.6202,0.0000,0.0000,-31.4234,6.5573,-0.0000,1500,1500,0.0000,-0.0017,-0.2173,9.9373,-0.9271,-1.5693,-0.9395,-0.0275,-0.2676,9.7870,-2.3133,-1.7579,-1.2686
217.5862,-0.3783,-0.2295,-48.4814,0.4103,0.0000,0.0000,-36.2710,7.5688,-0.0000,1500,1500,0.0000,0.1611,-0.3275,9.8296,0.1111,-1.6991,-1.1075,-0.0419,-0.2628,9.8804,0.7096,-1.3839,-1.4366
217.6046,-0.3995,-0.2577,-48.5086,0.7958,0.0000,0.0000,-38.3116,7.9947,-0.0000,1500,1500,0.0000,0.0558,-0.2341,9.8559,0.8745,-1.3327,-1.3670,0.0036,-0.2102,9.7894,0.7172,-1.3534,-1.6350
217.6231,-0.4162,-0.2883,-48.5378,0.8378,0.0000,0.0000,-39.9121,8.3286,-0.0000,1500,1500,0.0000,0.0702,-0.2197,9.7985,0.8592,-1.3632,-1.5426,0.0108,-0.1431,9.7104,0.8165,-1.3534,-1.6656
217.6415,-0.4236,-0.3153,-48.5717,1.0058,0.0000,0.0000,-40.6152,8.4754,-0.0000,1500,1500,0.0000,0.0606,-0.1934,9.8128,0.9584,-1.2563,-1.8861,0.0180,-0.1312,9.8205,1.0531,-1.4144,-1.8259
217.6599,-0.4026,-0.3204,-48.6089,1.2386,0.0000,0.0000,-38.6063,8.0562,-0.0000,1500,1500,0.0000,-0.0328,-0.0809,9.8081,1.2027,-1.2640,-2.1075,-0.0011,-0.1335,9.8540,1.2745,-1.2770,-1.9480
217.6783,-0.3800,-0.3317,-48.6445,0.8645,0.0000,0.0000,-36.4373,7.6035,-0.0000,1500,1500,0.0000,-0.0687,-0.0402,9.7290,0.9737,-1.1800,-1.8861,-0.2190,0.0149,9.8157,0.7554,-3.1167,-2.0167
217.6967,-0.3645,-0.3784,-48.6833,0.5516,0.0000,0.0000,-34.9514,7.2935,-0.0000,1500,1500,0.0000,0.1492,-0.0402,9.6955,0.5310,-1.5006,-2.0846,-0.0323,-0.0713,9.6817,0.5722,-1.4297,-2.1465
217.7151,-0.3832,-0.3996,-48.7229,0.7882,0.0000,0.0000,-36.7498,7.6688,-0.0000,1500,1500,0.0000,0.0486,-0.2173,9.6548,0.6760,-1.4014,-2.1685,0.0922,-0.0689,9.6912,0.9004,-1.2007,-2.1770
217.7336,-0.3683,-0.4108,-48.7645,1.0363,0.0000,0.0000,-35.3132,7.3690,-0.0000,1500,1500,0.0000,0.0390,-0.0857,9.6836,1.0958,-0.9357,-2.2602,0.0515,-0.0689,9.6457,0.9768,-0.9106,-2.2686
217.7521,-0.3549,-0.4339,-48.8065,0.7386,0.0000,0.0000,-34.0286,7.1009,-0.0000,1500,1500,0.0000,0.0797,-0.0641,9.6788,0.6913,-1.0273,-2.2678,-0.0011,-0.0952,9.6074,0.7859,-1.2465,-2.2763
217.7706,-0.3203,-0.4556,-48.8490,1.0325,0.0000,0.0000,-30.7137,6.4092,-0.0000,1500,1500,0.0000,0.0462,0.0101,9.7123,1.0653,-1.4624,-2.2907,0.0467,-0.0282,9.7391,0.9997,-1.5060,-2.3144
217.7890,-0.2921,-0.4842,-48.8897,0.7386,0.0000,0.0000,-28.0116,5.8453,-0.0000,1500,1500,0.0000,0.0893,0.0101,9.7865,0.7981,-1.4395,-2.2907,0.0491,0.0484,9.6793,0.6790,-1.3839,-2.1160
217.8075,-0.2847,-0.5173,-48.9298,0.3264,0.0000,-0.0000,-27.3002,5.6969,-0.0000,1500,1500,0.0000,0.1348,-0.0450,9.6453,0.3935,-1.3174,-2.1685,0.1138,-0.0282,9.6146,0.2592,-0.9793,-2.2076
217.8258,-0.2794,-0.5729,-48.9701,-0.0324,0.0000,-0.0000,-26.7949,5.5914,-0.0000,1500,1500,0.0000,0.2856,-0.0234,9.7602,0.0653,-0.8060,-2.1838,0.0922,-0.0282,9.7343,-0.1301,-0.6816,-2.1999
217.8443,-0.2672,-0.5794,-49.0104,-0.4217,0.0000,-0.0000,-25.6244,5.3472,-0.0000,1500,1500,0.0000,0.0749,0.0412,9.6860,-0.1561,-0.6227,-2.1991,0.0372,0.0412,9.7319,-0.6874,-0.5900,-2.1465
217.8628,-0.2706,-0.5702,-49.0506,-1.2423,0.0000,-0.0000,-25.9435,5.4138,-0.0000,1500,1500,0.0000,-0.0208,0.0412,9.7003,-0.9958,-0.8747,-2.2525,0.0372,0.0676,9.6553,-1.4889,-0.8877,-2.0778
217.8812,-0.2951,-0.5969,-49.0886,-1.8912,0.0000,-0.0000,-28.2936,5.9042,-0.0000,1500,1500,0.0000,0.0725,-0.0042,9.6740,-1.8355,-2.6533,-2.0159,0.0300,0.1849,9.7415,-1.9469,-0.7350,-2.1236
217.8996,-0.3514,-0.6080,-49.1261,-3.2500,0.0000,-0.0000,-33.6976,7.0318,-0.0000,1500,1500,0.0000,0.1061,-0.0402,9.7123,-2.3774,-0.5769,-2.1075,0.0803,0.0149,9.6960,-4.1225,-0.4984,-1.9785
217.9181,-0.3981,-0.6307,-49.1633,-2.5248,0.0000,-0.0000,-38.1745,7.9661,-0.0000,1500,1500,0.0000,0.1444,-0.0617,9.6189,-2.4385,-0.6456,-2.0388,0.0922,-0.0210,9.7367,-2.6110,-0.8114,-1.9862
217.9366,-0.4656,-0.6495,-49.2034,-3.2996,0.0000,-0.0000,-44.6422,9.3157,-0.0000,1500,1500,0.0000,0.1420,-0.1000,9.6069,-3.1255,-0.7296,-2.1915,0.1090,-0.0162,9.8923,-3.4736,-0.3992,-2.1541
217.9551,-0.5341,-0.6725,-49.2434,-3.2003,0.0000,-0.0000,-51.2118,10.6866,-0.0000,1500,1500,0.0000,0.2186,-0.1240,9.7482,-3.3011,-0.1647,-2.2678,0.2000,-0.1479,9.6817,-3.0996,0.2573,-2.0778
217.9735,-0.5819,-0.7163,-49.2829,-2.0744,0.0000,-0.0000,-55.8000,11.6440,-0.0000,1500,1500,0.0000,0.3072,-0.1383,9.8631,-2.1484,0.7437,-2.2296,0.1976,-0.1551,9.6266,-2.0003,-1.1396,-2.0625
217.9919,-0.6301,-0.7303,-49.3222,-2.0057,0.0000,-0.0000,-60.4197,12.6081,-0.0000,1500,1500,0.0000,0.2090,-0.1551,9.7937,-1.8660,0.2246,-2.1533,0.1569,-0.1216,9.8804,-2.1454,0.3031,-2.1236
218.0103,-0.6486,-0.7332,-49.3628,-1.3530,0.0000,0.0000,-62.1992,12.9794,-0.0000,1500,1500,0.0000,0.1444,-0.0761,9.7099,-2.2095,0.2017,-2.2373,0.1353,-0.1168,9.8085,-0.4965,0.0054,-2.1618
218.0287,-0.7182,-0.6949,-49.4022,-2.6965,0.0000,-0.0000,-68.8689,14.3712,-0.0000,1500,1500,0.0000,0.0247,-0.2102,9.8128,-2.6599,0.5757,-2.1075,0.1138,-0.0258,9.7487,-2.7332,1.3642,-2.1923
218.0472,-0.7576,-0.6633,-49.4452,-2.0171,0.0000,-0.0000,-72.6445,15.1591,-0.0000,1500,1500,0.0000,0.0462,-0.1359,9.9349,-1.9881,1.1482,-2.2220,0.0803,-0.2078,9.8445,-2.0461,0.6161,-2.4289
218.0656,-0.7876,-0.6643,-49.4897,-2.1698,0.0000,-0.0000,-75.5257,15.7603,-0.0000,1500,1500,0.0000,0.1563,-0.0880,9.9349,-1.9423,0.3620,-2.4434,0.1401,-0.1000,10.0528,-2.3973,0.5550,-2.3679
218.0840,-0.8243,-0.6619,-49.5329,-1.7232,0.0000,0.0000,-94.8461,16.4933,-0.0000,1500,1500,0.0000,0.1611,-0.1623,9.9469,-1.8278,0.6368,-2.3670,0.1281,-0.1335,9.8516,-1.6187,0.7306,-2.3068
218.1026,-0.8627,-0.6390,-49.5785,-1.5019,0.0000,0.0000,-99.2691,17.2624,-0.0000,1500,1500,0.0000,0.0941,-0.1934,9.8655,-1.6065,1.0337,-2.4663,0.0372,-0.1599,9.9019,-1.3973,1.0207,-2.4289
218.1211,-0.8862,-0.6113,-49.6273,-0.5706,0.0000,0.0000,-101.9786,17.7336,-0.0000,1500,1500,0.0000,0.0821,-0.2125,10.0187,-0.7133,1.0490,-2.4892,0.1928,-0.2987,9.8876,-0.4278,1.4253,-2.7877
218.1395,-0.9020,-0.5946,-49.6770,-0.2843,0.0000,0.0000,-103.7867,18.0480,-0.0000,1500,1500,0.0000,0.1396,-0.2078,10.0116,-0.1942,1.4231,-2.7487,0.0659,-0.1886,9.9690,-0.3744,1.1734,-2.6045
218.1579,-0.9047,-0.5745,-49.7277,0.1852,0.0000,0.0000,-104.1012,18.1027,-0.0000,1500,1500,0.0000,0.0678,-0.1886,10.0235,0.0348,0.7895,-2.7182,0.0803,-0.2006,9.9402,0.3355,0.6543,-2.7801
218.1763,-0.8952,-0.5474,-49.7803,0.8264,0.0000,0.0000,-103.0049,17.9121,-0.0000,1500,1500,0.0000,0.0294,-0.1886,10.0666,0.8058,0.6521,-2.9014,0.0300,-0.1766,9.9426,0.8470,0.7535,-2.8030
218.1948,-0.8675,-0.5261,-49.8328,1.1203,0.0000,0.0000,-99.8258,17.3593,-0.0000,1500,1500,0.0000,0.0558,-0.1264,9.9469,1.1187,0.7666,-2.7411,-0.0131,-0.0545,9.9857,1.1218,0.6924,-2.9327
218.2138,-0.8249,-0.4822,-49.8862,0.6890,0.0000,0.0000,-94.9257,16.5071,-0.0000,1500,1500,0.0000,-0.0759,-0.0186,9.9373,0.7065,0.5528,-2.8250,-0.0658,-0.0138,9.9139,0.6714,0.2802,-2.7419
218.2327,-0.7856,-0.4582,-49.9400,0.3455,0.0000,0.0000,-75.3282,15.7191,-0.0000,1500,1500,0.0000,-0.0280,0.0053,10.0523,0.3554,0.1864,-2.8174,0.0372,0.0317,10.1605,0.3355,-0.1244,-2.8488
218.2522,-0.7222,-0.4270,-49.9924,-0.0400,0.0000,0.0000,-69.2551,14.4518,-0.0000,1500,1500,0.0000,-0.0831,0.1514,10.0283,0.1569,-0.1342,-2.5960,-0.0107,0.0077,10.1389,-0.2370,-0.2923,-2.7419
218.2707,-0.6978,-0.4004,-50.0371,-0.8606,0.0000,-0.0000,-66.9157,13.9636,-0.0000,1500,1500,0.0000,-0.0950,0.0604,9.9349,-0.5988,-0.3861,-2.4357,0.0563,0.1346,9.9330,-1.1225,-0.5060,-2.3831
218.2891,-0.6825,-0.3717,-50.0840,-2.2996,0.0000,-0.0000,-65.4427,13.6562,-0.0000,1500,1500,0.0000,-0.1429,0.1490,9.9230,-1.8507,-0.8136,-2.5808,-0.1520,0.1202,10.1318,-2.7484,-0.9182,-2.4976
218.3076,-0.6960,-0.3510,-50.1304,-3.3034,0.0000,-0.0000,-66.7440,13.9278,-0.0000,1500,1500,0.0000,-0.1214,0.1035,10.0164,-3.3087,-1.0579,-2.5426,-0.0442,0.1250,9.9522,-3.2981,-0.8572,-2.4671
218.3260,-0.7245,-0.3442,-50.1727,-3.2309,0.0000,-0.0000,-69.4739,14.4974,-0.0000,1500,1500,0.0000,-0.0567,0.0221,10.0211,-3.2019,-0.9434,-2.2525,-0.0419,0.1418,9.9929,-3.2599,-0.9640,-2.3373
218.3444,-0.7602,-0.3407,-50.2111,-3.5477,0.0000,-0.0000,-72.8987,15.2121,-0.0000,1500,1500,0.0000,-0.1022,0.0125,9.9421,-3.2629,-1.5617,-2.1151,-0.0490,-0.0258,10.1485,-3.8324,-1.7121,-2.0931
218.3628,-0.8229,-0.3349,-50.2478,-3.9637,0.0000,-0.0000,-94.6939,16.4668,-0.0000,1500,1500,0.0000,-0.1238,-0.0857,9.9110,-3.8736,-1.8518,-2.1227,-0.0203,-0.0234,9.9354,-4.0538,-1.6282,-1.8946
218.3812,-0.8789,-0.3534,-50.2841,-3.3110,0.0000,-0.0000,-101.1377,17.5874,-0.0000,1500,1500,0.0000,0.0175,-0.1192,9.9158,-3.3240,-1.4472,-1.8937,-0.0179,-0.1455,9.8181,-3.2981,-1.4526,-2.0931
218.3997,-0.9023,-0.3419,-50.3177,-3.1507,0.0000,-0.0000,-103.8291,18.0554,-0.0000,1500,1500,0.0000,-0.1142,0.0125,9.9158,-3.1332,-1.2334,-1.8708,-0.0203,-0.1240,9.8397,-3.1683,-1.4755,-1.7877
218.4181,-0.9677,-0.3468,-50.3521,-2.9866,0.0000,-0.0000,-111.3570,19.3645,-0.0000,1500,1500,0.0000,-0.0591,-0.2006,9.6405,-3.0034,-1.7602,-1.9472,-0.0706,-0.2006,9.6577,-2.9698,-1.4908,-1.8488
218.4365,-1.0176,-0.3542,-50.3859,-2.4981,0.0000,-0.0000,-117.0986,20.3629,-0.0100,1499,1500,0.0002,-0.0543,-0.1838,9.7626,-2.7210,-1.7754,-1.7105,-0.0227,-0.1647,9.5476,-2.2752,-1.6053,-2.0244
218.4550,-1.0897,-0.3414,-50.4179,-2.2690,0.0000,0.0000,-125.3906,21.8150,-0.2694,1499,1500,0.0059,-0.1525,-0.3155,9.7506,-2.3011,-1.4853,-1.7945,-0.0227,-0.1910,9.4710,-2.2370,-2.0022,-1.7572
218.4734,-1.1659,-0.3446,-50.4509,-2.3492,0.0000,0.0000,-134.1580,23.3505,-0.9601,1499,1500,0.0195,-0.0855,-0.3346,9.4992,-2.3545,-2.1342,-1.7640,-0.2262,-0.1048,9.4997,-2.3439,-1.6358,-1.9175
218.4919,-1.2030,-0.3503,-50.4830,-1.9561,0.0000,0.0000,-138.4287,24.1048,-1.4642,1499,1500,0.0288,0.0031,-0.1982,9.5567,-1.8965,-1.0044,-1.7182,-0.0323,-0.2820,9.5763,-2.0156,-0.8572,-1.7953
218.5103,-1.2408,-0.3522,-50.5164,-1.1087,0.0000,0.0000,-142.7765,24.8729,-2.0962,1498,1501,0.0400,-0.0543,-0.2772,9.5543,-1.3622,-1.4014,-1.8785,-0.0466,-0.3730,9.3273,-0.8553,-1.4297,-1.8030
218.5288,-1.2902,-0.3471,-50.5471,-0.5744,0.0000,0.0000,-148.4636,25.8743,-3.1099,1498,1501,0.0571,-0.0328,-0.3873,9.6189,-0.4614,-0.8441,-1.6571,-0.0754,-0.3347,9.5021,-0.6874,-0.7274,-1.7419
218.5472,-1.3329,-0.3205,-50.5785,-1.3072,0.0000,0.0000,-153.3759,26.7414,-4.1614,1497,1502,0.0739,-0.1405,-0.3011,9.5830,-1.2400,-0.9510,-1.7487,-0.0873,-0.2987,9.6338,-1.3744,-0.8114,-1.7114
218.5657,-1.3823,-0.3133,-50.6110,-1.4446,0.0000,0.0000,-159.0615,27.7434,-5.5868,1496,1503,0.0957,-0.0328,-0.3346,9.7386,-0.5835,-0.6456,-1.7029,0.0204,-0.2940,9.5763,-2.3057,-0.5137,-1.8640
218.5841,-1.3956,-0.3124,-50.6443,-0.1202,0.0000,0.0000,-160.5878,28.0226,-6.0087,1496,1503,0.1019,0.0510,-0.2820,9.6548,-0.0110,1.1482,-1.7716,-0.0131,-0.4041,9.6194,-0.2294,-1.0633,-1.8488
218.6025,-1.4524,-0.3034,-50.6768,-0.7958,0.0000,0.0000,-167.1258,29.1735,-8.0009,1495,1504,0.1303,-0.0304,-0.4208,9.3675,-0.6217,-0.8212,-1.7792,-0.0107,-0.2078,9.5236,-0.9698,-0.0862,-1.7953
218.6210,-1.4729,-0.2755,-50.6909,-0.8416,0.0000,0.0000,-169.4818,29.5977,-8.7944,1495,1504,0.1413,-0.0615,-0.2652,9.5758,-0.9271,0.2322,0.2895,-0.1831,-0.2820,9.7128,-0.7561,0.0894,-1.8106
218.6395,-1.5149,-0.2201,-50.7214,-0.8110,0.0000,0.0000,-174.3212,30.4540,-10.5485,1494,1505,0.1647,-0.2291,-0.3706,9.5399,-0.7210,-0.3250,-1.7105,-0.2094,-0.2509,9.7080,-0.9011,-0.1778,-1.6274
218.6580,-1.5284,-0.1877,-50.7506,-1.2080,0.0000,0.0000,-175.8771,30.7397,-11.1492,1493,1506,0.1725,-0.0927,-0.2125,9.4968,-1.1026,0.0643,-1.4968,-0.0682,-0.1886,9.6362,-1.3133,0.4100,-1.6350
218.6764,-1.5428,-0.1489,-50.7621,-1.6316,0.0000,-0.0000,-177.5238,31.0413,-11.8038,1493,1506,0.1810,-0.0807,-0.1838,9.5567,-1.4232,0.6444,0.3276,-0.0538,-0.1790,9.5524,-1.8400,0.9291,-1.5129
218.6948,-1.5824,-0.1160,-50.8061,-3.1240,0.0000,-0.0000,-182.0828,31.8495,-13.7154,1492,1507,0.2050,-0.0208,-0.1766,9.5782,-1.9729,1.1406,-1.3976,-0.1496,-0.1934,9.6146,-4.2752,1.4100,-3.3068
218.7133,-1.6243,-0.0534,-50.8310,-2.3416,0.0000,-0.0000,-186.9077,32.7044,-15.8997,1491,1508,0.2315,-0.1358,-0.2580,9.5231,-2.3698,1.4231,-1.3441,-0.1089,-0.2293,9.6960,-2.3133,1.7153,-1.2686
218.7317,-1.6306,0.0010,-50.8497,-2.5706,0.0000,-0.0000,-187.6350,32.8471,-16.2449,1491,1508,0.2356,-0.1142,-0.0833,9.7099,-2.3698,1.5834,-1.0769,0.0539,-0.2461,9.6817,-2.7713,1.5474,-0.8640
218.7502,-1.6512,0.0483,-50.8658,-3.5706,0.0000,-0.0000,-189.9982,33.2743,-17.3880,1490,1509,0.2490,-0.0831,-0.0689,9.5926,-3.3087,1.6597,-0.9243,-0.0849,0.0197,9.7846,-3.8324,1.5321,-0.7266
218.7686,-1.6839,0.1096,-50.8789,-4.3759,0.0000,-0.0000,-193.7694,33.9466,-19.2917,1489,1510,0.2708,-0.1214,-0.0593,9.6716,-4.2553,1.8734,-0.8021,-0.1065,-0.0450,9.7128,-4.4965,2.1199,-0.5053
218.7871,-1.7200,0.1740,-50.8852,-4.8530,0.0000,-0.0000,-197.9222,34.6856,-21.5010,1488,1511,0.2955,-0.1022,-0.0402,9.6812,-4.5912,2.4307,-0.3365,-0.0897,-0.0282,9.7391,-5.1148,2.6085,-0.2076
218.8055,-1.7605,0.2351,-50.8867,-5.7309,-0.0557,-0.4120,-201.3993,35.5138,-24.0126,1486,1513,0.3238,-0.1286,0.0077,9.6668,-5.4461,2.3315,-0.0693,-0.2142,0.0029,9.7655,-6.0156,1.9062,0.0062
218.8240,-1.8204,0.2775,-50.8834,-6.4790,-0.5403,-3.8271,-198.4493,36.7287,-27.1129,1485,1514,0.3667,-0.0879,-0.0234,9.7243,-6.2706,1.6521,0.0986,-0.0442,-0.0521,9.7774,-6.6874,1.8222,0.3497
218.8424,-1.8955,0.3113,-50.8735,-6.6889,-1.3977,-8.1066,-194.7627,38.2491,-31.0747,1482,1517,0.4219,-0.0304,-0.0857,9.6237,-6.6370,1.7895,0.5032,0.0060,-0.1192,9.6601,-6.7408,2.2497,0.6779
218.8608,-1.9634,0.3356,-50.8581,-6.3835,-2.2452,-9.0300,-199.9200,39.6273,-35.8151,1480,1519,0.4725,0.0342,-0.0928,9.7027,-6.3622,2.3620,0.8467,0.0587,-0.1312,9.6793,-6.4049,2.2802,0.9527
218.8792,-2.0392,0.3711,-50.8397,-6.2996,-3.0174,-9.2798,-207.9267,41.1643,-41.7173,1477,1522,0.5294,-0.0136,-0.1479,9.6931,-6.2019,2.3925,0.9536,-0.0155,-0.1551,9.7559,-6.3973,2.4100,1.1818
218.8978,-2.1607,0.4070,-50.8152,-6.1087,-3.6132,-7.8669,-225.9715,43.6150,-52.7037,1471,1528,0.6195,-0.0496,-0.3897,9.8799,-6.1179,2.0261,1.3353,-0.0035,-0.3730,9.8780,-6.0996,2.0970,1.4566
218.9162,-2.2458,0.4114,-50.7903,-5.3950,-3.8023,-2.6124,-250.8981,45.3396,-63.2442,1465,1534,0.6806,0.0869,-0.3059,9.7602,-5.5912,2.1101,1.3276,0.0659,-0.1024,9.6912,-5.1988,1.9138,1.5176
218.9347,-2.3263,0.4205,-50.7598,-4.8263,-3.7104,1.2456,-271.2770,46.9736,-73.1960,1459,1540,0.7360,0.0294,-0.3442,9.7243,-4.8507,1.6597,1.6864,0.0707,-0.2437,9.6984,-4.8019,1.5474,1.7314
218.9532,-2.3659,0.3970,-50.7269,-3.4637,-3.0263,7.9247,-295.0714,47.7896,-81.1853,1455,1544,0.7622,0.2282,-0.2844,9.8488,-4.5377,1.8734,1.7933,0.1281,-0.3275,9.6003,-2.3897,2.3871,1.9298
218.9716,-2.4083,0.4211,-50.6956,-3.1240,-2.3173,6.8814,-296.9424,48.6611,-84.8196,1453,1546,0.7892,-0.0136,-0.3203,9.5902,-3.1942,2.1253,1.7627,-0.0442,-0.7369,9.7583,-3.0538,1.5856,1.7848
218.9901,-2.4935,0.3971,-50.6617,-3.3759,-1.8552,3.9605,-298.3343,50.3900,-91.3403,1449,1550,0.8401,0.1707,-0.5262,9.8152,-3.2019,1.1482,1.8315,0.1449,-0.1623,9.9187,-3.5500,1.7688,1.9680
219.0087,-2.5216,0.3784,-50.6270,-3.6584,-1.5939,2.1087,-296.2376,50.9777,-92.7919,1448,1551,0.8557,0.2066,-0.2365,9.7051,-3.4843,2.0872,1.8391,0.0994,-0.5549,9.8900,-3.8324,2.1428,2.0673
219.0271,-2.5577,0.3826,-50.5885,-2.0820,-0.8858,3.9814,-305.7857,51.7253,-97.5388,1446,1553,0.8749,0.0486,-0.4496,10.3851,-2.5148,1.5605,2.1673,0.0084,-0.2820,9.9163,-1.6492,1.2650,2.1360
219.0455,-2.5516,0.3698,-50.5497,-1.9675,-0.4127,1.8135,-298.8346,51.6279,-95.4438,1447,1552,0.8717,0.1420,-0.2509,10.1385,-1.6217,1.4536,2.1902,-0.0035,-0.2580,10.0815,-2.3133,1.6390,2.1360
219.0639,-2.5518,0.3789,-50.5079,-1.8377,-0.1343,0.5833,-295.3218,51.6587,-94.6148,1447,1552,0.8719,0.0654,-0.2892,9.9469,-1.9500,3.1024,2.4345,-0.0155,-0.1288,9.9330,-1.7255,0.6085,2.2581
219.0823,-2.5510,0.3448,-50.4631,-1.5668,-0.0085,0.0402,-293.6620,51.6675,-94.1664,1448,1551,0.8714,0.1516,-0.3059,10.0331,-1.7439,0.4918,2.4345,0.1784,-0.3562,10.0839,-1.3897,0.5779,2.4566
219.1008,-2.5403,0.3043,-50.4188,-1.4370,0.0000,0.0000,-292.3094,51.4780,-93.1447,1448,1551,0.8658,0.2425,-0.2772,10.2103,-1.1790,1.0490,2.3811,0.1138,-0.2293,10.0408,-1.6950,1.1123,2.5024
219.1192,-2.5565,0.3023,-50.3686,-3.4866,0.0000,-0.0000,-294.1784,51.8284,-94.6719,1447,1552,0.8743,0.0127,-0.2125,9.9158,-3.0263,0.6521,2.6940,0.1018,-0.3993,10.2587,-3.9469,0.4329,2.7695
219.1376,-2.6020,0.2812,-50.3132,-3.6126,-0.0017,-0.0030,-299.4024,52.7639,-98.8567,1445,1554,0.8969,0.1132,-0.3514,10.1720,-3.9271,0.4841,2.9460,0.1641,-0.4448,10.0073,-3.2981,0.7306,3.1207
219.1561,-2.6371,0.2478,-50.2577,-2.8874,-0.0003,0.0001,-303.4516,53.4924,-102.0125,1443,1556,0.9132,0.1468,-0.3777,10.1001,-2.5377,0.6215,2.9841,0.2167,-0.1982,10.3784,-3.2370,-0.0480,3.0596
219.1745,-2.7116,0.1965,-50.1917,-4.6393,-0.0698,-0.2824,-311.2180,55.0107,-108.1841,1440,1559,0.9436,0.1444,-0.4184,10.2366,-4.6599,-1.0273,3.5337,0.1090,-0.4400,9.8564,-4.6187,-0.6587,3.5482
219.1929,-2.8222,0.1577,-50.1235,-3.7194,-0.1119,-0.1257,-324.3855,57.2491,-116.7867,1435,1564,0.9777,0.1324,-0.6842,9.9972,-3.1713,-0.3937,3.6864,0.0467,-0.2628,9.7750,-4.2675,-0.4144,3.7085
219.2113,-2.8696,0.1315,-50.0523,-3.0515,-0.0851,0.0586,-330.3739,58.2263,-120.1337,1433,1566,0.9878,0.0318,-0.4496,9.9038,-2.7133,-0.8365,3.8620,0.1856,-0.3730,10.2084,-3.3897,-0.9564,3.7695
219.2301,-2.9463,0.0612,-49.9772,-3.8034,-0.1376,-0.1686,-338.5488,59.7903,-124.4240,1431,1568,0.9979,0.2497,-0.5238,9.9876,-4.0339,-0.9357,3.9307,0.1832,-0.6363,9.9666,-3.5729,-0.7503,3.9985
219.2486,-3.0223,0.0148,-49.8966,-1.9675,-0.0246,0.0884,-348.0371,61.3409,-128.1208,1429,1570,1.0000,0.1348,-0.7010,9.9757,-2.2706,-0.8594,4.3124,0.0060,-0.6531,9.8421,-1.6645,-1.3534,4.2963
219.2670,-3.0355,-0.0359,-49.8171,-0.9561,0.0000,0.0000,-349.3032,61.6355,-128.6227,1429,1570,1.0000,0.0989,-0.5046,9.9493,-0.8965,-1.7831,4.1902,-0.0011,-0.4999,9.9905,-1.0156,-1.8801,4.2505
219.2855,-3.0476,-0.0751,-49.7330,-0.3797,0.0000,0.0000,-350.6869,61.9065,-129.1456,1428,1571,1.0000,0.0749,-0.5549,10.0786,-0.5530,-1.4701,4.5185,0.0204,-0.6746,9.8516,-0.2065,-1.7198,4.4184
219.3040,-3.0391,-0.1152,-49.6488,0.9867,0.0000,0.0000,-349.7147,61.7679,-128.8041,1429,1570,1.0000,0.0797,-0.5789,10.0164,0.5310,-1.7296,4.5261,-0.0754,-0.5406,9.8133,1.4424,-1.6358,4.4108
219.3224,-2.9854,-0.1547,-49.5595,1.9943,0.0000,0.0000,-343.5313,60.7231,-126.5301,1430,1569,0.9998,0.0534,-0.4424,9.8296,1.7676,-1.9434,4.8620,0.1377,-0.4185,9.9091,2.2210,-2.0251,4.6169
219.3409,-2.9138,-0.1841,-49.4680,3.4294,0.0000,0.0000,-335.2897,59.3199,-122.8718,1432,1567,0.9946,0.0366,-0.4783,9.9685,2.9813,-1.7602,4.9460,0.0826,-0.4999,9.8062,3.8775,-1.6740,4.8001
219.3593,-2.8058,-0.2261,-49.3778,3.3226,0.0000,0.0000,-322.8694,57.1893,-115.8510,1436,1563,0.9736,0.1085,-0.2844,9.9230,3.6989,-1.5388,4.9918,0.0252,-0.3371,9.9283,2.9462,-1.7656,4.6245
219.3778,-2.7531,-0.2662,-49.2835,2.5745,0.0000,0.0000,-316.8057,56.1630,-111.8884,1438,1561,0.9581,0.1276,-0.4544,9.8200,2.2790,-1.3708,5.0528,0.0731,-0.4687,9.8445,2.8699,-1.4373,5.0749
219.3962,-2.6938,-0.3313,-49.1879,2.9332,0.0000,0.0000,-309.9727,55.0023,-107.0749,1441,1558,0.9368,0.1875,-0.4520,9.9062,2.9890,-1.7373,5.1215,0.2000,-0.3107,9.7535,2.8775,-2.5442,5.0596
219.4147,-2.6093,-0.4105,-49.0875,2.7806,0.0000,0.0000,-300.2486,53.3383,-99.7096,1445,1554,0.9004,0.2593,-0.3083,9.8942,2.0424,-2.5006,5.3429,0.1329,-0.2676,9.9785,3.5187,-1.9335,5.3344
219.4331,-2.5748,-0.4369,-48.9849,0.0248,0.0000,-0.0000,-296.2846,52.6752,-96.5779,1446,1553,0.8836,0.0845,-0.2820,9.6812,0.5004,-1.3021,5.5261,0.0707,-0.3155,9.9737,-0.4507,-1.7121,5.4871
219.4516,-2.5742,-0.4997,-48.8829,-1.1393,0.0000,-0.0000,-296.2147,52.6887,-96.5332,1446,1553,0.8833,0.2186,-0.3370,9.8176,-1.0339,-1.7983,5.5185,0.1329,-0.3394,9.8038,-1.2446,-2.2083,5.3879
219.4700,-2.6092,-0.5988,-48.7773,-2.6240,0.0000,-0.0000,-300.2469,53.4156,-99.7431,1445,1554,0.9004,0.4293,-0.3825,9.9254,-2.0721,-1.7907,5.7322,0.3747,-0.2126,9.9785,-3.1759,-1.6053,5.5787
219.4884,-2.6503,-0.6586,-48.6686,-4.8416,0.0000,-0.0000,-304.9760,54.2641,-103.4095,1443,1556,0.9190,0.3191,-0.2102,9.5423,-4.4843,-0.9968,5.8696,0.3077,-0.3203,9.9115,-5.1988,-0.7885,5.9298
219.5068,-2.7404,-0.6793,-48.5587,-6.0782,0.0000,-0.0000,-315.3458,56.0937,-110.9740,1438,1561,0.9538,0.1587,-0.3442,9.7578,-5.7973,-0.7067,5.9612,0.0779,-0.3754,9.7894,-6.3591,-1.0633,5.9298
219.5253,-2.9092,-0.6876,-48.4461,-7.3263,0.0000,-0.0000,-334.7628,59.4975,-122.7416,1432,1567,0.9940,0.0725,-0.6028,9.5758,-7.0263,-1.3556,6.0070,0.3005,-0.7010,9.8995,-7.6263,-1.0327,6.0444
219.5436,-3.1015,-0.7136,-48.3364,-7.6622,-0.0179,-0.2489,-356.1820,63.3757,-131.4188,1427,1572,1.0000,0.2114,-0.7273,9.7745,-7.7286,-0.6151,5.8925,0.2718,-0.8255,9.4470,-7.5958,-0.6205,5.9069
219.5620,-3.2858,-0.7473,-48.2263,-7.1240,-0.5577,-4.8646,-364.0937,67.0939,-135.4932,1425,1574,1.0000,0.2641,-0.7560,9.5806,-7.1713,-0.5540,5.9612,0.3029,-0.7393,9.7032,-7.0767,-0.3305,5.8840
219.5805,-3.4675,-0.7702,-48.1177,-5.7347,-1.1034,-4.4434,-386.2143,70.7623,-143.5212,1421,1578,1.0000,0.2617,-0.8925,9.6620,-6.1637,0.0795,5.9231,0.2646,-0.9739,9.5500,-5.3057,-0.0556,5.7161
219.5990,-3.6542,-0.7953,-48.0154,-4.6164,-1.2934,-1.4892,-416.2072,74.5327,-153.8044,1415,1584,1.0000,0.2761,-1.0505,9.7147,-6.1484,-0.0426,5.5337,0.1569,-1.1128,9.5691,-3.0843,-0.0251,5.3879
