timestamp,roll_deg,pitch_deg,yaw_deg,omega_raw,omega_filtered,alpha,tau_ff,tau_pid,tau_total,pwm_left,pwm_right,deadzone_factor,accel1_x,accel1_y,accel1_z,gyro1_x,gyro1_y,gyro1_z,accel2_x,accel2_y,accel2_z,gyro2_x,gyro2_y,gyro2_z
581.4670,-1.3053,1.2258,111.6222,-3.5907,0.0000,-0.0000,-150.2037,26.2772,-3.4665,1498,1501,0.0628,-0.3275,0.0273,9.9359,-2.9968,-1.6405,-4.8988,-0.3276,0.0068,9.6703,-4.1845,-1.6746,-4.7815
581.4868,-1.3876,1.1834,111.5253,-5.1899,0.0000,-0.0000,-159.6694,27.9363,-5.7569,1497,1502,0.0981,-0.1814,-0.1284,9.8401,-4.6686,-1.9458,-5.1660,-0.1983,-0.0602,9.6224,-5.7113,-1.4227,-4.7280
581.5057,-1.4674,1.1231,111.4305,-5.6098,-0.0539,-0.3711,-167.7790,29.5463,-8.5400,1495,1504,0.1383,-0.0761,-0.1092,9.7061,-5.2793,-1.7550,-5.2118,-0.1122,-0.1201,9.7350,-5.9403,-1.4456,-4.9494
581.5242,-1.5804,1.0890,111.3362,-7.1212,-0.6891,-5.7099,-165.4061,31.8220,-12.6777,1493,1506,0.2037,-0.1886,-0.1619,9.8928,-5.7297,-1.6787,-5.3339,-0.1624,-0.1368,9.7230,-8.5128,-1.6059,-4.9876
581.5426,-1.7105,1.0282,111.2430,-7.7472,-1.9897,-14.4776,-155.1338,34.4425,-17.5277,1491,1508,0.2890,-0.0809,-0.2050,9.8234,-6.9892,-2.0603,-5.3874,0.0147,-0.2613,9.8307,-8.5052,-1.7281,-4.8425
581.5611,-1.9023,0.9413,111.1488,-9.1747,-4.0545,-30.6199,-130.7117,38.2970,-23.8018,1488,1511,0.4270,0.0484,-0.3917,9.8880,-8.7831,-2.1825,-5.3492,0.0698,-0.3164,9.7374,-9.5662,-1.6365,-4.8960
581.5796,-2.0646,0.8775,111.0547,-9.0487,-5.5575,-31.0110,-148.2663,41.5645,-58.6313,1470,1529,0.9412,0.0221,-0.2984,9.9359,-8.8747,-1.5107,-5.2118,0.0243,-0.3212,9.8068,-9.2227,-0.7433,-5.0334
581.5981,-2.2201,0.8267,110.9613,-8.5945,-6.1415,-23.4918,-187.8156,44.6967,-74.9367,1462,1537,1.0000,-0.0138,-0.3319,9.6893,-8.3022,-0.9764,-5.3492,0.0530,-0.2326,9.7350,-8.8868,-0.9418,-4.8502
581.6165,-2.3654,0.7821,110.8645,-9.0602,-6.5793,-23.7592,-203.7557,47.6246,-80.8639,1459,1540,1.0000,-0.0354,-0.2768,9.9670,-8.8442,-1.2130,-5.5858,-0.1217,-0.2972,9.9696,-9.2761,-0.7433,-5.0181
581.6349,-2.5211,0.7868,110.7635,-9.7319,-7.0522,-25.6747,-216.1603,50.7646,-85.9072,1457,1542,1.0000,-0.2341,-0.2984,10.0532,-8.9968,-0.6405,-5.5935,-0.2127,-0.2374,9.8403,-10.4670,-0.5830,-5.4456
581.6533,-2.6229,0.7887,110.6614,-6.9724,-7.0402,0.6513,-303.6915,52.8265,-111.4469,1444,1555,1.0000,-0.2820,-0.3031,9.8784,-7.1800,-0.8771,-5.8454,-0.1265,-0.3092,9.5698,-6.7647,-1.7586,-5.4074
581.6717,-2.7083,0.7140,110.5595,-5.5334,-6.8142,12.2731,-346.9890,54.5614,-124.4376,1437,1562,1.0000,0.0604,-0.3702,9.9168,-5.3403,-1.3810,-5.7767,0.0435,-0.3714,9.7900,-5.7265,-1.6746,-5.4608
581.6901,-2.8003,0.6392,110.4556,-4.8540,-6.5202,15.9614,-368.1966,56.4292,-131.3096,1434,1565,1.0000,0.1610,-0.4803,10.0077,-5.0121,-1.0145,-5.9141,-0.1050,-0.4313,10.2378,-4.6960,-0.1326,-5.4150
581.7085,-2.8295,0.6198,110.3522,-3.0678,-6.0023,28.1537,-406.6743,57.0421,-142.3899,1428,1571,1.0000,-0.0449,-0.3438,9.8186,-3.5999,-0.4420,-5.8759,0.0076,-0.5151,10.1180,-2.5357,0.4399,-5.3998
581.7269,-2.8006,0.5037,110.2466,-1.5792,-4.6753,31.5478,-413.1209,56.4916,-139.9117,1430,1569,0.9722,0.4650,-0.2098,9.7875,-1.6152,0.0694,-5.9294,0.2613,-0.1895,10.0582,-1.5433,1.1651,-5.5372
581.7453,-2.7562,0.4384,110.1338,-0.1937,-2.4366,22.3677,-381.5809,55.6326,-129.1452,1435,1564,0.9591,0.3740,-0.2529,9.8425,-0.7755,1.4816,-6.0973,0.2925,-0.2230,10.1204,0.3880,2.7147,-6.0028
581.7638,-2.6958,0.3775,110.0178,0.1574,-0.7669,7.6541,-332.2541,54.4514,-112.7580,1443,1556,0.9376,0.4028,-0.2026,9.7300,0.8200,2.0694,-6.2805,0.0315,-0.0937,10.0630,-0.5052,2.9819,-6.1326
581.7822,-2.6355,0.3589,109.9027,1.7910,-0.0001,0.0019,-303.2752,53.2715,-101.7881,1449,1550,0.9125,0.1610,-0.3295,9.7228,1.5986,0.9626,-6.3645,0.0387,-0.2685,9.9816,1.9834,2.8979,-5.9647
581.8007,-2.5245,0.3026,109.7846,3.7872,0.0000,0.0000,-290.4965,51.0767,-91.6267,1454,1545,0.8573,0.1897,-0.2577,9.8497,3.4154,0.2145,-6.4790,-0.2055,-0.3667,9.9098,4.1590,-0.0639,-6.3005
581.8191,-2.4056,0.2063,109.6640,3.6078,0.0000,0.0000,-276.8131,48.7225,-80.2235,1459,1540,0.7875,0.4459,-0.1954,10.2495,3.1482,1.1229,-6.5782,0.0243,-0.0746,10.0869,4.0674,-0.0716,-6.4990
581.8375,-2.2757,0.1394,109.5387,3.6040,0.0000,0.0000,-261.8706,46.1482,-67.6296,1466,1533,0.7016,0.3238,-0.1164,10.0676,2.7742,1.4511,-6.8148,0.1919,-0.0961,9.8068,4.4338,-0.0639,-6.7662
581.8559,-2.1221,0.1207,109.4092,4.0391,0.0000,0.0000,-244.1908,43.0967,-53.1549,1473,1526,0.5911,0.1250,-0.0182,9.8976,3.2398,1.4206,-7.1355,-0.1696,-0.0482,9.6272,4.8384,0.3941,-6.8731
581.8743,-1.9837,0.1757,109.2576,4.5620,0.0000,0.0000,-228.2632,40.3482,-41.0154,1479,1520,0.4878,-0.1838,-0.1068,9.8808,3.8047,1.9244,-7.4332,-0.1265,-0.2206,10.5418,5.3193,0.8521,-8.9647
581.8927,-1.8540,0.2372,109.1377,4.8063,0.0000,0.0000,-213.3402,37.7731,-30.7633,1484,1515,0.3913,-0.1623,-0.1451,9.9335,4.1864,2.8099,-7.7156,-0.0667,-0.2254,10.0342,5.4261,1.3025,-5.1555
581.9111,-1.7633,0.2756,108.9926,3.5811,0.0000,0.0000,-202.9035,35.9768,-24.3701,1487,1512,0.3258,-0.0832,-0.1978,9.8066,3.0719,2.2221,-7.8988,-0.0164,-0.2469,10.0510,4.0903,1.4704,-7.7509
581.9295,-1.6872,0.2448,108.8464,2.0353,0.0000,0.0000,-194.1429,34.4710,-19.5481,1490,1509,0.2730,0.2783,-0.1212,9.8761,2.0261,2.1839,-7.9523,0.2733,-0.0841,10.1276,2.0445,2.5086,-7.7891
581.9479,-1.6264,0.2301,108.6969,2.0391,0.0000,0.0000,-187.1475,33.2714,-16.0736,1491,1508,0.2328,0.2017,-0.1762,9.8066,1.0184,2.5656,-8.0820,0.2805,-0.1655,9.6703,3.0597,2.0277,-8.0410
581.9664,-1.5979,0.2471,108.5420,0.1765,0.0000,-0.0000,-183.8644,32.7167,-14.5619,1492,1507,0.2146,0.0389,-0.1619,9.9718,0.4688,1.6801,-8.1584,0.1321,-0.1536,9.8810,-0.1158,2.5162,-8.5219
581.9848,-1.6084,0.2233,108.3868,0.8444,0.0000,-0.0000,-185.0833,32.9447,-15.1167,1492,1507,0.2213,0.2328,-0.3941,9.8401,0.6597,1.9473,-8.3416,0.3212,-0.3451,10.0630,1.0292,2.3941,-8.3540
582.0032,-1.6393,0.1423,108.2303,-1.4037,0.0000,-0.0000,-188.6294,33.5774,-16.7876,1491,1508,0.2412,0.5249,-0.2912,9.8234,-1.6075,2.4969,-8.5019,0.6971,-0.5151,9.4860,-1.1998,2.3865,-8.3463
582.0216,-1.6660,0.0372,108.0754,-1.2968,0.0000,-0.0000,-191.7027,34.1282,-18.3074,1490,1509,0.2588,0.6063,-0.2984,9.9575,-0.8136,2.3977,-8.4866,0.4960,-0.2972,9.9600,-1.7800,1.0582,-8.2624
582.0401,-1.6854,-0.0147,107.9168,-0.5869,0.0000,-0.0000,-193.9344,34.5330,-19.4530,1490,1509,0.2718,0.4818,-0.3175,9.5576,-0.4014,3.3671,-8.5553,0.2733,-0.2781,9.9121,-0.7723,3.0887,-8.3845
582.0585,-1.7045,-0.0250,107.7543,-1.5563,0.0000,-0.0000,-196.1350,34.9325,-20.6163,1489,1510,0.2848,0.2495,-0.2409,9.7132,-1.4396,2.9397,-8.9523,0.1608,-0.2972,9.5458,-1.6731,2.2338,-8.5295
582.0769,-1.7078,-0.0318,107.5875,-0.8121,0.0000,-0.0000,-196.5167,35.0159,-20.8235,1489,1510,0.2871,0.1873,-0.2385,9.7420,-0.8747,2.1076,-9.0897,0.1416,-0.1344,9.7182,-0.7494,1.9742,-8.9112
582.0954,-1.6935,-0.0662,107.4347,0.1269,0.0000,0.0000,-194.8665,34.7460,-19.9477,1490,1509,0.2773,0.3286,-0.2337,9.6702,0.3619,2.3977,-9.2500,0.3236,-0.2541,9.5267,-0.1082,2.0200,-7.1555
582.1138,-1.6375,-0.1100,107.2588,1.1002,0.0000,0.0000,-188.4265,33.6431,-16.7018,1491,1508,0.2400,0.3310,-0.1212,9.4882,0.7665,2.1610,-9.4332,0.3858,-0.1225,9.3806,1.4338,1.3865,-9.5601
582.1322,-1.5338,-0.1334,107.0727,2.1994,0.0000,0.0000,-176.4981,31.5852,-11.4580,1494,1505,0.1757,0.1681,0.0105,9.6917,2.4841,0.9091,-9.9828,-0.1720,0.0212,9.5482,1.9147,0.4857,-10.1631
582.1506,-1.4137,-0.0530,106.8835,3.9131,0.0000,0.0000,-162.6699,29.1959,-6.6547,1496,1503,0.1106,-0.3490,-0.0398,9.5768,3.7513,0.2908,-10.2881,-0.3300,-0.1081,9.6584,4.0750,0.0887,-10.2013
582.1690,-1.2535,-0.0211,106.6842,4.2795,0.0000,0.0000,-144.2441,26.0059,-2.3566,1498,1501,0.0441,-0.1287,0.1350,9.7348,4.3467,0.6038,-10.7919,0.0219,0.1409,9.4477,4.2124,0.2185,-10.8578
582.1874,-1.0694,-0.0434,106.4749,4.9208,0.0000,0.0000,-123.0533,22.3335,-0.1609,1499,1500,0.0035,0.1969,0.2140,9.6606,5.0184,1.3519,-11.2423,0.2589,0.3037,9.3519,4.8231,1.3101,-11.4150
582.2058,-0.8185,-0.0204,106.2561,6.0887,0.0000,0.0000,-94.1792,17.3231,-0.0000,1500,1500,0.0000,-0.0210,0.4486,9.5145,5.7284,1.2908,-11.8683,-0.1217,0.2870,9.5746,6.4490,0.8903,-11.7891
582.2242,-0.5585,0.0735,106.0246,6.7337,0.0630,0.6484,-55.1129,11.1759,-0.0000,1500,1500,0.0000,-0.4041,0.4822,9.5864,5.8352,0.7641,-12.6011,-0.2893,0.3947,9.7805,7.6323,0.1040,-12.5143
582.2427,-0.3267,0.1196,105.7819,7.1574,0.7251,6.0046,-45.7407,6.5377,-0.0000,1500,1500,0.0000,-0.2484,0.3648,9.7324,7.4001,0.0313,-13.2042,-0.2127,0.2989,9.4716,6.9147,-0.3540,-13.0486
582.2612,-0.1759,0.1195,105.5301,5.5849,1.2430,4.3056,-27.1960,3.5188,-0.0000,1500,1500,0.0000,-0.1120,0.1613,9.5840,6.3848,-0.7168,-13.6469,0.0818,0.1888,9.6248,4.7849,-1.2700,-13.5601
582.2796,-0.0642,0.1904,105.2701,4.6116,1.4180,1.4215,-9.5681,1.2847,-0.0000,1500,1500,0.0000,-0.3825,0.0967,9.7635,4.6520,-0.4420,-13.9904,-0.6485,0.0188,9.6464,4.5712,-0.4227,-14.1860
582.2981,0.0217,0.3631,104.9954,5.5620,1.9341,4.9655,-9.8374,-0.4340,-0.0000,1500,1500,0.0000,-0.7895,-0.0853,9.7970,5.3009,0.3900,-15.8377,-0.6987,-0.0674,9.9576,5.8231,0.6842,-13.8349
582.3167,0.0740,0.5034,104.7447,5.4360,2.3621,4.4310,-3.5428,-1.4798,-0.0000,1500,1500,0.0000,-0.6435,-0.2074,9.7276,6.4765,0.9626,-14.2194,-0.3827,-0.3738,9.5841,4.3956,0.5926,-12.7433
582.3353,-0.8068,0.5406,104.6524,-7.3006,0.0000,-0.0000,-92.8364,16.1438,-0.0000,1500,1500,0.0000,-0.2508,-3.8035,10.5680,-7.6152,0.2526,-7.0744,-0.2630,-8.0161,10.2521,-6.9861,0.5391,-1.7662
582.3537,-2.5017,0.4999,104.5730,-9.9685,0.0000,-0.0000,-287.8665,50.0581,-89.2248,1455,1544,0.8447,-0.2820,-10.0404,9.5696,-13.8900,-2.2894,-5.1507,0.0052,-8.9307,8.1380,-6.0471,-5.0487,-0.6669
582.3721,-3.5708,0.3806,104.5599,-1.6670,0.0000,-0.0000,-410.8983,71.4765,-150.7898,1424,1575,1.0000,-0.2891,-5.3429,8.5425,-3.2029,-9.9153,-1.1278,-0.5910,-3.6874,10.8339,-0.1311,-7.9723,0.3025
582.3906,-3.6402,0.4426,104.5944,2.4666,0.0000,0.0000,-418.8896,72.9017,-153.7400,1423,1576,1.0000,-0.5788,-1.2632,10.6733,3.7207,-4.2894,0.7577,-0.1624,-0.5127,9.8140,1.2124,0.0048,2.7605
582.4091,-3.5739,0.4960,104.6573,3.3826,0.0000,0.0000,-411.2592,71.6114,-150.9582,1424,1575,1.0000,-0.1742,-0.6240,9.9838,2.4154,0.3977,3.1165,-0.0140,-0.5271,10.2425,4.3498,2.7300,3.8827
582.4275,-3.4792,0.3860,104.7381,2.9513,0.0000,0.0000,-400.3635,69.7525,-146.9780,1426,1573,1.0000,0.4291,-0.4348,9.9694,4.2093,0.2908,4.2004,0.5247,-0.2398,9.8930,1.6933,-0.8578,4.5315
582.4459,-3.4461,0.3383,104.8016,-1.1747,0.0000,-0.0000,-396.5546,69.1250,-145.5978,1427,1572,1.0000,0.3621,-0.3726,10.5823,0.1864,-0.6710,3.8111,0.1249,-0.1153,11.1332,-2.5357,4.2261,3.3102
582.4645,-3.3800,0.6977,104.8441,-6.0220,0.0000,-0.0000,-388.9442,67.8362,-142.8225,1428,1571,1.0000,-1.4886,0.2356,9.7276,-5.6381,1.5427,2.7424,-0.7921,0.2534,9.4860,-6.4059,3.7071,2.0811
582.4838,-3.1959,0.8589,104.8734,-2.4037,0.0000,-0.0000,-367.7583,64.1861,-135.0654,1432,1567,1.0000,-0.8374,0.4510,9.8186,-1.1953,-0.9077,1.3760,-0.6221,0.4761,9.9840,-3.6120,0.8750,1.3789
582.5023,-3.0387,0.7456,104.9096,-1.1899,0.0000,-0.0000,-349.6687,61.0726,-128.4435,1435,1564,1.0000,0.2687,0.2643,9.0860,-1.6228,-2.1748,1.4447,0.1632,0.0834,10.0797,-0.7571,-0.1784,2.0735
582.5212,-2.8303,0.7575,104.9376,1.0658,0.0000,0.0000,-325.6797,56.9316,-117.2166,1441,1558,0.9796,0.1514,0.3457,10.2974,0.6368,2.8481,2.3989,-0.3252,0.3396,9.8164,1.4948,4.3559,0.7300
582.5408,-2.6436,0.8984,104.9831,4.6269,0.0000,0.0000,-304.1965,53.2242,-102.4009,1448,1551,0.9160,-0.6100,-0.0637,9.2033,4.4154,1.7946,2.2920,-0.8496,-0.0746,9.8020,4.8384,0.1422,2.3178
582.5602,-2.4539,1.0477,105.0168,3.7299,0.0000,0.0000,-282.3699,49.4553,-84.8014,1457,1542,0.8170,-0.9356,0.0680,9.6103,3.6368,-1.2665,1.5821,-0.6317,-0.0434,9.3232,3.8231,-1.9494,1.5621
582.5792,-2.4236,1.1707,105.0369,-1.4495,0.0000,-0.0000,-278.8851,48.8738,-81.8865,1459,1540,0.7987,-0.6698,-0.1691,10.2112,0.1329,0.4358,0.8798,-0.4258,-0.0434,9.7326,-3.0319,1.6765,1.2109
582.5983,-2.5664,1.0513,105.0670,-8.4724,0.0000,-0.0000,-295.3134,51.7548,-95.4675,1452,1547,0.8794,0.3070,-0.3175,9.3637,-8.1648,1.2145,1.2844,0.3691,-0.3451,9.1053,-8.7800,-1.6441,1.8216
582.6179,-2.6747,0.9924,105.1028,-7.4189,0.0000,-0.0000,-307.7761,53.9476,-105.1432,1447,1552,0.9292,-0.1239,-0.2864,9.8593,-7.7755,-4.0374,1.7653,0.2039,-0.1057,10.2138,-7.0624,-0.7204,1.6155
582.6376,-2.6576,1.0249,105.1285,-3.0067,0.0000,-0.0000,-305.8133,53.6330,-103.6862,1448,1551,0.9221,-0.2891,-0.1212,9.3182,-3.7220,-0.5718,1.2920,-0.5407,-0.2326,10.0821,-2.2914,0.4781,1.1804
582.6571,-2.5320,1.0909,105.1507,-0.6632,0.0000,0.0000,-291.3554,51.1455,-92.2948,1453,1546,0.8613,-0.5477,0.1613,10.0987,-1.8365,-0.3733,0.7729,-0.4569,-0.1177,9.3734,0.5101,-1.2242,1.1804
582.6761,-2.5366,1.0139,105.1799,-1.7815,0.0000,-0.0000,-291.8918,51.2641,-92.7434,1453,1546,0.8638,-0.3298,-0.3103,10.1562,-0.0274,-4.5565,0.8722,-0.1074,-0.5797,10.1611,-3.5357,-6.6441,1.6460
582.6950,-2.6376,0.9342,105.2074,-2.7853,0.0000,-0.0000,-303.5049,53.3089,-101.9656,1449,1550,0.9134,0.1131,-0.6886,10.3262,-3.1113,-1.0603,1.3455,0.1728,-0.7641,10.3383,-2.4594,-0.9113,1.5773
582.7144,-2.8041,0.9461,105.2275,-5.3159,0.0000,-0.0000,-322.6699,56.6678,-115.4884,1442,1557,0.9731,-0.2125,-0.7365,9.8689,-4.7526,0.7030,1.0783,-0.5024,-0.8311,9.6105,-5.8792,-0.9113,1.1040
582.7341,-2.9135,1.0507,105.2420,-4.0411,0.0000,-0.0000,-335.2583,58.8848,-122.6425,1438,1561,0.9945,-0.6579,-0.5976,9.5433,-3.5465,-0.5871,0.5974,-0.8089,-0.5486,9.9002,-4.5357,-0.8578,0.8827
582.7537,-2.9052,1.2205,105.2571,1.3521,0.0000,0.0000,-334.3085,58.7488,-122.1786,1438,1561,0.9935,-0.5788,-0.6288,10.5943,0.4306,3.2679,0.9409,-0.6245,-0.4481,10.2928,2.2735,5.7300,1.1040
582.7727,-2.7960,1.3617,105.2813,6.5238,0.0000,0.0000,-321.7371,56.5918,-114.9382,1442,1557,0.9709,-0.3442,-0.5689,9.8354,5.6902,6.8557,1.6890,-0.2414,-0.5295,9.4692,7.3574,4.7834,1.4857
582.7915,-2.6409,1.3520,105.3144,8.4704,0.0000,0.0000,-303.8918,53.5167,-102.3262,1448,1551,0.9149,-0.2077,-0.4947,9.6893,8.1711,-0.0756,1.7500,-0.4019,-0.6348,9.8690,8.7697,-0.6670,1.7529
582.8109,-2.4480,1.4278,105.3388,11.1421,0.0000,0.0000,-281.6902,49.6825,-84.3727,1457,1542,0.8135,-0.5549,-0.5474,9.7539,10.9192,-0.4268,1.2920,-0.4641,-0.8048,10.0247,11.3651,0.6002,1.3025
582.8305,-2.2784,1.4686,105.3666,11.2643,0.3167,6.1655,-279.9279,46.3129,-71.4183,1464,1535,0.7034,-0.4567,-0.6431,9.7085,11.5146,-0.0374,1.4676,-0.5766,-0.6109,9.3160,11.0139,-1.0487,1.4552
582.8501,-2.0151,1.4722,105.4058,16.1918,4.9627,88.1585,-485.7736,41.0678,-113.3444,1443,1556,0.7240,-0.5381,-0.5904,9.1434,15.9345,-4.7092,1.9409,-0.4114,-0.5127,9.4692,16.4490,-2.5983,1.9437
582.8693,-1.6608,1.4475,105.4436,18.5047,7.4066,102.0998,-485.1495,33.9974,-152.8406,1423,1576,1.0000,-0.1383,-0.3630,10.0700,17.1940,-1.0451,1.9867,-0.3133,-0.3284,9.9433,19.8155,0.9742,2.0277
582.8881,-1.2894,1.4995,105.4773,19.3979,9.2053,95.4476,-352.7143,26.5829,-112.0515,1443,1556,1.0000,-0.4280,-0.2792,10.2543,19.7055,2.1000,1.8416,-0.0738,0.0332,9.8714,19.0903,-0.2548,1.8216
582.9075,-0.7558,1.3166,105.5069,23.3979,11.3342,109.9251,-336.2943,15.9189,-102.1218,1448,1551,1.0000,0.2591,0.1254,9.1841,22.3696,-2.4420,1.2233,-0.3468,0.0427,9.9816,24.4261,-4.3235,1.6918
582.9271,-0.2843,1.2541,105.5375,21.5238,12.8626,78.0451,-214.5659,5.6880,-62.9224,1468,1531,1.0000,-0.0521,0.0847,9.7013,22.1482,-2.5489,1.5668,-0.6461,0.1744,10.4724,20.8994,-0.1097,1.5239
582.9466,0.1121,1.1881,105.5769,19.6994,13.8881,52.5046,-138.3187,-2.2423,-37.6081,1481,1518,1.0000,-0.0449,-0.0134,9.8425,19.6291,-0.6329,2.1775,0.2206,0.5431,8.9640,19.7697,-2.0181,1.9132
582.9658,0.5211,0.9775,105.6141,17.8711,14.4856,31.2149,-29.9396,-10.4267,-3.1697,1498,1501,1.0000,0.4219,0.3122,9.8473,17.0108,-4.2970,2.1317,0.5079,0.5383,9.7757,18.7315,-3.1174,1.8063
582.9845,0.8950,0.8181,105.6429,13.4475,14.3299,-8.3150,126.9334,-17.9088,44.4958,1522,1477,1.0000,0.4147,0.6809,10.1729,15.3314,-3.3123,1.6966,0.3834,0.4354,11.1069,11.5635,-0.5525,1.3254
583.0037,1.1375,0.7006,105.6726,8.7414,13.4916,-43.6165,256.5037,-22.7608,83.2015,1541,1458,1.0000,0.3740,0.4917,9.8665,9.6062,-0.3962,1.2844,-0.0427,0.3684,10.5394,7.8765,-0.0410,1.7529
583.0234,1.2085,0.7879,105.7003,2.5047,11.8436,-83.9344,380.7899,-24.1931,118.7177,1559,1440,1.0000,-0.4759,0.2978,10.1227,3.0184,0.9473,1.1088,-0.3851,0.3468,9.6991,1.9910,0.1040,1.6537
583.0431,1.1725,0.8371,105.7294,-1.1250,9.8983,-98.4499,418.4564,-23.4855,128.9106,1564,1435,1.0000,0.0556,0.1565,10.3357,-0.5770,3.7030,1.3607,0.3380,0.0284,9.9145,-1.6731,5.8216,1.4018
583.0623,1.0180,0.8049,105.7577,-4.5334,7.7335,-112.8326,442.0991,-20.4055,133.9905,1566,1433,1.0000,0.5440,-0.0996,9.7228,-2.9281,6.7259,1.5210,0.5462,-0.1320,9.3639,-6.1387,6.1422,1.2796
583.0811,0.7775,0.8977,105.7792,-8.2968,4.6484,-111.6473,411.0083,-15.6028,70.5293,1535,1464,0.5740,-0.2580,-0.2050,9.7204,-6.7297,4.2832,1.1623,-0.1002,-0.3619,8.7510,-9.8639,2.8597,1.1804
583.1002,0.3925,0.9622,105.7971,-13.6479,0.0000,-0.0000,37.6329,-7.8530,0.0000,1500,1500,0.0000,-0.4065,-0.4276,10.0101,-11.6839,1.1076,0.7806,-0.4617,-0.3164,8.8994,-15.6120,-0.0792,1.3483
583.1199,-0.0791,0.8892,105.8156,-15.7815,0.0000,-0.0000,-7.5857,1.5830,-0.0000,1500,1500,0.0000,0.0149,-0.5881,8.9136,-15.1495,-2.0069,0.6966,-0.0906,-0.4145,9.2992,-16.4135,-1.2777,1.5392
583.1396,-0.5503,0.7774,105.8368,-18.8884,-0.0027,-0.1254,-52.4684,11.0116,-0.0000,1500,1500,0.0000,0.0389,-0.4181,9.3134,-18.5846,-4.7703,0.5592,-0.1074,-0.4888,9.2585,-19.1922,-2.2013,1.7605
583.1588,-0.9814,0.8473,105.8566,-19.2663,-5.0531,-116.8534,223.6124,19.6372,40.3350,1520,1479,0.7640,-0.4567,-0.3726,9.8066,-19.3251,-0.7932,0.6661,-0.4402,-0.2924,9.4189,-19.2074,0.4628,1.5621
583.1775,-1.4076,0.9595,105.8778,-17.4685,-7.2817,-96.1455,114.9228,28.1669,18.0950,1509,1490,1.0000,-0.5573,-0.6096,9.4714,-17.9358,-0.8848,1.1699,-0.4545,-0.4720,9.0550,-17.0013,2.7452,1.4170
583.1966,-1.8292,0.9946,105.8997,-16.0945,-8.6036,-68.9688,-11.8520,36.6158,-21.6265,1489,1510,1.0000,-0.2891,-0.6910,9.0429,-15.8671,0.3290,1.3073,-0.2917,-0.7162,9.4309,-16.3219,-0.1861,1.2720
583.2162,-2.1793,0.9407,105.9324,-11.9113,-9.0998,-25.3045,-177.8917,43.6395,-71.6294,1464,1535,1.0000,-0.0593,-0.8011,9.5241,-11.4472,-1.4039,1.5974,-0.3683,-0.8527,9.5817,-12.3754,-1.8044,1.8750
583.2358,-2.4691,0.9026,105.9686,-9.1518,-9.1076,-0.3984,-282.9690,49.4601,-103.9614,1448,1551,1.0000,-0.2796,-0.8394,9.5313,-8.8518,-3.3581,1.5287,-0.4665,-0.7665,9.8092,-9.4517,-3.6899,2.1117
583.2550,-2.7088,0.9356,106.0056,-8.4380,-9.0071,5.2274,-326.7613,54.2824,-118.6343,1440,1559,1.0000,-0.5166,-0.7700,9.7276,-8.4090,-3.3046,1.6126,-0.7251,-0.6588,10.0845,-8.4670,-2.0639,2.1575
583.2738,-2.8333,0.9991,106.0419,-6.3922,-8.6149,20.9407,-386.3425,56.8007,-136.5763,1431,1568,1.0000,-0.4065,-0.5019,10.0389,-7.3556,-0.8390,1.5592,-0.4210,-0.5223,9.8379,-5.4288,1.8292,2.3712
583.2928,-2.8778,1.1370,106.0767,-2.4800,-7.6947,48.2160,-470.0087,57.7182,-160.4615,1419,1580,1.0000,-0.3538,-0.4971,10.1681,-3.6152,6.0389,1.8874,-0.3181,-0.4864,10.0773,-1.3448,4.3406,2.2720
583.3224,-2.7961,1.1972,106.1024,3.3673,-6.0354,164.9625,-796.8395,56.1126,-251.1714,1374,1625,1.0000,-0.3370,-0.0877,9.6366,2.9803,4.0465,2.6432,-0.4042,-0.1775,9.6488,3.7544,4.1651,2.6995
583.3415,-2.6036,1.2188,106.1649,5.1154,-1.8828,37.8514,-408.6124,52.2895,-126.1818,1436,1563,0.8977,-0.1287,-0.0541,9.2512,4.5757,1.9320,2.9638,-0.1002,-0.1751,9.6344,5.6552,1.6536,3.5544
583.3611,-2.4116,1.1481,106.2335,4.9055,0.0000,0.0000,-277.4993,48.4724,-80.6561,1459,1540,0.7912,0.1298,-0.0326,9.2105,3.7207,0.0160,3.1623,0.3092,-0.1488,9.2490,6.0903,0.6307,3.6766
583.3807,-2.1825,1.0981,106.3108,3.6803,0.0000,0.0000,-251.1374,43.9124,-58.6253,1470,1529,0.6353,0.0963,0.2499,9.2560,3.2627,0.3137,3.9561,-0.2127,0.3492,9.5650,4.0979,1.0506,3.7376
583.4000,-1.9462,1.1211,106.3872,5.0544,0.0000,0.0000,-223.9537,39.2073,-37.8398,1481,1518,0.4597,-0.2652,0.2308,9.3613,5.2245,0.9244,3.8493,-0.2965,-0.0171,9.4620,4.8842,-0.8655,3.8140
583.4186,-1.8092,1.1319,106.4650,3.0620,0.0000,0.0000,-208.1892,36.4854,-27.4509,1486,1513,0.3587,-0.1239,0.0297,8.9136,4.6062,0.4893,4.0935,-0.1050,0.0260,9.2897,1.5177,1.6613,4.1727
583.4376,-1.8153,1.1448,106.5444,-1.7166,0.0000,-0.0000,-208.8853,36.6246,-27.8819,1486,1513,0.3630,-0.2221,-0.1858,9.6175,0.0337,-0.6710,3.9790,-0.2774,-0.2350,8.8755,-3.4670,0.8979,4.3331
583.4572,-1.8325,1.1876,106.6259,-3.5869,0.0000,-0.0000,-210.8602,36.9861,-29.1153,1485,1514,0.3755,-0.6339,-0.0925,10.3166,-2.4548,-2.4649,3.8798,0.1009,0.1984,9.5339,-4.7189,-2.5754,4.1880
583.4768,-1.9767,1.1498,106.7061,-8.3655,0.0000,-0.0000,-227.4538,39.8899,-40.3521,1479,1520,0.4825,-0.2748,-0.2361,9.9215,-7.3861,-3.5260,3.7729,0.1105,-0.1225,9.3758,-9.3448,-2.0716,4.1804
583.4960,-2.1296,1.1187,106.7872,-9.1327,-0.0234,-0.4071,-243.8796,42.9699,-53.5619,1473,1526,0.5966,-0.2389,-0.2481,10.0460,-8.8900,-3.2817,4.0859,-0.1505,-0.2565,9.7134,-9.3754,-1.1479,4.1498
583.5148,-2.2687,1.1913,106.8674,-7.1174,-0.5809,-4.9274,-246.8640,45.7739,-64.0975,1467,1532,0.6966,-0.5645,-0.3941,9.7444,-6.7144,-1.9535,4.2997,-0.6413,-0.4361,9.5746,-7.5204,0.4399,4.2567
583.5338,-2.4409,1.2819,106.9538,-6.3197,-1.3225,-6.5024,-262.1517,49.2437,-79.3276,1460,1539,0.8093,-0.6650,-0.6192,9.6366,-6.3174,-0.9840,4.3836,-0.3971,-0.7904,9.3256,-6.3219,-0.7281,4.7911
583.5533,-2.5993,1.3179,107.0474,-5.9227,-1.9835,-6.1776,-281.3102,52.4369,-94.0310,1452,1547,0.8957,-0.4160,-0.6575,10.4722,-5.9892,0.2068,4.5592,-0.2941,-0.5319,9.8954,-5.8563,-0.8120,5.0659
583.5729,-2.7460,1.3216,107.1406,-5.0487,-2.2454,-2.4767,-308.8475,55.3979,-109.1181,1445,1554,0.9557,-0.2245,-0.6551,9.6103,-5.3632,-0.3199,4.6203,-0.5718,-0.6037,10.3000,-4.7342,0.0200,5.0124
583.5923,-2.8389,1.4128,107.2327,-3.0678,-1.6819,4.3530,-339.2067,57.2841,-121.3417,1439,1560,0.9816,-0.5908,-0.6168,9.5720,-4.0579,-0.5260,4.6737,-0.6125,-0.7809,10.3192,-2.0777,0.6231,4.9437
583.6110,-2.9472,1.4503,107.3262,-1.5945,-0.8063,4.4675,-352.0013,59.4800,-128.0366,1435,1564,0.9979,-0.3634,-0.8347,9.5097,-1.6915,-0.0756,4.9027,-0.2462,-0.7210,10.0151,-1.4975,0.5162,5.3025
583.6299,-2.9481,1.4868,107.4282,2.5849,0.0000,0.0000,-339.2370,59.5272,-124.5020,1437,1562,0.9980,-0.2915,-0.7461,9.7444,1.2856,0.7717,5.3378,-0.4641,-0.6635,9.7254,3.8842,1.3712,5.7071
583.6495,-2.8757,1.5403,107.5435,5.3253,0.0000,0.0000,-330.9069,58.1082,-120.3556,1439,1560,0.9889,-0.4280,-0.6718,9.9287,4.9116,1.0084,5.9180,-0.0834,-0.4289,9.7086,5.7391,0.1651,6.0659
583.6690,-2.6747,1.5385,107.6681,9.0085,0.0000,0.0000,-307.7796,54.1155,-105.2235,1447,1552,0.9292,-0.3418,-0.3917,9.5887,8.3696,-1.3733,6.2920,-0.6652,-0.4552,9.7254,9.6475,-1.5601,6.2644
583.6884,-2.4565,1.5523,107.7910,10.8330,0.0000,0.0000,-282.6714,49.7762,-85.1635,1457,1542,0.8186,-0.4879,-0.4300,9.6271,10.4535,-2.7703,6.2615,-0.4019,-0.3451,9.8403,11.2124,-1.8273,6.2491
583.7071,-2.2640,1.5445,107.9094,10.8406,0.0000,0.0000,-260.5157,45.9481,-66.5079,1466,1533,0.6934,-0.3897,-0.4755,9.6965,11.4001,-1.8771,6.2768,-0.2582,-0.4433,9.4118,10.2811,-2.3769,6.2338
583.7261,-2.0558,1.5217,108.0357,10.1307,1.1015,15.4907,-281.1723,41.8049,-53.9793,1473,1526,0.5418,-0.3275,-0.3271,9.6965,9.8963,-2.7703,6.4218,-0.4019,-0.3738,9.7589,10.3651,-1.7891,6.6918
583.7456,-1.8168,1.4687,108.1687,10.4666,3.6934,36.6164,-314.5138,37.0434,-38.8116,1480,1519,0.3641,-0.1766,-0.2074,9.7132,10.9192,-2.4344,6.6813,-0.5264,-0.2302,10.0678,10.0139,-1.7510,6.7758
583.7651,-1.5740,1.4395,108.3026,9.6460,5.5282,34.6596,-280.9373,32.2028,-88.4701,1455,1544,0.9336,-0.3179,-0.0853,9.9910,9.6444,-1.8161,6.5974,-0.1050,-0.2158,9.7709,9.6475,-2.8426,6.8521
583.7845,-1.3524,1.4080,108.4314,8.4055,6.1007,20.9623,-215.9948,27.7853,-74.3712,1462,1537,1.0000,-0.3682,-0.0230,10.0628,9.0108,-2.9916,6.4600,-0.1457,0.0188,9.8954,7.8002,-3.1097,6.5392
583.8033,-1.1779,1.3816,108.5584,6.5696,6.1710,3.7426,-146.3221,24.3070,-53.1237,1473,1526,1.0000,-0.3275,-0.0063,10.1298,7.7513,-2.9764,6.6126,0.0794,-0.0530,9.8786,5.3880,-1.7891,6.6766
583.8222,-1.0683,1.3340,108.6883,3.4971,5.6733,-20.8628,-62.8434,22.1251,-27.7132,1486,1513,0.9670,-0.1527,-0.0134,10.3908,5.0871,-2.0603,6.7195,-0.0308,0.0715,9.4788,1.9071,-1.0868,6.8674
583.8417,-0.9908,1.2229,108.8214,1.2681,3.9827,-27.1013,-35.9581,20.5849,-5.1230,1497,1502,0.2516,0.1801,0.0416,10.2017,2.2474,-2.8390,6.7195,-0.0308,0.1026,9.8906,0.2887,0.2948,6.7987
583.8614,-0.9234,1.1943,108.9536,0.2681,1.9034,-16.0365,-60.0654,18.4765,-0.0000,1500,1500,0.0000,0.0460,0.0895,9.9838,0.4841,0.4587,6.7042,-0.1505,0.2032,9.8906,0.0521,2.1727,6.6689
583.8809,-0.9247,1.2222,109.0858,-1.7472,0.2124,-2.8942,-98.0684,18.5031,-0.0000,1500,1500,0.0000,-0.2293,-0.0254,10.0389,-1.0961,1.1381,6.7882,-0.1313,0.0380,9.4956,-2.3983,1.0964,6.7453
583.8997,-0.9400,1.2234,109.2123,-2.8388,0.0000,-0.0000,-108.1647,18.8093,-0.0000,1500,1500,0.0000,-0.1694,0.0057,9.8354,-2.2487,0.2450,6.5745,-0.2606,-0.0075,9.8020,-3.4288,0.5468,6.8140
583.9185,-0.9854,1.1982,109.3364,-4.1174,0.0000,-0.0000,-113.3894,19.7179,-0.0000,1500,1500,0.0000,-0.1383,-0.0230,9.9024,-3.3480,-0.5260,6.3531,0.0004,-0.0482,9.6488,-4.8868,-0.6135,6.7224
583.9380,-1.0365,1.1567,109.4587,-5.3617,0.0000,-0.0000,-119.2642,20.7395,-0.0431,1499,1500,0.0010,-0.1359,0.0536,9.7803,-4.8136,-1.3657,6.2844,0.2039,0.2103,9.5482,-5.9097,-1.3387,6.1269
583.9576,-1.0872,1.0975,109.5760,-5.7472,0.0000,-0.0000,-125.1039,21.7653,-0.2543,1499,1500,0.0055,-0.0354,0.0823,9.7635,-5.7297,-1.7932,5.8340,-0.1744,0.0906,9.5458,-5.7647,-0.7891,5.9590
583.9771,-1.1102,1.0460,109.6916,-5.1403,0.0000,-0.0000,-127.7504,22.2364,-0.4114,1499,1500,0.0088,-0.0258,0.1398,9.5816,-4.8365,-1.4878,5.7424,-0.1050,0.2008,9.6344,-5.4441,-0.3464,5.9590
583.9960,-1.1319,0.9517,109.7968,-5.4647,0.0000,-0.0000,-130.2514,22.6824,-0.5968,1499,1500,0.0125,0.1801,0.1733,9.8976,-5.2716,-1.0680,5.4371,0.1368,0.1720,9.7781,-5.6578,-0.8120,5.5163
584.0148,-1.1530,0.8766,109.8969,-4.5067,0.0000,-0.0000,-132.6732,23.1149,-0.8114,1499,1500,0.0167,0.0820,0.0895,9.9359,-4.2411,-1.2359,5.1012,0.1919,0.1720,9.8188,-4.7723,-1.2013,5.3636
584.0342,-1.1577,0.8114,109.9948,-4.5105,0.0000,-0.0000,-133.2134,23.2204,-0.8641,1499,1500,0.0177,0.0676,0.1613,9.8066,-4.1800,-1.1519,4.9409,0.1584,0.2319,9.7206,-4.8410,-0.6670,4.9895
584.0538,-1.1500,0.7479,110.0824,-4.6556,0.0000,-0.0000,-132.3304,23.0784,-0.7790,1499,1500,0.0160,0.1011,0.2308,9.9383,-4.5388,-0.8695,4.3760,0.1823,0.3037,9.8475,-4.7723,-0.2013,4.4094
584.0722,-1.0886,0.6839,110.1558,-3.7205,0.0000,-0.0000,-125.2679,21.8618,-0.2630,1499,1500,0.0057,0.2065,0.4127,9.9048,-4.3480,-0.2970,3.8874,0.1057,0.0834,9.4381,-3.0929,0.8521,3.9437
584.0906,-1.0163,0.6258,110.2192,-2.0144,0.0000,0.0000,-116.9470,20.4257,-0.0085,1499,1500,0.0002,0.2280,0.3194,9.8282,-2.1113,0.6419,3.5668,-0.2103,0.3253,9.6703,-1.9174,0.7529,3.2262
584.1090,-0.9436,0.6253,110.2901,-0.6479,0.0000,0.0000,-108.5767,18.9803,-0.0000,1500,1500,0.0000,-0.0809,0.2164,9.8641,-0.0961,-0.3810,2.9332,0.1416,0.3612,9.8547,-1.1998,0.8750,4.6155
584.1274,-0.8157,0.6129,110.3321,0.5696,0.0000,0.0000,-93.8669,16.3230,-0.0000,1500,1500,0.0000,0.0197,0.3816,9.7707,0.4306,-0.0222,2.3149,-0.0667,0.3971,10.1228,0.7086,1.4781,2.1575
584.1458,-0.6951,0.5934,110.3683,0.0505,0.0000,0.0000,-66.6531,13.9088,-0.0000,1500,1500,0.0000,0.1394,0.4415,10.3453,0.8123,1.3900,2.1088,0.1105,0.4115,9.5147,-0.7113,1.9437,1.7529
584.1642,-0.5462,0.6116,110.3937,2.6574,0.0000,0.0000,-52.3711,10.9285,-0.0000,1500,1500,0.0000,-0.1024,0.3385,9.6486,2.7513,0.9320,1.4294,0.0961,0.4115,9.9169,2.5635,1.0353,1.2567
584.1826,-0.3890,0.5905,110.4059,3.6231,0.0000,0.0000,-37.2977,7.7831,-0.0000,1500,1500,0.0000,0.0772,0.3265,9.8042,3.5604,0.6725,0.6813,0.0363,0.3181,9.3854,3.6857,1.2338,0.5773
584.2010,-0.2307,0.5875,110.4101,4.8902,0.0000,0.0000,-22.1261,4.6172,-0.0000,1500,1500,0.0000,0.0436,0.2595,9.9311,5.1635,1.2297,0.2081,0.1225,0.1170,9.8140,4.6170,1.8139,0.2033
584.2193,-0.0688,0.5976,110.4063,5.2948,0.0000,0.0000,-6.5944,1.3761,-0.0000,1500,1500,0.0000,-0.0880,0.2571,9.6678,5.1864,0.9778,-0.3339,0.0698,0.3301,9.6177,5.4032,0.4857,-0.1479
584.2377,0.1095,0.5903,110.3919,6.0238,0.0000,0.0000,10.4997,-2.1910,0.0000,1500,1500,0.0000,-0.0665,0.3002,9.8354,5.8734,-0.2435,-0.6774,-0.0068,0.3516,9.9193,6.1742,0.2796,-0.9265
584.2561,0.2886,0.5937,110.3725,6.4513,0.0000,0.0000,27.6701,-5.7741,0.0000,1500,1500,0.0000,-0.0904,0.3026,9.8282,6.6826,0.0771,-1.0668,0.1177,0.2582,9.8212,6.2200,0.6155,-1.0944
584.2745,0.4176,0.5538,110.3443,4.7757,0.0000,0.0000,40.0396,-8.3553,0.0000,1500,1500,0.0000,0.1131,0.2523,10.1250,5.1558,0.2450,-1.5553,0.1344,0.2079,9.6368,4.3956,0.3330,-1.5524
584.2930,0.5265,0.5102,110.3125,3.4742,0.0000,0.0000,50.4836,-10.5346,0.0000,1500,1500,0.0000,0.1250,0.2858,9.9479,4.0413,-0.0374,-1.8454,0.1895,0.2630,9.8475,2.9071,0.4017,-1.6364
584.3114,0.6356,0.5263,110.2764,2.7070,0.0000,-0.0000,60.9491,-12.7185,0.0000,1500,1500,0.0000,-0.0042,0.3720,9.9479,2.8887,0.7717,-2.0362,0.0315,0.3540,9.9864,2.5254,2.8903,-1.9723
584.3298,0.7199,0.5186,110.2319,1.5582,0.0000,-0.0000,69.0278,-14.4043,0.0000,1500,1500,0.0000,0.0867,0.3792,10.0508,2.0261,1.5961,-2.4713,0.0674,0.3803,9.8499,1.0903,1.5773,-2.4532
584.3483,0.7483,0.5176,110.1851,-0.3044,0.0000,-0.0000,71.7540,-14.9732,0.0000,1500,1500,0.0000,0.0245,0.2882,9.9431,0.2780,1.0847,-2.6698,0.2350,0.2391,9.6512,-0.8868,1.4781,-2.4685
584.3667,0.7107,0.5416,110.1333,-2.3769,0.0000,-0.0000,68.1484,-14.2209,0.0000,1500,1500,0.0000,-0.0258,0.1613,9.9718,-1.8136,1.7030,-2.6774,-0.0619,0.2247,9.8619,-2.9403,2.2796,-2.9952
584.3851,0.6357,0.6277,110.0788,-3.9876,0.0000,-0.0000,60.9585,-12.7205,0.0000,1500,1500,0.0000,-0.2987,0.1182,9.8042,-3.5541,2.2984,-3.0744,-0.2798,0.0787,9.7110,-4.4212,2.1956,-2.8960
584.4035,0.5057,0.7045,110.0250,-4.8617,0.0000,-0.0000,48.4942,-10.1195,0.0000,1500,1500,0.0000,-0.2939,-0.0757,9.7372,-4.4243,1.9931,-2.9904,-0.2702,-0.0722,9.5482,-5.2990,1.9132,-2.8502
584.4218,0.3685,0.7750,109.9651,-5.9456,0.0000,-0.0000,35.3320,-7.3729,0.0000,1500,1500,0.0000,-0.3203,-0.0350,9.7252,-5.6839,1.3366,-3.2271,-0.2893,-0.2278,9.6344,-6.2074,1.5620,-3.2547
584.4402,0.2082,0.8662,109.9044,-6.6365,0.0000,-0.0000,19.9618,-4.1655,0.0000,1500,1500,0.0000,-0.4232,-0.1068,9.5552,-6.4090,1.2374,-3.4103,-0.5240,-0.2062,9.6991,-6.8639,1.5697,-3.1479
584.4586,0.0376,0.9668,109.8440,-6.9456,0.0000,-0.0000,3.6087,-0.7530,0.0000,1500,1500,0.0000,-0.5597,-0.1523,9.5552,-6.5770,0.6725,-3.3568,-0.5623,-0.1967,9.4046,-7.3143,0.3025,-3.1097
584.4770,-0.1491,1.0264,109.7839,-6.7930,-0.0502,-0.5323,-13.0165,2.9828,-0.0000,1500,1500,0.0000,-0.4448,-0.2672,9.5935,-6.5846,-0.2130,-3.4026,-0.4473,-0.2853,9.3830,-7.0013,-0.0716,-2.9952
584.4954,-0.3027,1.0618,109.7276,-6.1327,-0.4511,-2.9292,-21.9944,6.0567,-0.0000,1500,1500,0.0000,-0.3418,-0.2074,9.7180,-6.1113,-0.2054,-3.1736,-0.4306,-0.2829,9.6536,-6.1540,0.0658,-2.8731
584.5138,-0.4634,1.0781,109.6720,-5.3273,-0.8585,-2.9921,-37.2556,9.2728,-0.0000,1500,1500,0.0000,-0.2939,-0.3319,9.5840,-5.3709,-0.3275,-3.1278,-0.3276,-0.3355,9.5003,-5.2838,-0.6441,-2.7967
584.5322,-0.6094,1.0683,109.6164,-4.1479,-0.9268,-0.4583,-57.3354,12.1940,-0.0000,1500,1500,0.0000,-0.2461,-0.3941,9.6893,-4.2182,-1.3428,-3.1889,-0.2678,-0.3858,9.6895,-4.0777,-1.1861,-2.7356
584.5506,-0.7544,1.0812,109.5636,-3.7892,-0.8822,0.2854,-73.0254,15.0956,-0.0000,1500,1500,0.0000,-0.3251,-0.4444,9.7061,-2.9663,-1.1596,-3.1278,-0.3468,-0.4433,9.7757,-4.6120,-0.7815,-2.5066
584.5690,-0.8285,1.1006,109.5109,-0.6479,-0.1914,1.4860,-99.6126,16.5780,-0.0000,1500,1500,0.0000,-0.3083,-0.4181,9.9024,-1.0426,-0.4420,-2.8988,-0.4928,-0.4313,9.7829,-0.2532,-0.2777,-2.6975
584.5875,-0.8649,1.1213,109.4618,2.0124,0.0000,0.0000,-99.5217,17.3064,-0.0000,1500,1500,0.0000,-0.3418,-0.4731,9.6582,1.6978,-0.6252,-2.7538,-0.3157,-0.4744,9.7086,2.3269,-0.7433,-2.4456
584.6059,-0.8481,1.1249,109.4123,3.8482,0.0000,0.0000,-97.5899,16.9704,-0.0000,1500,1500,0.0000,-0.2365,-0.3941,9.7659,3.6062,-0.4955,-2.7003,-0.0691,-0.4313,9.8236,4.0903,-0.0410,-2.5753
584.6243,-0.8199,1.1429,109.3705,5.5925,0.0000,0.0000,-94.3492,16.4069,-0.0000,1500,1500,0.0000,-0.2580,-0.4971,9.9168,5.3161,0.1534,-2.3187,-0.2869,-0.4720,9.8690,5.8689,0.3788,-2.0715
584.6427,-0.7616,1.1643,109.3281,7.8177,0.0000,0.0000,-73.0287,15.2392,-0.0000,1500,1500,0.0000,-0.2891,-0.5426,9.8928,7.4535,0.1305,-2.1049,-0.3252,-0.4888,9.7661,8.1819,0.1269,-2.3005
584.6611,-0.6624,1.1756,109.2888,9.6040,0.0000,0.0000,-63.5202,13.2551,-0.0000,1500,1500,0.0000,-0.2820,-0.4947,9.8952,9.4535,-0.2665,-2.0439,-0.2798,-0.4648,9.7709,9.7544,-0.3158,-2.0639
584.6796,-0.4980,1.1526,109.2572,10.8406,0.1295,2.7554,-54.3659,9.9648,-0.0000,1500,1500,0.0000,-0.1239,-0.2816,9.9575,10.6215,-0.2588,-1.6851,-0.0810,-0.3882,9.9505,11.0597,-0.3158,-1.6364
584.6980,-0.3366,1.1400,109.2261,11.9017,2.6342,39.6176,-127.3563,6.7348,-0.0000,1500,1500,0.0000,-0.1239,-0.3558,10.0317,12.0337,0.0007,-1.5935,-0.0762,-0.4217,9.9576,11.7697,0.4170,-1.6440
584.7164,-0.1885,1.1227,109.2055,12.0238,5.6270,59.0903,-159.8898,3.7714,-44.6704,1477,1522,0.9575,-0.0617,-0.3989,9.9383,12.1940,0.5198,-1.2042,-0.1193,-0.4241,9.8834,11.8536,0.7071,-0.8883
584.7347,-0.0601,1.0929,109.1878,11.0773,6.5446,43.5651,-110.3218,1.2031,-31.4917,1484,1515,1.0000,0.0101,-0.3845,9.9503,11.4765,0.4893,-1.0286,0.0076,-0.3475,9.7038,10.6781,0.9590,-0.7433
584.7532,0.0610,1.0427,109.1745,10.1307,7.0825,29.0823,-63.9503,-1.2202,-17.2960,1491,1508,1.0000,0.0341,-0.3223,10.0245,10.5223,0.7565,-0.7843,0.0842,-0.2565,9.9600,9.7391,-0.9189,-0.5143
584.7717,0.1658,0.9844,109.1678,8.8750,7.3514,14.5787,-19.0878,-3.3181,-3.6855,1498,1501,1.0000,0.1490,-0.2696,10.1538,9.4994,0.4969,-0.4942,0.0746,-0.1871,9.8595,8.2506,0.6689,-0.1326
584.7901,0.2493,0.9837,109.1641,6.9475,7.2908,-3.2939,31.8063,-4.9875,11.3995,1505,1494,1.0000,-0.1311,-0.1810,10.0652,7.6139,0.5961,-0.4408,0.0842,-0.0841,9.8595,6.2811,0.3865,0.0888
584.8086,0.3051,0.9804,109.1645,4.4513,6.8649,-22.9840,84.4160,-6.1047,26.6888,1513,1486,1.0000,-0.1263,-0.0781,9.9958,5.4077,0.3595,-0.0897,-0.0619,0.0451,9.6847,3.4948,0.3559,0.1575
584.8270,0.3125,0.9568,109.1658,1.7299,6.0946,-41.8860,130.4905,-6.2528,39.6637,1519,1480,1.0000,-0.0162,-0.0589,10.0029,2.3696,0.1152,0.0019,0.0243,-0.0482,9.8140,1.0903,0.8368,0.1651
584.8454,0.2785,0.9589,109.1696,-0.7281,3.9140,-42.9222,129.7167,-5.5724,8.6776,1504,1495,0.2219,-0.1024,-0.0374,10.0484,0.2780,0.4129,0.0401,-0.0786,-0.0147,9.8403,-1.7342,1.2567,0.3712
584.8638,0.1787,0.9580,109.1716,-3.6479,0.6070,-11.4197,44.5389,-3.5749,0.0000,1500,1500,0.0000,-0.0593,-0.1020,10.0125,-2.8671,1.0084,0.0783,-0.0906,0.0044,9.6560,-4.4288,1.3330,0.1804
584.8823,0.0496,1.0401,109.1782,-6.5869,0.0000,-0.0000,4.7543,-0.9921,0.0000,1500,1500,0.0000,-0.4879,-0.0015,9.9263,-5.7220,0.6877,0.1394,-0.3157,0.0068,9.8978,-7.4517,0.8750,0.5850
584.9007,-0.1246,1.1013,109.1805,-8.9685,0.0000,-0.0000,-11.9487,2.4934,-0.0000,1500,1500,0.0000,-0.4089,-0.0302,10.0245,-8.1037,0.5427,-0.1202,-0.3181,-0.0099,9.7781,-9.8334,0.9361,0.3789
584.9191,-0.3375,1.1964,109.1820,-11.0182,0.0000,-0.0000,-32.3671,6.7542,-0.0000,1500,1500,0.0000,-0.5525,-0.0637,9.9431,-10.2945,0.8175,0.0248,-0.2343,-0.0889,9.6703,-11.7418,1.2948,0.1880
584.9375,-0.5592,1.2816,109.1814,-13.0525,0.0000,-0.0000,-53.6222,11.1896,-0.0000,1500,1500,0.0000,-0.5214,0.0368,9.8306,-12.2106,0.8023,-0.2805,-0.4354,-0.0027,9.5267,-13.8945,1.0964,0.1804
584.9560,-0.8265,1.3629,109.1775,-14.5449,-2.8525,-56.9515,68.9137,16.5386,0.0000,1500,1500,0.0000,-0.5693,-0.0877,9.7827,-13.9510,0.1229,-0.2423,-0.4497,-0.0099,9.7374,-15.1387,0.5239,-0.1250
584.9744,-1.1000,1.4225,109.1665,-15.2357,-6.2907,-85.5575,119.8306,22.0108,22.5472,1511,1488,1.0000,-0.5142,-0.0996,9.8162,-14.6915,-0.2130,-0.7767,-0.4234,-0.1823,9.5770,-15.7800,0.1651,-0.4150
584.9929,-1.3801,1.4487,109.1494,-15.8540,-7.7252,-77.7258,65.0426,27.6268,4.3985,1502,1497,1.0000,-0.4232,-0.1236,9.7970,-15.2335,-0.8619,-1.0133,-0.4234,-0.1536,9.4860,-16.4746,-0.4990,-0.8731
585.0113,-1.6597,1.4570,109.1273,-15.1556,-8.8397,-60.5787,-16.5127,33.2351,-21.2411,1489,1510,1.0000,-0.3682,-0.2409,9.7635,-15.8671,-1.2894,-1.3950,-0.3588,-0.2039,9.7781,-14.4441,-0.6212,-1.0334
585.0298,-1.9175,1.4759,109.1042,-15.1212,-9.7820,-50.9556,-73.8973,38.4111,-39.8968,1480,1519,1.0000,-0.3801,-0.1786,9.7731,-15.0121,-0.7245,-1.4561,-0.3396,-0.2039,9.5674,-15.2303,-0.2471,-1.1173
585.0482,-2.1847,1.5015,109.0713,-13.3731,-10.3206,-29.1784,-167.3587,43.7762,-68.7485,1465,1534,1.0000,-0.3753,-0.4181,9.6486,-13.5006,-0.2970,-1.9294,-0.2845,-0.1153,9.5650,-13.2456,0.2185,-1.5601
585.0667,-2.3802,1.5534,109.0508,-11.8350,-10.5478,-12.3165,-238.4184,47.7101,-90.6122,1454,1545,1.0000,-0.4927,-0.2600,9.6007,-11.8442,-0.3046,-0.2652,-0.3779,-0.2517,9.3806,-11.8258,0.2948,-1.8960
585.0851,-2.5513,1.5831,109.0070,-9.6899,-10.4191,6.9793,-313.6785,51.1575,-113.4087,1443,1556,1.0000,-0.4089,-0.3558,9.4858,-9.7220,-0.6558,-2.4942,-0.2438,-0.3044,9.5937,-9.6578,0.4399,-2.2929
585.1035,-2.6690,1.6312,108.9606,-7.4647,-9.9760,24.0843,-376.4908,53.5392,-132.1870,1433,1566,1.0000,-0.5453,-0.3271,9.5121,-7.5083,-0.7703,-2.6469,-0.0786,-0.4265,9.2944,-7.4212,-0.3540,-2.4990
585.1219,-2.8058,1.6465,108.9102,-4.5602,-9.1636,44.1209,-449.9329,56.3022,-154.1323,1422,1577,1.0000,-0.3442,-0.6910,9.7109,-4.2869,1.0007,-2.7767,-0.2510,-0.5199,9.4046,-4.8334,-0.4990,-2.5372
585.1404,-2.8592,1.7193,108.8596,-2.8846,-8.2217,51.0989,-476.1714,57.3983,-162.0271,1418,1581,1.0000,-0.7081,-0.4731,9.6151,-3.9739,-0.9535,-2.7996,-0.5671,-0.4098,9.3711,-1.7952,-1.0487,-2.7891
585.1588,-2.7993,1.7981,108.8135,1.3559,-6.7851,78.0826,-546.9957,56.2290,-181.2733,1409,1590,1.0000,-0.8422,-0.3223,9.9575,1.2627,-1.5413,-2.6469,0.2613,-0.4552,9.1604,1.4490,-1.5830,-2.6440
585.1772,-2.6878,1.9089,108.7699,6.9742,-2.8790,68.1817,-505.6526,54.0263,-157.5551,1421,1578,0.9345,-0.8709,-0.5689,9.9934,6.9497,1.0465,-2.1355,0.2063,-0.2996,8.9880,6.9987,-0.9571,-2.5219
585.1957,-2.4981,1.9228,108.7319,10.2452,0.0000,0.0000,-287.4537,50.2562,-88.9977,1455,1544,0.8427,-0.4424,-0.4540,9.8162,9.8276,-0.8084,-1.7309,-0.2079,-0.3762,9.0478,10.6628,-0.0945,-2.3998
585.2141,-2.3107,1.8924,108.6998,12.2337,0.0000,0.0000,-265.8986,46.5330,-70.9004,1464,1535,0.7256,-0.2269,-0.5737,9.4212,13.3238,-0.7092,-1.5171,0.2877,-0.6324,9.3878,11.1437,-0.0334,-1.8273
585.2325,-2.0841,1.8748,108.6760,13.4513,0.0000,0.0000,-239.8140,42.0203,-49.6245,1475,1524,0.5629,-0.2772,-0.4923,9.9934,14.5146,-0.4802,-1.2194,0.1464,-0.5965,9.6296,12.3880,0.0658,-1.2929
585.2510,-1.8684,1.8044,108.6570,12.7872,0.1987,5.1563,-229.8476,37.7257,-33.4441,1483,1516,0.4019,0.0293,-0.4564,10.0748,13.9803,0.2221,-1.0668,-0.2151,-0.5558,9.2633,11.5941,0.2719,-0.8654
585.2694,-1.7167,1.7485,108.6465,10.7795,2.3592,31.0354,-286.9247,34.7092,-28.6461,1485,1514,0.2932,-0.0449,-0.5378,9.8713,12.1406,0.2832,-0.7843,-0.2031,-0.4744,9.0766,9.4185,-0.2013,-0.2013
585.2878,-1.6108,1.6812,108.6443,6.9780,3.4223,13.8721,-225.3066,32.6070,-17.6914,1491,1508,0.2228,-0.0593,-0.4061,9.9958,8.7131,-1.0298,-0.1584,-0.2582,-0.1057,9.1556,5.2429,-0.7586,-0.0486
585.3062,-1.5380,1.6514,108.6437,1.9398,2.1419,-11.5856,-143.6116,31.1664,-9.9403,1495,1504,0.1782,-0.2221,-0.1020,10.2304,4.2627,-1.0603,-0.0515,-0.4090,0.0092,9.2801,-0.3830,-0.5372,-0.1784
585.3247,-1.5203,1.6733,108.6528,-3.7395,0.0542,-1.1182,-171.7171,30.8270,-10.6549,1494,1505,0.1678,-0.4208,0.1446,9.8354,-2.2029,-0.1214,0.1775,-0.5264,0.1553,9.2466,-5.2761,-0.7662,0.4934
585.3431,-1.6000,1.6454,108.6656,-8.7395,0.0000,-0.0000,-184.1156,32.4382,-14.6402,1492,1507,0.2160,-0.2820,0.1206,9.7635,-7.1571,-1.4344,0.3607,-0.1720,0.0380,9.2346,-10.3219,-1.4990,0.6842
585.3615,-1.8044,1.6447,108.6814,-14.0602,0.0000,-0.0000,-207.6339,36.5438,-27.1394,1486,1513,0.3552,-0.3897,-0.0206,9.9503,-12.3861,-2.1367,0.4523,-0.3731,-0.0794,9.9983,-15.7342,-0.3922,1.0430
585.3800,-2.0970,1.7012,108.7013,-17.4495,-0.1437,-5.7207,-224.8217,42.4156,-48.1797,1475,1524,0.5725,-0.5525,-0.1739,10.0006,-16.2029,-0.4649,0.8722,-0.4282,-0.2062,9.7038,-18.6960,0.4857,1.2415
585.3985,-2.4859,1.7401,108.7222,-22.1899,-6.1958,-153.1205,154.9368,50.2187,18.2730,1509,1490,1.0000,-0.5717,-0.2720,9.8449,-20.5083,-1.5871,0.9485,-0.5000,-0.1129,9.3567,-23.8716,-0.7357,1.2491
585.4169,-2.9524,1.8051,108.7430,-26.5525,-9.2493,-165.8313,137.8615,59.5782,8.8121,1504,1495,1.0000,-0.6387,-0.3343,10.1179,-24.5083,-1.8848,1.1088,-0.3947,-0.2613,9.5626,-28.5968,1.4323,1.1956
585.4354,-3.4686,1.8754,108.7623,-29.3311,-12.2616,-163.1400,70.7065,69.9372,-15.1708,1492,1507,1.0000,-0.5166,-0.3965,9.8880,-28.0808,0.0236,0.9638,-0.4473,-0.3499,9.5123,-30.5815,2.7987,1.3483
585.4538,-4.0819,1.8864,108.7821,-31.8388,-15.1982,-158.8968,-12.0901,82.2436,-44.5071,1477,1522,1.0000,-0.4496,-0.7149,9.7300,-30.7755,-1.1825,0.9027,-0.4186,-0.4241,9.3399,-32.9021,-0.8044,1.3941
585.4723,-4.6491,1.8675,108.8054,-30.8350,-17.5437,-127.2218,-168.5894,93.6341,-94.0221,1452,1547,1.0000,-0.3825,-0.7054,9.8904,-30.4548,-2.4802,0.7577,-0.2893,-0.6133,9.5746,-31.2151,-1.0029,1.6613
585.4908,-5.1600,1.8458,108.8325,-28.1327,-19.1320,-85.8351,-346.5870,103.9047,-148.9967,1425,1574,1.0000,-0.2700,-0.7580,9.7635,-28.4777,-1.2588,0.9790,-0.1217,-0.5558,9.7350,-27.7876,-0.1097,1.9208
585.5092,-5.5979,1.7942,108.8575,-25.0449,-20.0190,-48.0482,-505.8135,112.7191,-197.9873,1401,1598,1.0000,-0.1551,-0.7413,9.4212,-24.8976,-1.3046,0.9180,-0.0284,-0.9437,9.4501,-25.1922,-0.8349,1.5926
585.5277,-6.0595,1.7726,108.8836,-23.9991,-20.6160,-32.2860,-604.3357,122.0116,-230.2198,1384,1615,1.0000,-0.1407,-1.0118,9.4762,-24.0350,-0.7932,1.2539,-0.2007,-1.1232,9.7422,-23.9632,1.9513,1.8445
585.5461,-6.5077,1.7838,108.9087,-21.2548,-20.7118,-5.2022,-733.9226,131.0403,-271.0185,1364,1635,1.0000,-0.1766,-1.2393,9.2368,-21.6686,0.8633,1.4447,-0.0547,-1.0610,9.5434,-20.8410,2.8903,1.9895
585.5647,-6.7941,1.4713,108.9405,-15.8808,-19.9872,39.0869,-894.4375,136.8358,-318.8604,1340,1659,1.0000,1.2192,-1.0453,9.4523,-17.1648,1.0313,1.4294,-0.2079,-1.0155,9.7062,-14.5968,0.4781,2.1804
585.5831,-6.9880,1.6142,108.9830,-9.4647,-18.4088,85.5591,-1050.5996,140.7843,-364.5600,1317,1682,1.0000,-0.9978,-1.2273,9.5887,-11.4930,0.8404,1.7119,-1.3140,-1.0179,9.2753,-7.4365,-4.1326,2.7682
585.6015,-7.1022,1.2639,109.0225,-2.8350,-16.0727,127.1223,-1183.4490,143.1397,-402.9355,1298,1701,1.0000,1.3868,-1.5050,10.0436,-6.3556,0.1076,1.9638,-0.8639,-1.5422,10.0223,0.6857,-2.4151,2.3483
585.6199,-7.1731,1.2421,109.0773,-0.1136,-13.6788,130.0295,-1199.9766,144.6283,-408.3076,1295,1704,1.0000,-0.3394,-1.4524,9.4068,-3.8518,-1.7703,2.5668,0.3834,-1.3196,10.2809,3.6246,-4.4685,2.8979
585.6384,-6.9858,1.3268,109.1392,8.0620,-10.4177,176.5515,-1312.4037,140.9527,-437.9494,1281,1718,1.0000,-0.6674,-0.9735,9.1746,5.9192,-1.0298,3.1623,-1.4050,-0.5462,10.0606,10.2048,-2.7662,3.0277
585.6568,-6.8494,0.7608,109.1986,11.9971,-7.0555,182.5928,-1314.0960,138.2921,-437.0930,1281,1718,1.0000,2.4570,-1.5649,9.7013,8.5910,-2.6634,3.3149,-0.2582,-1.2238,12.9959,15.4032,1.0506,3.3483
585.6754,-6.4855,0.6733,109.2603,15.1994,-0.5359,25.9319,-821.0270,131.0790,-295.4270,1352,1647,1.0000,0.3980,-0.6575,8.9184,10.7665,0.7946,3.3226,0.8000,-1.3004,11.0925,19.6323,2.6689,3.7834
585.6938,-6.0446,0.6867,109.3279,16.2376,0.0000,0.0000,-695.6024,122.3225,-255.9299,1372,1627,1.0000,0.0125,-0.5378,10.8337,17.4001,1.6801,3.9180,-0.5910,-0.0027,9.4908,15.0750,1.6155,3.6995
585.7122,-5.6946,0.4311,109.3974,22.6841,0.0000,0.0000,-655.3169,115.3791,-241.1783,1379,1620,1.0000,1.1450,-1.2201,9.0357,19.7131,1.3977,3.5439,0.0937,-0.9077,12.2010,25.6552,0.6460,4.7605
585.7306,-4.9379,0.2844,109.4699,25.3788,6.1759,184.2905,-1098.9815,100.2939,-357.8618,1321,1678,1.0000,0.7571,0.4223,8.4778,20.7818,0.8175,3.9027,-0.3205,-0.2206,10.8962,29.9758,5.0200,4.8445
585.7490,-4.3206,0.0348,109.5490,23.4398,8.7655,140.6095,-902.1472,87.9926,-296.5975,1351,1648,1.0000,1.0372,0.0249,10.1538,24.1711,-6.1061,4.3149,3.0027,-0.7880,10.1109,22.7086,5.6689,4.3483
585.7674,-3.6939,0.3771,109.6303,24.5200,11.1287,128.5186,-795.1984,75.4946,-260.4028,1369,1630,1.0000,-1.4671,0.0488,8.5114,27.4154,-4.5260,4.8111,0.4505,-0.1464,11.1236,21.6246,4.3330,3.8292
585.7858,-3.1734,0.0908,109.7226,26.6002,13.4494,125.9746,-727.9740,65.1164,-236.3909,1381,1618,1.0000,1.3844,-0.5426,9.9311,28.7055,-0.1825,5.7653,0.2063,0.3995,8.4780,24.4948,1.3635,4.4399
585.8042,-2.6655,0.0264,109.8054,22.0696,14.7424,70.1510,-508.7548,54.9850,-169.9438,1415,1584,1.0000,0.5608,-0.0805,10.7715,22.1177,-0.1748,5.2310,1.1855,-0.0434,8.4397,22.0216,6.7758,3.9208
585.8226,-1.8891,0.1837,109.8961,26.1918,16.4598,93.4836,-486.6160,39.4768,-155.9909,1422,1577,1.0000,-0.6746,0.9179,10.3262,28.6673,-1.9382,5.9485,-1.2015,1.6038,10.5610,23.7162,5.1727,3.6918
585.8410,-1.1004,0.1435,109.9822,30.1192,18.5087,111.1827,-372.3547,23.7126,-116.1156,1441,1558,1.0000,0.2017,0.6019,7.5633,29.9650,1.6954,4.6432,-1.0986,0.1529,10.5993,30.2735,-0.5525,5.0811
585.8595,-0.2158,0.2917,110.0596,27.8444,19.9091,75.8821,-243.3715,6.0230,-71.1555,1464,1535,1.0000,-0.5142,1.6912,10.4339,26.4459,4.7870,4.4142,0.4553,0.5814,8.6217,29.2429,0.3483,4.1880
585.8779,0.4713,0.3255,110.1326,34.8215,22.1460,121.6873,-296.2286,-9.4305,-78.2287,1460,1539,1.0000,-0.1503,0.1542,11.1809,38.0948,2.1229,3.9485,-0.2319,0.4593,10.3599,31.5483,-0.8273,4.2033
585.8963,1.1272,0.5720,110.1963,34.3864,23.9820,99.6819,-157.3800,-22.5549,-32.7889,1483,1516,1.0000,-0.9930,0.1901,8.5449,32.3925,2.6038,2.9714,0.1177,-0.2709,9.6631,36.3803,-0.8655,4.1346
585.9147,1.7392,0.6922,110.2639,28.6612,24.6839,38.0451,90.5606,-34.8129,42.7634,1521,1478,1.0000,-0.5860,0.6019,10.4171,28.9574,3.3442,3.8951,0.3739,0.8783,8.7150,28.3651,-0.7510,3.3254
585.9331,2.2172,0.5987,110.3367,26.1154,24.8986,11.6712,221.5223,-44.3951,84.2238,1542,1457,1.0000,0.3621,0.2715,10.1442,26.9268,-0.4115,4.4752,0.1632,0.9047,9.5985,25.3040,1.6002,3.4476
585.9516,2.7590,0.6722,110.4042,25.4971,24.9884,4.8704,303.4536,-55.2584,112.5962,1556,1443,1.0000,-0.4663,0.7551,10.6350,26.6368,0.4435,4.2691,0.2470,0.9286,9.6129,24.3574,0.5315,2.8903
585.9700,3.3719,0.7798,110.4444,29.4551,25.6584,36.3227,283.4059,-67.5509,113.1291,1556,1443,1.0000,-0.3945,0.8078,9.6917,27.6597,2.9931,1.7348,-0.3659,0.3995,8.0566,31.2506,2.1880,2.4628
585.9985,3.5383,0.7975,110.4613,28.5085,26.0859,42.5139,284.7158,-70.9129,115.1769,1557,1442,1.0000,-0.4807,-0.3845,9.5552,23.6139,-0.1214,2.0325,-0.5120,-0.4217,8.9233,33.4032,-5.2624,1.9361
586.0170,3.7550,0.7689,110.4976,22.6765,25.5745,-27.6113,511.6172,-75.2850,180.8953,1590,1409,1.0000,-0.1431,-0.4516,12.1434,24.2551,-0.8008,2.3913,-1.4864,0.1768,9.3543,21.0979,-2.4380,2.0048
586.0354,3.8448,0.6456,110.5307,19.7643,24.7030,-47.3423,578.7766,-77.1194,200.6172,1600,1399,1.0000,0.4674,-0.6264,9.5576,20.3390,4.4358,1.5592,-1.0770,-0.6181,9.8690,19.1895,-5.4074,2.5850
586.0538,3.9039,0.7668,110.5561,12.2147,22.8297,-101.9817,742.9431,-78.3411,247.1946,1623,1376,1.0000,-0.7249,-0.0877,9.2416,10.1558,0.9320,1.4752,-0.3252,0.0715,8.1093,14.2735,-3.3693,1.6384
586.0722,3.9280,1.0544,110.5698,10.6040,20.9959,-99.5224,738.6345,-78.8626,246.2489,1623,1376,1.0000,-1.6107,-0.1786,11.6286,11.7894,0.8710,0.7882,-0.3779,-0.2182,10.6232,9.4185,2.7758,0.7529
586.0906,3.9132,1.3179,110.5800,12.6231,19.7399,-68.1888,646.6879,-78.6052,220.3752,1610,1389,1.0000,-1.0290,-0.4085,8.7197,10.0108,3.5503,0.3913,-0.2127,-0.2469,9.7158,15.2353,2.7910,0.8598
586.1091,3.9127,1.3756,110.6012,14.6536,18.9770,-41.3519,569.3428,-78.6348,198.7334,1599,1400,1.0000,-0.5429,-0.5952,9.9168,13.9497,0.5045,0.7348,0.3212,-0.3068,7.6209,15.3574,-1.1326,2.5315
586.1275,3.9385,1.4959,110.6075,16.2032,18.5609,-22.5689,518.2164,-79.1901,184.6957,1592,1407,1.0000,-0.7895,-0.6958,10.5608,18.6978,0.9549,0.9256,-0.8328,-0.1871,9.8451,13.7086,0.4704,0.2949
586.1459,3.9713,1.6667,110.6067,14.0887,17.8901,-36.4688,562.0184,-79.8851,197.3077,1598,1401,1.0000,-1.1247,-0.4109,9.4092,16.5223,-0.2130,0.8493,-1.0507,-0.0482,9.1747,11.6552,-2.8044,-0.2395
586.1643,3.9655,1.7432,110.5911,6.6345,16.2018,-91.6153,720.1725,-79.8087,241.5527,1620,1379,1.0000,-1.1295,0.0871,9.7731,6.2932,-4.4039,-0.0362,-0.6149,0.0715,8.1859,6.9758,-7.3311,-0.5601
586.1827,3.9620,1.6785,110.5964,3.9895,14.3699,-99.5995,742.7644,-79.7783,247.8632,1623,1376,1.0000,-0.4472,0.2930,10.0197,6.2703,-6.1367,1.7119,-0.1002,0.7131,9.0526,1.7086,-3.6059,-0.4150
586.2011,3.9625,1.5753,110.5803,5.7795,13.0814,-70.0485,657.7190,-79.8286,224.0756,1612,1387,1.0000,0.0508,0.1901,10.3190,5.3619,-3.4573,-0.4561,0.1751,0.6916,9.1580,6.1971,0.4781,-0.7585
586.2196,4.0329,1.4514,110.5676,8.9208,12.4573,-33.8268,561.4965,-81.2760,197.8570,1598,1401,1.0000,0.1514,0.2356,8.9950,7.6673,-1.7321,-0.4408,-0.2798,0.1026,9.4261,10.1742,-1.8426,-0.3921
586.2381,4.0969,1.3743,110.5538,10.2490,12.1260,-17.8886,522.9679,-82.5984,187.7302,1593,1406,1.0000,-0.0378,0.0919,9.7492,12.5299,-2.8695,-0.5553,-0.2821,0.0044,10.2761,7.9681,-0.4990,-0.3005
586.2565,4.0804,1.3544,110.5385,2.1116,10.6239,-81.5370,704.3690,-82.3078,238.3772,1619,1380,1.0000,-0.1766,0.4391,9.9766,4.2169,-0.5947,-1.0515,-0.3755,0.2127,10.1516,0.0063,-0.2777,-0.3158
586.2749,3.9530,1.2621,110.5162,-6.8922,7.9965,-142.8648,866.3353,-79.8000,282.4739,1641,1358,1.0000,0.0029,0.6785,9.7827,-5.0045,0.0771,-1.3263,0.1153,0.5886,8.4373,-8.7800,-5.3693,-0.6898
586.2940,3.7097,1.1119,110.4807,-12.5602,3.4453,-113.1328,752.7036,-74.9703,248.2422,1624,1375,1.0000,0.0508,0.6785,10.3190,-11.2640,-4.2665,-1.5858,0.3451,1.0627,9.5554,-13.8563,-5.4990,-1.4379
586.3127,3.5011,0.9950,110.4428,-11.4533,0.0000,-0.0000,402.8751,-70.8332,148.2216,1574,1425,1.0000,0.1011,0.6905,10.1873,-11.8823,-4.3199,-1.7385,-0.1816,0.8711,10.3192,-11.0242,-1.5677,-1.9570
586.3312,3.2603,1.0254,110.3976,-11.3273,0.0000,-0.0000,375.1661,-66.0501,138.0715,1569,1430,1.0000,-0.6172,0.4798,10.1059,-11.9052,-2.6100,-2.1278,-0.0978,0.4306,9.3495,-10.7494,-4.3158,-2.2853
586.3496,2.9588,0.9730,110.3530,-14.7434,0.0000,-0.0000,340.4690,-60.0494,125.1984,1562,1437,0.9987,-0.2963,0.4367,10.7547,-12.2411,-4.0680,-2.3263,0.1751,0.4593,9.3950,-17.2456,-3.8578,-1.9494
586.3680,2.6054,0.9880,110.3159,-20.3273,-2.6638,-85.9793,547.4290,-53.0087,161.5531,1580,1419,0.8986,-0.2389,0.6282,10.6087,-17.5159,-1.2130,-1.9446,0.1057,0.9430,10.3168,-23.1387,1.8292,-2.0792
586.3865,2.1716,0.9176,110.2745,-28.3808,-8.2070,-192.7833,805.1066,-44.3546,247.6072,1623,1376,1.0000,0.1131,0.8700,9.8641,-27.2029,-0.7397,-2.4866,0.3188,0.6676,10.1971,-29.5586,-0.3922,-2.0105
586.4049,1.7322,0.8580,110.2287,-31.2090,-11.6573,-187.4463,739.1667,-35.5827,224.7580,1612,1387,1.0000,-0.0593,1.0232,9.9742,-30.2869,-2.6863,-2.9675,-0.0571,0.7490,10.6950,-32.1311,-1.5525,-1.9189
586.4233,1.2769,0.8316,110.1717,-29.2014,-14.2889,-143.0393,465.7421,-26.4908,143.6532,1571,1428,1.0000,0.0053,0.7264,10.4842,-28.3785,-0.6710,-3.6316,-0.0691,0.6317,10.7549,-30.0242,1.3254,-2.5219
586.4418,0.8693,0.9273,110.1132,-24.1556,-15.7689,-80.0542,275.4889,-18.3468,86.3103,1543,1456,1.0000,-0.5860,0.4343,10.1825,-24.4930,0.7870,-3.9523,-0.3420,-0.1560,10.0726,-23.8181,-0.3922,-2.1784
586.4602,0.3547,1.0094,110.0546,-23.1632,-16.8781,-60.1658,178.4059,-7.0966,53.5020,1526,1473,1.0000,-0.6531,-0.2624,9.9910,-22.3709,-1.0909,-3.3645,-0.5024,-0.3619,10.2402,-23.9555,-1.2700,-2.5830
586.4786,-0.2594,1.0675,109.9967,-27.6098,-18.4878,-87.5902,222.4055,5.1916,59.6777,1529,1470,1.0000,-0.6052,-0.4971,10.8385,-25.7831,-1.3123,-2.9675,0.0459,-0.2110,10.4628,-29.4365,-0.7968,-2.8960
586.4970,-0.8800,1.1761,109.9400,-33.2701,-20.7052,-120.2912,245.1747,17.6093,59.8443,1529,1470,1.0000,-0.6339,-0.0996,11.1043,-32.1648,0.8939,-2.9599,-0.3683,0.2870,9.7565,-34.3754,2.3635,-2.9189
586.5155,-1.3523,1.2241,109.8992,-31.1899,-22.2779,-85.2221,89.8278,27.0601,11.6217,1505,1494,1.0000,-0.3083,0.3457,10.5081,-30.5694,1.8099,-3.0744,-0.4258,0.6365,9.5865,-31.8105,1.3406,-1.2547
586.5339,-1.7271,1.2845,109.8466,-25.5983,-22.7759,-27.0577,-120.8066,34.5721,-51.1119,1474,1525,1.0000,-0.2844,0.2356,9.9814,-27.1800,1.4511,-2.8377,-0.5527,0.4162,9.5913,-24.0166,3.6994,-2.9189
586.5523,-1.8887,1.3992,109.7975,-13.9456,-21.4514,72.2005,-425.2737,37.8244,-137.9888,1431,1568,1.0000,-0.4400,0.1637,9.6773,-15.8594,3.4053,-2.7996,-0.7227,0.0499,10.3287,-12.0319,3.9208,-2.5066
586.5707,-1.9727,1.4783,109.7621,-7.4800,-19.3557,113.6237,-554.2304,39.5227,-174.9458,1412,1587,1.0000,-0.3753,-0.0589,9.2823,-8.0197,3.1305,-2.1355,-0.5575,-0.1775,9.8140,-6.9403,1.7300,-1.6364
586.5891,-2.1020,1.5516,109.7262,-9.4037,-17.8629,80.9965,-475.1473,42.1304,-154.1065,1422,1577,1.0000,-0.6195,-0.1403,10.2902,-8.2029,0.9397,-2.1736,-0.0379,-0.2589,9.9935,-10.6044,-0.5754,-1.7891
586.6075,-2.2716,1.5892,109.6869,-11.3960,-16.8929,52.7594,-413.3435,45.5457,-138.5090,1430,1569,1.0000,-0.3586,-0.1858,10.0341,-10.3785,1.5885,-2.3416,-0.2199,0.1505,9.8906,-12.4135,0.6842,-1.9112
586.6260,-2.3862,1.7354,109.6487,-12.2624,-16.1983,37.6636,-383.0535,47.8612,-131.1856,1434,1565,1.0000,-0.9260,0.1326,9.6438,-12.1113,2.9091,-2.1889,0.2039,0.1337,8.9209,-12.4135,-2.2929,-2.2242
586.6444,-2.4169,1.8446,109.6167,-7.8464,-14.9455,67.8295,-473.4634,48.4993,-156.8194,1421,1578,1.0000,-0.7177,0.1254,9.6007,-7.6381,-0.1367,-2.0439,-0.1361,0.0188,9.2944,-8.0548,2.4094,-1.6822
586.6629,-2.2865,1.9405,109.5975,-0.5716,-12.7894,116.9879,-600.0337,45.9141,-190.9665,1404,1595,1.0000,-0.5812,0.2308,9.2272,0.1787,0.5351,-1.1355,-0.3205,0.0164,10.2761,-1.3219,3.2796,-1.3005
586.6812,-2.0970,2.0188,109.5838,5.1345,-10.1008,146.2065,-662.3758,42.1449,-206.5376,1396,1603,1.0000,-0.4759,0.0512,9.3038,5.1024,2.0084,-0.7156,0.3116,0.0571,9.5386,5.1666,3.0811,-0.9341
586.6997,-1.8640,1.9874,109.5732,7.6002,-7.4457,143.9624,-629.1073,37.5046,-194.9023,1402,1597,1.0000,-0.0330,0.0632,10.2879,9.3238,1.4893,-0.2729,-0.0116,0.1385,9.3495,5.8765,2.5849,-1.1097
586.7181,-1.6641,1.9606,109.5425,6.7108,-4.6300,100.2479,-480.2020,33.5224,-85.4101,1457,1542,0.5648,-0.0138,0.0153,10.1777,8.8887,1.6419,-0.4942,-0.2965,0.4402,9.1292,4.5330,3.1880,-3.1784
586.7365,-1.4674,1.9769,109.5262,4.5620,-0.7338,15.3761,-213.1372,29.6032,-10.3025,1494,1505,0.1383,-0.2532,0.2332,9.9646,5.7360,1.5045,-0.9294,-0.7275,0.3612,9.3543,3.3880,2.1498,-1.1479
586.7550,-1.2491,2.0101,109.5108,5.8024,0.0000,0.0000,-143.7318,25.2492,-2.2559,1498,1501,0.0427,-0.3466,0.2571,9.5145,5.9726,1.8023,-0.9752,-0.3420,0.3588,9.6512,5.6323,1.3712,-1.0181
586.7734,-0.9644,2.0125,109.5000,9.3024,0.0000,0.0000,-110.9722,19.5650,-0.0000,1500,1500,0.0000,-0.1670,0.3194,9.5265,8.2398,1.6801,-1.0668,-0.1840,-0.0147,9.4381,10.3651,2.6994,-0.3540
586.7918,-0.6489,1.9622,109.4889,13.5353,0.0000,0.0000,-62.2195,12.9836,-0.0000,1500,1500,0.0000,0.1753,0.1565,9.7468,12.7971,3.2374,-0.9675,0.1823,-0.1703,9.7134,14.2735,3.5010,-0.2624
586.8103,-0.3599,1.9910,109.4735,15.6192,0.3833,12.2208,-63.8400,7.2014,-0.0000,1500,1500,0.0000,-0.1862,-0.1068,9.6390,15.7818,3.4053,-0.8225,-0.5000,0.0811,9.2729,15.4567,2.9742,-0.7433
586.8287,-0.1136,2.0440,109.4565,13.2070,3.8427,59.5697,-153.8649,2.2741,-8.5073,1495,1504,0.1924,-0.4591,-0.0541,9.9838,14.1635,1.6496,-0.9446,-0.4904,0.0787,9.1532,12.2506,1.5010,-0.8731
586.8471,0.0787,2.0972,109.4500,9.8101,5.6580,38.1231,-83.9448,-1.5757,-21.8983,1489,1510,0.9640,-0.4711,0.0225,10.0939,11.5833,1.6267,-1.1889,-0.3492,0.1888,8.9473,8.0368,1.6842,0.5926
586.8655,0.1982,2.0773,109.4241,6.2223,5.7769,3.7189,10.0770,-3.9653,4.7285,1502,1497,0.9842,-0.2006,0.0344,9.8042,6.8047,0.7259,-1.2423,-0.1002,0.1194,8.6049,5.6399,0.8521,-1.6135
586.8839,0.2867,2.0283,109.4158,5.3253,5.6458,-4.0304,37.1687,-5.7377,12.7645,1506,1493,0.9615,-0.1048,-0.0158,9.5265,5.6139,-0.3199,-1.3110,-0.1744,0.2079,9.0407,5.0368,0.8445,0.6079
586.9023,0.4515,2.0046,109.3802,8.3864,6.1495,21.4870,-8.2770,-9.0339,2.1994,1501,1498,1.0000,-0.1192,0.1039,9.6678,7.9650,1.1381,-0.9981,-0.1002,0.1816,8.8898,8.8078,1.5849,-3.0868
586.9207,0.6793,1.9807,109.3789,10.0238,6.7307,31.5201,-12.6140,-13.5923,3.2643,1501,1498,1.0000,-0.1192,0.2715,9.4259,9.7360,3.0160,-0.8912,-0.3085,0.1026,9.1173,10.3116,-0.8655,0.7071
586.9392,0.8630,1.9867,109.3637,9.1269,7.0901,19.5000,43.1396,-17.2678,20.7130,1510,1489,1.0000,-0.3945,0.1757,9.2440,10.1864,-0.9000,-0.9141,-0.2414,0.0667,9.6344,8.0674,-0.1861,-0.7509
586.9576,0.9611,1.9606,109.3424,6.2452,6.9634,-6.8750,130.3982,-19.2325,46.1278,1523,1476,1.0000,-0.2461,0.0727,9.4403,6.7207,-0.5336,-1.1278,-0.1624,-0.2206,9.4285,5.7697,-0.3006,-1.1021
586.9762,0.9783,1.8994,109.3158,3.5505,6.4515,-27.5441,191.8968,-19.5753,63.5188,1531,1468,1.0000,-0.1000,-0.0541,9.6414,3.5910,-0.3504,-1.5477,-0.1744,-0.1344,9.4525,3.5101,-0.8960,-1.0715
586.9947,0.9756,1.8256,109.2917,3.0047,5.9261,-27.8236,192.3963,-19.5222,63.5180,1531,1468,0.9982,-0.0521,-0.0925,9.3278,3.2398,-1.1901,-1.4332,-0.2127,-0.2302,9.8355,2.7697,-0.5219,-0.8960
587.0133,0.9807,1.8790,109.2743,1.7605,4.5920,-29.2419,197.0662,-19.6240,35.4802,1517,1482,0.5459,-0.4663,0.0392,9.5073,1.7207,0.3061,-1.0515,-0.1313,0.1361,9.5315,1.8002,1.7605,-0.7433
587.0317,1.0046,1.9306,109.2601,0.7337,2.5928,-20.8849,175.7520,-20.1029,0.0010,1500,1499,0.0000,-0.4879,0.1949,9.3733,2.1558,0.8633,-0.9065,-0.4186,0.5144,9.2633,-0.6884,0.3101,-0.6746
587.0501,1.0717,1.9022,109.2436,1.5887,1.4014,-8.3006,147.2291,-21.4554,0.1957,1500,1499,0.0038,-0.3155,0.3337,9.4523,2.3390,-1.7092,-0.9294,-0.1146,0.3444,9.5626,0.8384,-1.2013,-0.9418
587.0685,1.0680,1.8545,109.2284,0.4589,0.3882,-3.2520,132.2648,-21.3923,0.1620,1500,1499,0.0034,-0.2245,0.1302,9.9359,1.2169,-1.9229,-0.7767,-0.1529,-0.0219,9.6679,-0.2990,-0.7586,-0.7738
587.0871,0.9550,1.8338,109.2135,-3.5792,0.0000,-0.0000,109.8912,-19.1410,0.0000,1500,1500,0.0000,-0.3538,-0.0350,9.7396,-1.9205,-1.9535,-0.7309,-0.3109,-0.1823,9.3184,-5.2380,-1.1555,-0.6364
587.1055,0.7664,1.8247,109.2020,-7.6289,0.0000,-0.0000,73.4918,-15.3359,0.0000,1500,1500,0.0000,-0.4065,-0.0637,9.4882,-6.2411,-2.2665,-0.5935,-0.4090,0.0212,9.4094,-9.0166,-1.1632,-0.4074
587.1239,0.5718,1.7732,109.1924,-10.2815,0.0000,-0.0000,54.8295,-11.4415,0.0000,1500,1500,0.0000,-0.1359,0.1039,9.8928,-9.3251,-1.3352,-0.6774,0.0243,0.0499,9.6703,-11.2380,0.0200,-0.3005
587.1423,0.3723,1.6953,109.1820,-10.7281,0.0000,-0.0000,35.7001,-7.4497,0.0000,1500,1500,0.0000,0.0269,0.0919,9.8784,-10.3403,-0.1367,-0.7385,0.1033,0.0308,9.5794,-11.1158,-0.5906,-0.3463
587.1607,0.0995,1.5702,109.1773,-11.0792,-0.2859,-5.8775,23.6504,-1.9917,0.0000,1500,1500,0.0000,0.0700,-0.2553,9.6486,-10.8442,-2.3123,-0.5400,0.0698,-0.1727,9.6081,-11.3143,-2.8884,0.3407
587.1791,-0.1522,1.4527,109.1598,-10.0182,-2.2468,-26.4703,48.9297,3.0464,0.0000,1500,1500,0.0000,0.0413,-0.2936,9.8545,-10.1877,-3.0451,-2.1431,0.0291,-0.4576,9.8307,-9.8487,-2.4838,0.5850
587.1975,-0.4071,1.3518,109.1652,-8.4189,-3.9598,-24.9041,20.7359,8.1454,0.4188,1500,1499,0.2416,0.0436,-0.4971,9.9263,-8.5999,-2.3046,0.2004,0.0914,-0.5678,9.6943,-8.2380,-1.8273,0.6842
587.2159,-0.6548,1.2513,109.1736,-7.6327,-5.0149,-19.0327,-20.5341,13.1027,-9.1930,1495,1504,0.7473,0.1011,-0.5761,9.8808,-7.0655,-1.7626,0.5134,0.0961,-0.6396,9.7757,-8.1998,-1.4151,0.6689
587.2343,-0.9148,1.1750,109.1866,-8.6403,-5.9384,-25.8426,-30.8343,18.3044,-17.7636,1491,1508,0.9988,0.1083,-0.6096,10.2088,-8.2869,-0.7168,0.5363,0.2709,-0.6228,9.8906,-8.9937,-0.0639,1.1575
587.2527,-1.1445,1.0385,109.2014,-8.1708,-6.2784,-18.1759,-79.3461,22.9007,-33.6673,1483,1516,1.0000,0.4459,-0.5402,10.0077,-8.2945,-0.4497,0.6508,0.4577,-0.5414,10.1492,-8.0471,0.4781,1.1651
587.2710,-1.3195,0.9178,109.2265,-5.5983,-6.1764,5.5447,-167.8010,26.4143,-60.1914,1469,1530,1.0000,0.3980,-0.5354,9.8186,-6.2564,-0.4420,1.2081,0.3092,-0.3667,10.1947,-4.9403,0.6918,1.6918
587.2895,-1.4183,0.8441,109.2586,-1.3121,-4.9593,36.0467,-267.0202,28.4053,-64.2787,1467,1532,0.7225,0.1729,-0.5881,10.0460,-1.6228,-0.3275,1.8264,0.2063,-0.6085,10.0247,-1.0013,-0.1250,1.7758
