timestamp,roll_deg,pitch_deg,yaw_deg,omega_raw,omega_filtered,alpha,tau_ff,tau_pid,tau_total,pwm_left,pwm_right,deadzone_factor,accel1_x,accel1_y,accel1_z,gyro1_x,gyro1_y,gyro1_z,accel2_x,accel2_y,accel2_z,gyro2_x,gyro2_y,gyro2_z
639.5433,2.2825,1.2762,86.4207,-10.1060,0.0000,-0.0000,262.6508,-46.2874,68.2850,1500,1500,0.7063,0.0963,0.2092,9.7204,-9.1190,0.8481,-4.4484,-0.0475,0.1696,9.5075,-11.0929,1.1498,-3.9036
639.5629,1.9453,1.2169,86.3390,-12.9342,0.0000,-0.0000,223.8470,-39.5627,37.8506,1500,1500,0.4590,0.1681,0.0416,9.6558,-12.0426,1.1076,-4.3568,-0.0260,0.1433,9.4884,-13.8258,1.5086,-3.8960
639.5818,1.6171,1.2363,86.2575,-15.1098,-1.2194,-30.7704,274.6995,-33.0148,21.1948,1500,1500,0.2269,-0.1694,0.1494,9.6869,-14.5235,1.0160,-4.4332,-0.2414,0.1242,9.6248,-15.6960,1.5544,-4.1784
639.6012,1.2508,1.2612,86.1750,-15.9953,-5.8418,-91.7092,408.0552,-25.7018,126.0835,1500,1500,0.9920,-0.1934,0.0392,9.7013,-15.4548,1.0313,-4.4561,-0.2390,0.0954,9.4740,-16.5357,1.6231,-3.9876
639.6197,0.9135,1.2678,86.0954,-16.0869,-7.4048,-82.6216,285.8923,-18.9650,89.5324,1500,1500,1.0000,-0.1168,0.0464,9.6965,-15.6762,1.1610,-4.5095,-0.2965,0.0092,9.4908,-16.4975,1.5620,-4.0257
639.6382,0.5666,1.3224,86.0209,-16.4304,-8.7586,-73.1556,229.9050,-11.3376,70.0422,1500,1500,1.0000,-0.2820,-0.0278,9.5959,-15.8900,3.0084,-4.1736,-0.3564,-0.0482,9.3902,-16.9708,1.2567,-3.8044
639.6568,0.2215,1.3697,85.9446,-17.1670,-10.0199,-68.0084,184.4592,-4.4320,53.8646,1500,1500,1.0000,-0.3801,-0.0110,9.5265,-16.7831,0.5427,-4.2423,-0.4019,-0.1344,9.5937,-17.5510,0.6307,-3.8960
639.6753,-0.1428,1.4436,85.8659,-16.9495,-11.0593,-56.2522,121.3151,2.8568,32.5398,1500,1500,1.0000,-0.5166,-0.1810,9.5983,-16.6686,0.2450,-4.2881,-0.4928,-0.2589,9.7278,-17.2303,0.8597,-4.0410
639.6937,-0.5065,1.5048,85.7927,-15.9227,-11.7888,-39.5701,55.6742,10.1360,10.5208,1500,1500,1.0000,-0.4663,-0.3367,9.6797,-15.8442,0.6114,-4.2347,-0.4713,-0.3140,9.6081,-16.0013,0.7987,-3.5066
639.7122,-0.8326,1.5215,85.7200,-14.5373,-12.2011,-22.3243,-31.5069,16.6593,-17.1516,1500,1500,1.0000,-0.2987,-0.3319,9.5241,-14.5846,0.0694,-4.0973,-0.2726,-0.4648,9.5937,-14.4899,0.6231,-3.5982
639.7306,-1.1324,1.5331,85.6508,-13.7128,-12.4279,-12.3189,-94.8213,22.6585,-37.8792,1500,1500,1.0000,-0.2844,-0.3630,10.3166,-13.0808,0.9702,-3.8225,-0.1864,-0.5199,9.7493,-14.3448,0.2948,-3.5295
639.7490,-1.3804,1.5185,85.5841,-9.4151,-11.9759,24.5681,-229.5944,27.6325,-78.1027,1500,1500,1.0000,-0.1934,-0.5043,9.1674,-10.2411,0.1992,-3.8148,-0.5024,-0.5678,9.5722,-8.5891,-0.4151,-3.2471
639.7675,-1.5524,1.5720,85.5194,-7.8502,-11.3571,33.3841,-274.7779,31.0883,-92.4819,1500,1500,1.0000,-0.5310,-0.3319,9.2536,-8.7220,-0.4344,-3.8759,-0.4473,-0.5989,9.7134,-6.9784,-0.5983,-3.0944
639.7859,-1.7219,1.5873,85.4557,-6.0563,-10.5620,43.1306,-322.3561,34.4961,-107.5077,1500,1500,1.0000,-0.3562,-0.5186,9.6199,-6.0350,0.0313,-3.5095,-0.3731,-0.4241,9.9265,-6.0777,-0.3387,-3.2471
639.8044,-1.8687,1.5432,85.3943,-4.9876,-9.7258,45.2368,-345.3123,37.4504,-115.4127,1500,1500,1.0000,-0.0928,-0.5474,9.8832,-5.2793,0.2068,-3.4026,-0.1864,-0.4864,9.7374,-4.6960,-0.5601,-3.1173
639.8229,-1.9673,1.4901,85.3411,-3.1594,-8.7409,53.2782,-379.8143,39.4415,-126.0688,1500,1500,1.0000,-0.0617,-0.4971,9.7300,-3.4014,-0.2741,-3.1126,-0.2989,-0.5199,10.0821,-2.9174,-0.6365,-2.5906
639.8414,-2.0360,1.4681,85.2931,-2.0525,-7.7376,54.3704,-390.8726,40.8372,-129.8629,1500,1500,1.0000,-0.2245,-0.4755,9.7851,-2.4090,-0.4726,-2.7538,-0.2079,-0.4816,9.8427,-1.6960,-0.9800,-2.4379
639.8597,-2.0545,1.4220,85.2498,-1.2586,-6.7658,52.8378,-388.5797,41.2264,-129.4155,1500,1500,1.0000,-0.1479,-0.3247,9.9431,-1.0274,-1.1977,-2.6087,-0.1648,-0.3260,9.8882,-1.4899,-1.1861,-2.2242
639.8782,-2.0727,1.3585,85.2082,-1.0144,-5.8850,46.6607,-372.8873,41.6117,-124.6760,1500,1500,0.9957,-0.0234,-0.3486,9.9670,-0.7220,-1.0222,-2.4866,0.0123,-0.3619,9.9217,-1.3067,-0.5677,-2.1173
639.8966,-2.1061,1.3170,85.1689,-2.0525,-4.6389,27.2520,-320.8330,42.3006,-64.2888,1500,1500,0.5793,-0.0952,-0.3343,9.9742,-1.5617,-0.5642,-2.3645,-0.0523,-0.2517,9.7876,-2.5433,-0.5143,-1.9723
639.9150,-2.1609,1.2639,85.1355,-4.0373,-4.0924,8.3792,-272.7924,43.4194,-60.7841,1500,1500,0.6197,-0.0162,-0.2672,9.9838,-3.1190,-0.5184,-2.0286,0.0602,-0.2374,9.8283,-4.9555,-0.2090,-1.7051
639.9335,-2.2545,1.1929,85.1062,-6.6861,-4.7465,-11.1678,-227.2683,45.3141,-59.2645,1500,1500,0.6868,0.0915,-0.2337,10.1394,-5.7449,-0.4115,-1.8835,0.1440,-0.1392,9.8547,-7.6273,-0.0181,-1.3998
639.9520,-2.3713,1.1155,85.0773,-9.3388,-5.9584,-32.2765,-179.9154,47.6737,-74.1708,1500,1500,0.9994,0.1418,-0.1260,10.2184,-8.5617,-0.3504,-1.8301,0.1321,-0.1440,9.9241,-10.1158,0.0124,-1.4685
639.9704,-2.5281,1.0569,85.0484,-11.8655,-6.8470,-47.9864,-152.7137,50.8349,-68.1773,1500,1500,1.0000,0.0796,-0.1140,10.0676,-11.0579,-0.2665,-1.6851,0.0722,-0.0770,9.8451,-12.6731,0.2872,-1.5830
639.9889,-2.7275,1.0078,85.0164,-14.4456,-7.9868,-61.6441,-136.3210,54.8494,-65.5946,1500,1500,1.0000,0.0604,-0.1164,9.9862,-13.6075,-0.0222,-1.8606,0.0506,0.0092,9.8236,-15.2838,0.4552,-1.7204
640.0074,-2.9530,0.9736,84.9877,-17.7777,-9.4554,-79.4984,-110.8457,59.3882,-60.7309,1500,1500,1.0000,0.0556,0.0177,9.8449,-16.6839,0.3900,-1.8835,0.1153,-0.0315,9.7972,-18.8716,1.3865,-1.3387
640.0258,-3.2512,0.9710,84.9529,-21.6861,-11.2900,-99.4146,-87.8104,65.3860,-57.2799,1500,1500,1.0000,-0.0282,-0.0278,10.0772,-20.4548,1.4129,-2.2729,-0.0451,0.0236,9.4788,-22.9174,1.7376,-1.5143
640.0442,-3.5991,0.9820,84.9156,-24.9151,-13.3338,-111.0644,-94.2879,72.3789,-62.5901,1500,1500,1.0000,-0.1646,-0.0350,9.8928,-23.7449,0.6572,-2.2118,-0.1122,-0.0626,9.7805,-26.0853,0.8750,-1.9189
640.0627,-3.9859,0.9524,84.8746,-27.7853,-15.5015,-117.4467,-120.4277,80.1561,-73.7978,1500,1500,1.0000,-0.0258,-0.0254,9.8330,-26.7297,-0.0069,-2.6316,0.0435,-0.0315,9.9026,-28.8410,0.4552,-1.9799
640.0811,-4.3688,0.9062,84.8252,-28.7319,-17.4861,-107.5474,-192.9945,87.8564,-97.9667,1500,1500,1.0000,0.0365,0.0081,9.7659,-28.1877,-0.1977,-3.0897,0.2015,-0.0315,9.5578,-29.2761,0.3254,-2.4914
640.0996,-4.7569,0.8329,84.7665,-28.0373,-19.0687,-85.8840,-300.0521,95.6664,-131.8478,1500,1500,1.0000,0.1849,-0.1403,9.5864,-27.7678,-0.1519,-3.5553,0.0770,-0.1943,9.3878,-28.3067,0.6918,-2.9799
640.1180,-5.1264,0.7858,84.6985,-27.0678,-20.2686,-64.9622,-402.8270,103.1069,-164.3450,1500,1500,1.0000,0.0748,-0.1954,9.4068,-26.8136,0.0313,-3.8988,0.1967,-0.1799,9.4644,-27.3219,0.7147,-3.5906
640.1365,-5.4827,0.7220,84.6214,-26.9380,-21.2690,-54.3091,-474.5220,110.2890,-188.0106,1500,1500,1.0000,0.1538,-0.2146,9.6247,-26.6610,-0.0222,-4.4637,0.1775,-0.3236,9.5171,-27.2151,0.6918,-4.0563
640.1549,-5.8206,0.6699,84.5373,-24.9800,-21.8257,-30.1846,-582.8886,117.1049,-221.7613,1500,1500,1.0000,0.0413,-0.3486,9.4283,-25.1495,-0.3504,-4.8683,0.1775,-0.3691,9.4309,-24.8105,-0.4227,-4.5066
640.1733,-6.0946,0.5931,84.4632,-22.1747,-21.8780,-2.8488,-693.1525,122.6459,-255.4057,1500,1500,1.0000,0.0820,-0.3534,9.3589,-22.5541,-1.4039,-5.3797,0.0914,-0.3619,9.2154,-21.7952,-1.3922,-3.2242
640.1917,-6.3006,0.5438,84.3643,-18.9800,-21.4433,23.5714,-792.9518,126.8288,-285.4409,1500,1500,1.0000,-0.0928,-0.3534,9.3828,-19.2564,-2.1596,-5.8835,0.0746,-0.3547,9.4309,-18.7036,-1.8120,-5.4837
640.2102,-6.4666,0.4523,84.2557,-16.4953,-20.7011,40.2305,-860.0333,130.2128,-305.9157,1500,1500,1.0000,0.1155,-0.4157,9.4140,-17.6381,-2.1138,-6.3568,0.0818,-0.4313,9.5003,-15.3525,-1.4914,-6.0181
640.2286,-6.5584,0.4019,84.1358,-12.3731,-19.4519,67.8271,-950.0840,132.1155,-332.0813,1500,1500,1.0000,-0.0018,-0.4564,9.4954,-12.9434,-1.3123,-6.8072,0.0411,-0.4505,9.5075,-11.8029,-0.8807,-6.6593
640.2470,-6.5685,0.3826,83.9903,-8.6670,-17.8342,87.8647,-1008.9467,132.3818,-348.6960,1500,1500,1.0000,-0.1646,-0.4037,9.4044,-9.1113,-1.1672,-7.3034,-0.1169,-0.4792,9.4142,-8.2227,-1.4609,-9.0028
640.2654,-6.5260,0.3253,83.8564,-4.6785,-15.8608,106.9858,-1059.1315,131.5984,-362.3560,1500,1500,1.0000,-0.0713,-0.5043,9.4379,-5.5770,-2.2588,-7.6240,-0.1888,-0.4983,9.6488,-3.7800,-2.4990,-7.6211
640.2838,-6.3777,0.2807,83.7132,0.7986,-13.3619,135.7231,-1124.8230,128.6958,-379.2983,1500,1500,1.0000,-0.0569,-0.4923,9.7779,-0.1419,-1.9000,-8.0973,0.0004,-0.5175,9.8451,1.7391,-1.1784,-7.9723
640.3024,-6.1804,0.2279,83.5592,4.0773,-10.7460,141.1160,-1117.6468,124.8118,-375.3470,1500,1500,1.0000,0.0700,-0.5186,9.6558,3.9345,-0.5565,-8.4484,0.2350,-0.5845,9.5219,4.2200,-0.4456,-8.4074
640.3210,-6.0120,0.1321,83.4018,5.7986,-8.2643,133.6749,-1076.8285,121.5029,-362.2634,1500,1500,1.0000,0.2759,-0.7580,9.5648,5.5910,-0.7397,-8.5248,0.2566,-0.8144,9.5985,6.0063,-0.2929,-8.6211
640.3394,-5.8092,0.0531,83.2481,8.1650,-5.7260,131.9917,-1048.6428,117.5056,-352.3728,1500,1500,1.0000,0.2831,-0.7820,9.7228,7.6826,0.0771,-8.5782,0.3212,-0.8431,10.0247,8.6475,0.2567,-8.1250
640.3578,-5.5409,-0.0616,83.0946,11.8864,-0.0219,1.0023,-640.5159,112.1954,-235.4421,1500,1500,1.0000,0.4363,-0.7748,9.8401,11.3238,0.1000,-8.4103,0.2757,-0.7258,9.8427,12.4490,-0.6059,-8.3158
640.3763,-5.2265,-0.1387,82.9478,15.3139,0.0000,0.0000,-601.4440,105.9595,-221.3841,1500,1500,1.0000,0.1394,-0.7916,9.6247,14.5986,-1.5413,-8.1507,0.0914,-0.8192,9.7422,16.0292,-2.2471,-8.1250
640.3947,-4.8598,-0.2007,82.7995,17.1421,0.0000,0.0000,-559.2446,98.6747,-205.9258,1500,1500,1.0000,0.0604,-0.6790,9.9455,16.9803,-2.2588,-8.3797,0.0937,-0.6204,9.7302,17.3040,-2.1861,-8.0486
640.4133,-4.4446,-0.2054,82.6488,18.8864,2.9503,83.7873,-752.7618,90.4139,-255.9803,1500,1500,1.0000,-0.0665,-0.5402,9.8952,18.6139,-1.1748,-8.1584,-0.1289,-0.5319,9.9912,19.1590,-0.4074,-8.1860
640.4318,-4.0012,-0.1536,82.5169,20.8253,7.1576,130.1208,-835.1826,81.5873,-274.6448,1500,1500,1.0000,-0.2891,-0.5043,9.8641,20.4154,0.0389,-6.1049,-0.3492,-0.5175,9.8930,21.2353,-0.9342,-8.0944
640.4502,-3.5814,0.0066,82.3719,21.2719,9.2747,115.0153,-743.3664,73.2268,-244.7560,1500,1500,1.0000,-0.6746,-0.5497,9.7539,21.8200,1.3213,-7.8148,-0.7155,-0.6899,9.6847,20.7239,0.7147,-7.7891
640.4686,-3.1959,0.1168,82.2304,19.1689,10.7588,80.4796,-599.5350,65.5476,-200.6436,1500,1500,1.0000,-0.5358,-0.4851,10.2208,19.6215,0.8557,-7.6393,-0.6748,-0.4193,9.7876,18.7162,-0.0105,-7.6364
640.4871,-2.8702,0.1805,82.0978,17.4971,11.7696,54.7854,-488.0612,59.0633,-166.1888,1500,1500,1.0000,-0.3993,-0.5521,10.0556,17.7131,-0.1290,-7.1431,-0.3947,-0.3188,10.0821,17.2811,-0.7968,-7.2700
640.5055,-2.4987,0.2026,81.9709,17.1727,12.5800,44.0112,-414.2789,51.6579,-141.8270,1500,1500,1.0000,-0.3059,-0.2361,9.9000,16.7131,-1.1519,-7.1355,-0.3109,-0.2900,9.9098,17.6323,-2.1403,-6.7815
640.5240,-2.1288,0.2056,81.8469,18.4704,13.4636,47.8778,-382.8516,44.2816,-129.3393,1500,1500,1.0000,-0.2676,-0.2960,9.9886,18.3619,-2.2588,-6.8301,-0.2534,-0.4265,10.0319,18.5788,-2.1861,-6.7662
640.5424,-1.8027,0.2562,81.7252,17.9246,14.1327,36.2682,-311.8832,37.7763,-106.2155,1500,1500,1.0000,-0.3873,-0.3917,10.0101,18.3848,-1.2665,-6.7996,-0.3205,-0.4145,10.0079,17.4643,-0.8120,-6.4379
640.5608,-1.6539,0.3265,81.6007,13.6612,14.0620,-3.8398,-179.2559,34.8179,-67.6006,1500,1500,1.0000,-0.3442,-0.8131,10.2472,15.1100,0.2145,-6.3645,-0.5000,-1.1256,10.0869,12.2124,1.0887,-7.0486
640.5792,-2.0890,0.3763,81.5391,7.3864,13.0607,-54.3862,-83.7540,43.5415,-45.2219,1500,1500,1.0000,-0.1742,-3.1929,10.3022,7.3848,1.7106,-3.9828,-0.1050,-4.0226,9.6464,7.3880,1.4857,-2.1784
640.5977,-2.9136,0.3642,81.5482,6.7147,12.1088,-51.6596,-186.4875,60.0611,-82.2471,1500,1500,1.0000,-0.0952,-5.3334,9.7204,6.8200,-0.0298,-0.0057,-0.4809,-5.4855,9.5410,6.6094,-2.1250,1.8979
640.6161,-3.6753,0.3475,81.6212,9.8902,11.7760,-18.0401,-370.9737,75.3332,-141.5393,1500,1500,1.0000,-0.2796,-5.0844,8.9758,9.0642,-3.7703,3.0477,-0.7107,-4.7600,9.7254,10.7162,-3.6059,5.4476
640.6346,-4.0435,0.3586,81.7471,12.4131,11.8716,5.1773,-480.2116,82.7375,-175.8280,1500,1500,1.0000,-0.3610,-3.5521,9.6606,12.3772,-3.8313,6.2844,-0.3300,-2.8494,9.6320,12.4490,-2.6212,7.4323
640.6530,-4.0086,0.2658,81.9081,14.9780,12.3375,25.2910,-534.1144,82.0782,-190.5911,1500,1500,1.0000,0.2974,-1.8426,9.7946,15.1406,-1.6100,8.2920,0.2733,-1.5302,9.6655,14.8155,-1.4456,9.1804
640.6714,-3.7821,0.1783,82.0901,15.9971,12.8865,29.8061,-521.0524,77.5860,-184.6877,1500,1500,1.0000,0.2519,-0.9807,9.4810,15.9192,-2.4420,9.6279,0.1943,-0.7186,9.9720,16.0750,-1.3464,9.9972
640.6899,-3.4474,0.2137,82.2636,14.1002,13.0685,9.8745,-425.1355,70.9270,-154.5014,1500,1500,1.0000,-0.0018,-0.3414,11.0468,14.6902,0.6267,9.6966,0.0315,-0.1368,10.9345,13.5101,2.6536,9.4323
640.7082,-3.1407,0.3121,82.4244,11.0238,12.7618,-16.6943,-313.3200,64.8239,-120.1415,1500,1500,1.0000,-0.1670,-0.1188,11.0085,11.5452,3.5885,9.3226,-0.1169,-0.0315,10.4389,10.5025,3.5086,8.6460
640.7267,-2.8148,0.3674,82.5766,9.8177,12.3202,-23.9163,-255.0237,58.3351,-100.5742,1500,1500,1.0000,-0.1527,0.1326,10.1514,9.9726,1.6114,8.4600,-0.1217,0.2846,9.6440,9.6628,1.3483,8.1880
640.7452,-2.4420,0.3855,82.7206,10.5085,12.0484,-14.6918,-238.6889,50.9032,-92.2845,1500,1500,1.0000,-0.0402,0.3457,9.9598,10.2016,0.1916,7.9103,-0.1074,0.4186,9.9816,10.8155,1.5239,7.7147
640.7636,-2.0137,0.4396,82.8582,13.6345,12.2864,12.9151,-268.9144,42.3579,-96.4750,1500,1500,1.0000,-0.0042,0.4079,9.8689,12.7894,2.6877,7.7424,-0.1744,0.2606,9.9744,14.4796,3.9513,7.4399
640.7820,-1.5217,0.5685,82.9899,17.1612,13.0176,39.6997,-289.4358,32.5326,-97.3083,1500,1500,1.0000,-0.3897,0.4774,9.8856,16.6826,3.1229,7.4218,-0.4066,0.3588,9.9744,17.6399,3.1651,7.0430
640.8005,-1.0833,0.7171,83.1104,17.9169,13.7525,39.6855,-199.1255,23.7759,-67.6431,1500,1500,1.0000,-0.5932,0.2332,9.8880,19.4535,2.1763,6.9180,-0.5838,0.2510,9.6512,16.3803,2.1269,6.1575
640.8190,-0.7637,0.8263,83.2230,12.5009,13.5648,-10.1915,-48.7692,17.3905,-22.3506,1500,1500,1.0000,-0.4520,0.2308,9.8880,13.4459,1.9778,6.2539,-0.3228,0.1002,9.3232,11.5559,2.1345,5.9666
640.8373,-0.5240,0.8301,83.3297,8.4017,12.7903,-42.1735,50.9663,10.4859,9.0276,1500,1500,1.0000,-0.1048,0.2571,9.5361,9.5452,0.9778,5.7195,0.0530,0.1864,9.3663,7.2582,0.1880,5.8140
640.8559,-0.3134,0.8140,83.4372,6.3559,11.8251,-51.9804,94.6985,6.2716,23.3797,1500,1500,1.0000,-0.0952,0.3265,9.6821,6.4306,-0.7626,5.7348,-0.1840,0.3516,9.6033,6.2811,-0.0410,5.7224
640.8743,-0.0962,0.8743,83.5365,6.5963,11.0408,-42.5050,92.7853,1.9254,25.0172,1500,1500,1.0000,-0.3729,0.3840,9.8761,6.6062,-0.0222,5.4752,-0.2917,0.5120,9.7517,6.5865,1.1422,5.1651
640.8927,0.1622,0.9361,83.6308,7.4246,10.4984,-29.5081,86.3760,-3.2463,25.8084,1500,1500,1.0000,-0.3227,0.5324,9.5265,7.3314,1.2679,5.1165,-0.1193,0.4474,9.4309,7.5177,1.3025,4.9743
640.9112,0.3800,0.9184,83.7250,6.3635,9.8781,-33.6215,140.5573,-7.6040,43.1580,1500,1500,1.0000,-0.0545,0.4869,9.7061,7.0413,0.3061,5.0783,-0.2031,0.3372,9.6775,5.6857,0.2109,4.9895
640.9296,0.4794,0.9075,83.8124,3.5467,8.9284,-51.5056,203.5040,-9.5935,61.7778,1500,1500,1.0000,-0.0689,0.2212,10.0580,4.5299,0.1992,4.7348,-0.1337,0.3684,9.9935,2.5635,0.7529,4.6918
640.9480,0.5400,0.9307,83.8945,0.5467,7.6712,-68.3737,259.0563,-10.8059,77.9387,1500,1500,1.0000,-0.2125,0.3265,10.1274,1.2322,0.6496,4.4981,-0.2821,0.1481,9.8451,-0.1387,0.7452,4.3407
640.9665,0.5208,0.9704,83.9718,-1.8617,6.2412,-77.3199,235.5054,-10.4207,71.1519,1500,1500,1.0000,-0.2963,0.1565,9.6869,-1.4777,0.2068,4.2844,-0.3228,0.1002,9.3495,-2.2456,0.8445,4.0506
640.9850,0.5027,1.0185,84.0458,-1.9342,3.7479,-49.6184,167.2907,-10.0595,8.0644,1500,1500,0.1555,-0.2844,0.1637,9.6845,-1.8671,1.3977,3.9027,-0.2726,0.1337,9.6392,-2.0013,1.0506,4.0582
641.0034,0.5197,1.1131,84.1223,0.0276,1.6400,-15.5870,87.2469,-10.4000,0.0000,1500,1500,0.0000,-0.2868,0.1565,9.8761,-0.4930,3.5503,4.1165,-0.2869,0.1601,9.8403,0.5483,4.1956,4.0811
641.0218,0.5492,1.2060,84.1977,0.9131,0.6077,-4.4123,63.2520,-10.9893,0.0000,1500,1500,0.0000,-0.3514,0.1422,9.8449,-0.0350,3.2221,4.1165,-0.3516,0.0451,10.0510,1.8613,3.2185,3.9972
641.0404,0.5538,1.2914,84.2715,2.4284,0.3299,-0.9992,55.4989,-11.0808,0.0000,1500,1500,0.0000,-0.3706,-0.0996,9.7803,2.6444,2.6496,4.1012,-0.3037,-0.1105,9.7685,2.2124,2.8063,3.9056
641.0588,0.5166,1.3965,84.3427,1.8444,0.0959,-0.4055,50.5142,-10.3379,0.0000,1500,1500,0.0000,-0.4950,-0.2409,9.6271,1.9955,2.3671,3.9485,-0.5168,-0.1488,9.3782,1.6933,2.4704,3.9056
641.0773,0.5395,1.4435,84.4149,3.8559,0.1555,0.2051,51.2407,-10.7953,0.0000,1500,1500,0.0000,-0.2724,-0.1332,9.3038,3.3085,1.9168,3.8416,-0.3564,-0.3140,9.4501,4.4032,2.0887,4.0735
641.0959,0.5630,1.5021,84.4893,7.2719,0.9782,7.7312,35.4318,-11.2657,0.0000,1500,1500,0.0000,-0.3370,-0.4157,9.4307,6.4383,1.7259,4.1775,-0.4857,-0.3762,9.5937,8.1055,2.1880,4.1117
641.1143,0.6662,1.5486,84.5649,11.1803,3.8579,44.7510,-52.2206,-13.3312,-1.5797,1500,1500,0.1985,-0.3155,-0.3869,9.6725,10.5375,1.7946,4.2386,-0.2486,-0.3475,9.6177,11.8231,1.9055,4.2185
641.1328,0.8542,1.5433,84.6459,14.7070,6.5004,78.3237,-127.2801,-17.0926,-27.0922,1500,1500,1.0000,-0.2077,-0.2792,9.6271,14.0795,0.7030,4.5058,-0.2319,-0.2829,9.5554,15.3345,0.0735,4.5239
641.1513,1.0815,1.5171,84.7301,17.1689,8.1007,86.5185,-124.7258,-21.6408,-24.1028,1500,1500,1.0000,-0.2077,-0.2720,9.4571,17.3925,-0.7474,4.6966,-0.2869,-0.2565,9.7541,16.9452,-0.8273,4.7300
641.1698,1.3448,1.4803,84.8155,21.2452,10.0723,106.6345,-152.3585,-26.9209,-29.1999,1500,1500,1.0000,-0.1551,-0.4205,9.6534,20.7284,-0.8848,4.8951,-0.2031,-0.2972,9.5865,21.7620,-0.5296,4.7834
641.1883,1.6648,1.4416,84.9042,23.0200,12.0145,105.0658,-111.0233,-33.3366,-14.4182,1500,1500,1.0000,-0.0832,-0.2624,9.5911,22.7665,1.0542,4.9867,0.0123,-0.2637,9.5674,23.2735,-1.0181,4.9819
641.2068,1.9996,1.3422,84.9949,23.4971,13.7369,92.9365,-37.5588,-40.0537,9.5104,1500,1500,1.0000,0.0939,-0.1906,9.7803,23.4688,-1.3581,5.3531,0.0243,-0.0865,9.8523,23.5254,-1.1097,4.8750
641.2253,2.3721,1.2765,85.0894,23.5696,15.2118,79.9636,42.6605,-47.5262,35.7080,1500,1500,1.0000,0.0652,0.0440,9.9718,23.5910,-0.5184,5.3836,0.0147,0.1002,9.7685,23.5483,0.6307,5.1193
641.2437,2.7549,1.2452,85.1882,22.5391,16.3109,59.5153,145.6003,-55.2094,68.3728,1500,1500,1.0000,-0.0593,0.2427,9.8425,22.8047,0.4893,5.5745,-0.0906,0.2630,9.6177,22.2735,0.3177,5.2720
641.2622,3.0883,1.2059,85.2870,21.0849,17.0270,38.7994,243.6304,-61.9087,99.1709,1500,1500,1.0000,-0.1072,0.1996,9.7324,21.5299,-0.6023,5.5439,-0.2151,0.3660,9.6057,20.6399,-0.6899,5.4399
641.2806,3.4001,1.1601,85.3900,18.7414,17.2841,13.9815,350.9905,-68.1793,132.3670,1500,1500,1.0000,-0.0425,0.3696,9.9239,19.3467,-0.8161,5.6432,-0.0403,0.4641,9.7398,18.1361,0.3101,5.7376
641.2998,3.6485,1.0977,85.5028,14.4704,16.8621,-21.9726,483.1234,-73.1837,171.8664,1500,1500,1.0000,0.0939,0.4486,9.9718,15.6062,0.4587,5.8722,-0.0331,0.4617,9.5722,13.3345,0.5086,5.9514
641.3185,3.7706,1.0473,85.6150,8.1307,15.5524,-69.9126,635.2357,-75.6624,215.6972,1500,1500,1.0000,0.0293,0.4630,9.6151,9.7665,0.0007,6.0935,-0.1912,0.6102,9.2825,6.4948,0.3865,5.9666
641.3370,3.8130,1.0589,85.7251,1.8979,13.5042,-110.7017,757.5980,-76.5503,250.4026,1500,1500,1.0000,-0.2317,0.6689,9.7779,3.2398,0.0923,5.8035,-0.3133,0.6078,9.5147,0.5559,0.6842,6.0735
641.3555,3.7454,1.0917,85.8396,-3.7090,10.9222,-139.7423,833.4486,-75.2345,270.9829,1500,1500,1.0000,-0.2987,0.6617,10.0628,-2.5006,0.4816,6.0630,-0.2438,0.6054,9.6536,-4.9174,1.3788,6.2567
641.3739,3.5849,1.0842,85.9500,-8.1670,8.0588,-155.3173,859.8408,-72.0615,276.7862,1500,1500,1.0000,-0.1551,0.5779,9.7731,-6.9205,0.2068,5.8569,-0.1816,0.6724,9.4644,-9.4135,0.4781,6.1498
641.3923,3.3049,1.0770,86.0593,-12.8159,3.4888,-120.5134,727.3772,-66.4934,236.9123,1500,1500,1.0000,-0.2006,0.3888,9.6965,-11.6075,-0.4268,5.9180,-0.2438,0.4115,9.5458,-14.0242,-0.0487,6.1575
641.4108,2.9318,1.0951,86.1672,-17.2510,0.0000,-0.0000,337.3652,-59.0610,123.5700,1500,1500,0.9966,-0.3275,0.2954,9.6989,-15.7984,-0.6100,5.6432,-0.3109,0.2870,9.6177,-18.7036,-0.1937,6.3254
641.4303,2.4369,1.0946,86.2795,-22.1594,0.0000,-0.0000,280.4173,-49.1878,83.1936,1500,1500,0.8068,-0.3251,0.2188,9.8737,-20.8136,-1.4955,5.8035,-0.3588,0.1433,9.6943,-23.5052,-1.1861,6.0888
641.4499,1.8318,1.0441,86.3903,-26.2052,-5.3268,-176.8446,720.0997,-37.1042,191.8913,1500,1500,0.8715,-0.1455,-0.0015,9.8473,-24.9129,-2.2970,5.5134,-0.2702,0.0020,9.8738,-27.4975,-1.4914,6.3331
641.4693,1.1916,1.0207,86.4993,-28.7052,-9.0654,-178.4012,542.4271,-24.3117,164.0355,1500,1500,1.0000,-0.1814,-0.0637,10.0700,-27.8900,-1.6100,5.5058,-0.1553,-0.0841,9.7685,-29.5204,-0.4303,6.1193
641.4882,0.5619,1.0092,86.6066,-29.1479,-12.0777,-159.5332,436.7619,-11.7235,128.1551,1500,1500,1.0000,-0.1646,-0.1691,9.8832,-28.7526,-0.9993,5.4905,-0.1672,-0.1823,9.9241,-29.5433,0.2414,6.2491
641.5070,-0.0288,1.0582,86.7316,-28.6556,-14.5644,-132.6331,378.6734,0.5756,105.7408,1500,1500,1.0000,-0.3873,-0.1691,10.2974,-28.4701,0.0847,7.5287,-0.1696,-0.2039,10.0869,-28.8410,0.7376,6.0659
641.5263,-0.5987,1.1494,86.8410,-28.1899,-16.6082,-105.4302,234.7511,11.9793,59.7406,1500,1500,1.0000,-0.5717,-0.1188,9.8928,-28.0350,0.0465,5.4905,-0.5192,-0.2709,9.9241,-28.3448,0.3406,6.0659
641.5459,-1.1733,1.1349,86.9508,-28.0373,-18.3226,-87.5472,117.1270,23.4774,21.0569,1500,1500,1.0000,-0.1479,-0.2289,9.9359,-27.9739,-0.3733,5.4142,-0.1098,-0.2613,9.8188,-28.1006,-0.0792,6.0124
641.5654,-1.6901,1.1133,87.0584,-26.7128,-19.5811,-64.7063,-8.1274,33.8310,-19.1912,1500,1500,1.0000,-0.1239,-0.2026,9.8784,-26.3861,-0.7550,5.3302,-0.1050,-0.1991,9.8260,-27.0395,-0.0563,5.8369
641.5842,-2.1135,1.1338,87.1616,-24.9113,-20.3807,-42.5311,-120.7057,42.3189,-54.9570,1500,1500,1.0000,-0.2820,-0.0948,9.8162,-25.1190,-0.4878,5.2004,-0.2750,-0.1081,9.6703,-24.7036,0.1956,5.8063
641.6030,-2.4680,1.1884,87.2585,-22.4227,-20.6870,-16.2850,-237.0980,49.4353,-91.1051,1500,1500,1.0000,-0.3993,-0.0661,9.6917,-22.3785,-0.1901,4.9638,-0.3779,-0.0339,9.8786,-22.4670,0.7223,5.3102
641.6224,-2.8090,1.2250,87.3575,-21.2586,-20.7727,-4.4174,-310.5103,56.2822,-115.0840,1500,1500,1.0000,-0.2868,-0.1164,9.6438,-20.3480,0.2526,4.9867,-0.2726,-0.1296,9.6272,-22.1693,1.0200,5.2033
641.6420,-3.0905,1.2533,87.4564,-19.0105,-20.5084,13.5029,-394.5148,61.9432,-141.4357,1500,1500,1.0000,-0.2915,-0.0948,9.7468,-18.8289,-0.1138,4.8951,-0.3181,-0.0746,9.5889,-19.1922,0.5391,5.0964
641.6614,-3.3137,1.2728,87.5528,-17.6098,-20.0736,22.3588,-445.7096,66.4411,-158.0192,1500,1500,1.0000,-0.2868,-0.0158,9.6366,-17.4548,-0.4497,4.5745,-0.3157,0.0715,9.6751,-17.7647,0.1040,5.1193
641.6803,-3.4768,1.2913,87.6477,-16.9456,-19.6044,24.7785,-471.4480,69.7380,-166.8744,1500,1500,1.0000,-0.3418,0.1374,9.7539,-16.5617,-1.1061,4.6050,-0.2247,0.0356,9.6871,-17.3296,-0.3922,5.0124
641.6991,-3.6212,1.2948,87.7386,-16.5983,-19.1535,24.0258,-485.8953,72.6618,-172.3816,1500,1500,1.0000,-0.2987,0.1589,9.7132,-16.4243,-1.4497,4.3989,-0.2247,0.0451,9.7422,-16.7723,-0.5983,4.7987
641.7185,-3.7736,1.2759,87.8265,-16.0525,-18.6883,24.0083,-503.3791,75.7469,-178.8196,1500,1500,1.0000,-0.1862,0.0727,9.8090,-15.9968,-1.3275,4.1546,-0.1912,0.0619,9.7565,-16.1082,-0.3616,4.4705
641.7380,-3.8676,1.2568,87.9130,-14.5678,-18.0703,31.7005,-536.3536,77.6662,-189.0121,1500,1500,1.0000,-0.2317,0.1829,9.7396,-14.5235,-2.8008,3.8722,-0.1193,0.0164,9.7733,-14.6120,-0.0334,4.4094
641.7575,-3.9819,1.2116,87.9980,-14.0487,-17.4670,30.9744,-547.4165,79.9920,-193.2726,1500,1500,1.0000,-0.0186,0.0320,9.8306,-13.7602,-0.7092,4.0554,-0.0427,-0.0434,9.8260,-14.3372,0.0658,4.2949
641.7764,-4.0976,1.1790,88.0766,-13.5907,-16.8856,30.7423,-560.0629,82.3470,-197.9911,1500,1500,1.0000,-0.0425,-0.0494,9.8473,-13.5770,-0.5642,3.8493,0.0794,-0.0506,9.8331,-13.6044,0.4399,4.1651
641.7951,-4.2008,1.1693,88.1475,-12.6098,-16.2442,34.2270,-581.9754,84.4530,-205.1796,1500,1500,1.0000,-0.0761,-0.0996,9.8808,-12.5694,0.2908,3.6737,-0.1241,-0.1488,9.6631,-12.6502,1.0582,3.7300
641.8145,-4.3082,1.1523,88.2193,-11.7090,-15.5639,35.0580,-596.7268,86.6438,-210.4054,1500,1500,1.0000,-0.0114,-0.1930,9.5528,-11.5999,0.7717,3.6203,-0.0044,-0.1320,9.4237,-11.8181,1.3406,3.7071
641.8341,-4.3893,1.0681,88.2932,-10.6518,-14.8271,37.5924,-613.3627,88.3103,-215.8967,1500,1500,1.0000,0.1753,-0.1810,9.5816,-10.6533,0.4511,3.4600,0.0315,-0.2182,9.5267,-10.6502,-0.8731,3.8140
641.8535,-4.4580,1.0501,88.3654,-9.3121,-13.9998,42.6193,-635.7477,89.7291,-222.8739,1500,1500,1.0000,-0.0569,-0.2600,9.6725,-9.4396,0.1229,3.5058,-0.0044,-0.2326,9.5626,-9.1845,0.4094,3.7834
641.8725,-4.4903,1.0431,88.4339,-7.5411,-13.0310,51.0523,-663.7478,90.4193,-231.0590,1500,1500,1.0000,-0.1646,-0.2624,9.5792,-7.6381,-0.4878,3.3836,-0.1217,-0.2565,9.4549,-7.4441,-0.5219,3.5697
641.8914,-4.5176,1.0125,88.5013,-5.9953,-11.9757,55.9490,-680.9924,91.0105,-236.1831,1500,1500,1.0000,-0.1168,-0.3726,9.4858,-6.0655,-1.2206,3.2004,-0.0451,-0.3571,9.3998,-5.9250,-1.1784,3.6079
641.9107,-4.5565,0.9525,88.5666,-5.2205,-10.9624,52.2814,-674.9106,91.8348,-234.8924,1500,1500,1.0000,-0.0234,-0.4947,9.6151,-5.2335,-1.9611,3.1165,-0.0691,-0.4505,9.4405,-5.2074,-1.2853,3.2796
641.9303,-4.5582,0.9033,88.6326,-3.5602,-9.8520,56.8588,-688.2879,91.9142,-238.6777,1500,1500,1.0000,-0.0162,-0.4803,9.6390,-3.7526,-1.3886,3.2768,-0.0834,-0.4313,9.6033,-3.3677,-0.7815,3.2185
641.9501,-4.5176,0.8593,88.7012,-2.0067,-8.6752,59.3181,-690.6944,91.1467,-238.9678,1500,1500,1.0000,-0.1144,-0.4252,9.5313,-2.1648,-1.3962,3.2081,-0.1026,-0.4337,9.5865,-1.8487,-2.7052,3.2796
641.9692,-4.4561,0.8090,88.7653,-0.7357,-7.4843,62.4194,-692.5476,89.9611,-238.8938,1500,1500,1.0000,-0.0880,-0.4276,9.6007,-0.5465,-1.7168,3.0401,-0.1217,-0.5319,9.6224,-0.9250,-2.7662,3.2491
641.9881,-4.3586,0.7599,88.8261,-0.4266,-6.4257,56.1402,-663.2446,88.0550,-229.7360,1500,1500,1.0000,0.0365,-0.2888,9.8258,-0.3480,-1.0756,2.8874,-0.1936,-0.2469,9.8954,-0.5052,-0.6212,3.3025
642.0074,-4.2363,0.7245,88.8874,0.2872,-4.8873,46.9968,-622.8368,85.6513,-217.2200,1500,1500,1.0000,-0.0473,-0.2361,9.9455,0.6139,-1.2817,2.9180,-0.0116,-0.2158,9.8403,-0.0395,-0.8731,3.1422
642.0270,-4.1117,0.6842,88.9462,-0.6212,-2.8146,21.9927,-536.4846,83.2002,-191.8158,1500,1500,1.0000,-0.0210,-0.1284,9.8665,-0.1495,-1.5642,2.7119,-0.2079,-0.2948,9.8260,-1.0929,-0.6365,2.9819
642.0466,-4.0479,0.6895,88.9988,-1.5907,-1.5570,8.7453,-490.9882,81.9644,-178.4589,1500,1500,1.0000,-0.1766,-0.2912,9.7851,-1.3785,-0.9153,2.5287,-0.1505,-0.2924,9.7350,-1.8029,-0.2929,2.6460
642.0656,-3.9796,0.7019,89.0475,-1.6212,-0.7365,3.9403,-469.2878,80.6378,-171.7195,1500,1500,1.0000,-0.1311,-0.2505,9.8114,-1.5388,-0.0145,2.4981,-0.2654,-0.2230,9.7134,-1.7036,0.6002,2.5468
642.0843,-3.8941,0.7786,89.0918,-0.7777,-0.1502,1.0931,-451.2538,78.9677,-165.8349,1500,1500,1.0000,-0.4065,-0.2193,9.7061,-0.7068,0.3519,2.2539,-0.3707,-0.3834,9.6464,-0.8487,0.7834,2.4476
642.1036,-3.8610,0.8009,89.1334,-1.3350,-0.0056,0.0291,-444.3773,78.3438,-163.5975,1500,1500,1.0000,-0.2006,-0.4085,9.7755,-0.8136,0.2145,2.0935,-0.0954,-0.3379,9.7182,-1.8563,0.2796,2.1956
642.1232,-3.8282,0.8147,89.1745,-1.7205,0.0000,0.0000,-440.5225,77.7267,-162.2097,1500,1500,1.0000,-0.2006,-0.3750,9.8306,-1.4396,-0.3581,2.0096,-0.2414,-0.3499,9.7493,-2.0013,-0.0029,2.0735
642.1428,-3.7952,0.8236,89.2151,-1.7739,0.0000,0.0000,-436.7183,77.1035,-160.8329,1500,1500,1.0000,-0.2532,-0.3606,9.7156,-1.5999,-1.0832,1.9638,-0.0786,-0.2374,9.6823,-1.9479,-0.8960,1.9590
642.1619,-3.7696,0.7936,89.2512,-2.1327,0.0000,0.0000,-433.7806,76.6307,-159.7739,1500,1500,1.0000,-0.1239,-0.3510,9.7156,-1.8594,-1.6176,1.7882,-0.1002,-0.4026,9.6608,-2.4059,-1.3693,1.6995
642.1805,-3.7422,0.7493,89.2863,-1.7663,0.0000,0.0000,-430.6258,76.1198,-158.6351,1500,1500,1.0000,-0.0330,-0.3702,9.8210,-1.8365,-1.4878,1.5821,0.0147,-0.3978,9.6416,-1.6960,-1.0716,1.9437
642.1997,-3.7281,0.6843,89.3183,-0.4991,0.0000,0.0000,-429.0023,75.8749,-158.0581,1500,1500,1.0000,-0.0114,-0.5402,9.8306,-0.7602,-1.3886,1.3760,0.0243,-0.4337,9.9193,-0.2380,-2.8807,1.6689
642.2193,-3.6460,0.6545,89.3457,1.5162,0.0000,0.0000,-419.5481,74.2683,-154.6076,1500,1500,1.0000,-0.0234,-0.4133,9.8665,1.3925,-0.9382,1.2233,-0.1098,-0.4026,9.8930,1.6399,-0.1021,1.4552
642.2389,-3.5709,0.6162,89.3696,2.4589,0.0000,0.0000,-410.9079,72.8024,-151.4554,1500,1500,1.0000,0.0365,-0.5090,9.8258,2.5833,-0.3886,1.1775,0.0147,-0.4936,9.8571,2.3345,-0.2090,1.2033
642.2580,-3.5088,0.5485,89.3946,2.9284,0.0000,0.0000,-403.7685,71.5967,-148.8536,1500,1500,1.0000,0.1131,-0.5952,9.9503,2.9574,-1.1901,1.1699,0.2326,-0.5797,10.0295,2.8994,-0.9189,1.3254
642.2768,-3.4404,0.4733,89.4171,3.9208,0.0000,0.0000,-395.8969,70.2631,-145.9827,1500,1500,1.0000,0.1921,-0.6407,10.0604,3.6826,-0.9611,0.9867,0.2111,-0.6611,10.2138,4.1590,-0.6517,1.3407
642.2960,-3.3310,0.4067,89.4402,5.7376,0.0000,0.0000,-383.3078,68.1085,-141.3804,1500,1500,1.0000,0.1490,-0.6120,10.0508,5.4841,-1.0756,1.0019,0.2063,-0.4217,10.3790,5.9910,-0.6899,1.3254
642.3157,-3.1437,0.3999,89.4656,7.8482,0.0000,0.0000,-361.7497,64.3932,-133.4865,1500,1500,1.0000,-0.0737,-0.4492,10.2232,7.4001,-0.4649,1.2004,0.0530,-0.4792,9.9313,8.2964,-0.3235,1.3178
642.3354,-2.9351,0.3692,89.4889,10.7452,0.1419,2.7809,-345.7498,60.2498,-126.5420,1500,1500,0.9969,0.0413,-0.5641,10.0173,10.2856,0.1839,1.1928,0.0171,-0.5295,10.1468,11.2048,-0.9189,1.1651
642.3547,-2.6925,0.3782,89.5116,13.1040,3.2018,50.2326,-454.4951,55.4250,-145.1061,1500,1500,0.9363,0.0245,-0.5617,10.0580,12.7589,1.4282,1.3378,0.1081,-0.5007,9.9744,13.4490,1.4628,1.1956
642.3734,-2.4218,0.3557,89.5322,14.6918,6.3100,78.9493,-506.0532,50.0360,-166.7129,1500,1500,1.0000,0.1729,-0.4923,10.0173,14.5681,1.4358,1.2539,-0.0308,-0.5175,9.9696,14.8155,1.4323,1.1269
642.3926,-2.0922,0.4159,89.5561,15.6192,7.7064,72.9325,-450.7906,43.4638,-147.9533,1500,1500,1.0000,-0.2484,-0.2840,10.0341,15.4383,1.1229,1.3455,-0.1720,-0.3140,10.0271,15.8002,0.8521,1.2567
642.4122,-1.7490,0.4315,89.5810,17.2337,9.1355,72.9455,-411.3439,36.6188,-133.4857,1500,1500,1.0000,-0.0928,-0.3414,9.9431,16.7665,0.4816,1.3455,-0.1313,-0.2469,10.0654,17.7010,0.5315,1.2720
642.4317,-1.3564,0.4432,89.6058,19.0085,10.6165,75.7344,-311.8264,28.7791,-101.7009,1500,1500,1.0000,-0.1239,-0.2098,9.8138,18.8658,-0.0527,1.5058,-0.1146,-0.1392,9.9552,19.1513,0.0200,1.0888
642.4510,-0.9647,0.4518,89.6315,20.6650,12.1238,78.3368,-280.5179,20.9561,-89.0231,1500,1500,1.0000,-0.1216,-0.2624,9.8545,20.2627,-0.1367,1.3989,-0.1816,-0.1919,9.8523,21.0674,-0.1097,1.3331
642.4697,-0.5283,0.4493,89.6537,22.0544,13.6133,79.6049,-241.7065,10.5703,-72.9630,1500,1500,1.0000,-0.0234,-0.0589,9.9718,21.7055,0.1916,1.3684,-0.1600,0.0020,9.9121,22.4032,0.7147,1.0888
642.4890,-0.0495,0.4902,89.6781,23.6154,15.1137,77.5573,-229.0554,0.9895,-64.6303,1500,1500,1.0000,-0.1694,0.0057,9.8569,22.6597,0.6801,1.4905,-0.1792,0.0236,9.8475,24.5712,1.3941,1.1269
642.5097,0.3729,0.5466,89.7027,21.3826,16.0540,45.5173,-88.1837,-7.4612,-20.9608,1500,1500,1.0000,-0.2173,-0.0925,9.9144,21.5528,1.1992,1.3455,-0.0978,0.0116,9.7134,21.2124,1.2567,1.1117
642.5296,0.7855,0.6030,89.7251,20.2261,16.6798,31.3743,0.0232,-15.7169,7.8649,1500,1500,1.0000,-0.2676,0.1015,9.9718,20.4688,0.9091,1.2386,-0.1217,0.2271,9.8523,19.9834,0.8674,1.0430
642.5492,1.1732,0.6358,89.7445,19.7490,17.1402,23.5522,67.1665,-23.4753,30.5442,1500,1500,1.0000,-0.1958,0.1422,9.8832,19.7513,0.6801,1.1165,-0.1385,0.1457,9.7709,19.7468,0.6155,0.9056
642.5680,1.5323,0.6812,89.7611,19.3368,17.4697,17.4837,125.9652,-30.6726,50.6066,1500,1500,1.0000,-0.2868,0.1757,9.8665,19.5375,0.3748,0.9867,-0.2917,0.2367,9.6464,19.1361,0.3635,0.8140
642.5868,1.8786,0.7422,89.7751,18.3521,17.6020,7.0314,195.9250,-37.6188,73.6684,1500,1500,1.0000,-0.3706,0.2619,9.6821,18.8581,0.1076,0.9103,-0.2223,0.2989,9.5961,17.8460,0.4399,0.6002
642.6063,2.1829,0.7888,89.7859,16.3101,17.4082,-9.9833,279.9407,-43.7260,100.2464,1500,1500,1.0000,-0.2915,0.2667,9.7899,16.7284,0.6419,0.6126,-0.2654,0.2295,9.4884,15.8918,0.3635,0.5086
642.6258,2.4171,0.7872,89.7938,13.5658,16.8319,-29.5154,363.1455,-48.4346,125.8981,1500,1500,1.0000,-0.1192,0.2379,9.9120,14.2627,0.1076,0.3760,-0.1385,0.3731,9.6847,12.8689,0.1498,0.5010
642.6452,2.5771,0.8275,89.8001,11.0658,15.9670,-44.4740,424.6340,-51.6597,144.7274,1500,1500,1.0000,-0.2939,0.1661,9.6989,11.7513,0.1076,0.3989,-0.3061,0.2510,9.5291,10.3803,0.2643,0.3178
642.6641,2.6763,0.8714,89.8046,7.9780,14.7686,-63.4551,490.7089,-53.6694,164.2332,1500,1500,1.0000,-0.3370,0.2068,9.7970,8.6291,0.0542,0.2157,-0.3037,0.2343,9.5865,7.3269,0.0658,0.3331
642.6829,2.7574,0.8972,89.8071,6.6650,13.5531,-64.6751,503.5572,-55.3194,168.6557,1500,1500,1.0000,-0.2293,0.2499,9.5768,6.2551,0.1763,0.0783,-0.1744,0.2870,9.5889,7.0750,0.6078,0.2262
642.7024,2.7845,0.9302,89.8074,4.3750,12.1764,-70.4682,523.3690,-55.8908,174.4887,1500,1500,1.0000,-0.2173,0.2116,9.6462,4.5528,0.4206,-0.0820,-0.3468,0.2798,9.7709,4.1971,1.3254,0.1193
642.7221,2.7995,1.0085,89.8062,3.8635,10.9294,-63.5179,505.0694,-56.2173,169.5281,1500,1500,1.0000,-0.4065,0.2068,9.6247,4.2703,0.9015,-0.0591,-0.3444,0.2032,9.5722,3.4567,1.1574,-0.0639
642.7415,2.7508,1.0503,89.7984,2.3292,9.6394,-66.3531,507.6387,-55.2722,169.7749,1500,1500,1.0000,-0.3203,0.0632,9.5840,2.9650,0.4664,-0.3797,-0.3779,0.1098,9.4692,1.6933,0.1422,-0.2776
642.7607,2.6457,1.0722,89.7908,0.3177,8.2411,-72.9222,514.4613,-53.1962,170.6473,1500,1500,1.0000,-0.3131,-0.0254,9.6414,0.7513,-0.5031,-0.3416,-0.2534,-0.0195,9.5889,-0.1158,-0.4532,-0.1860
642.7796,2.5413,1.0627,89.7808,-0.0678,6.9948,-65.7873,481.8925,-51.1325,160.4962,1500,1500,1.0000,-0.1934,-0.0134,9.7061,0.1024,-0.8237,-0.2958,-0.1505,0.0260,9.5626,-0.2380,-0.4761,-0.4914
642.7992,2.4615,1.0404,89.7691,0.7261,6.0545,-48.1530,421.9302,-49.5624,142.9216,1500,1500,1.0000,-0.1790,0.0225,9.5600,1.8810,-1.2588,-0.5324,-0.1361,0.0308,9.5482,-0.4288,-1.0945,-0.3769
642.8187,2.3851,1.0749,89.7578,0.0238,4.1437,-37.1896,381.5613,-48.0578,101.3627,1500,1500,0.7746,-0.3993,0.0847,9.7468,0.1177,-1.2359,-0.4942,-0.3468,0.1002,9.5219,-0.0700,-0.4761,-0.4379
642.8384,2.3576,1.0770,89.7503,0.9971,2.3245,-16.3025,318.2448,-47.5319,85.4223,1500,1500,0.7568,-0.2030,0.2020,9.7061,0.7742,-0.3657,-0.4561,-0.0834,0.1816,9.6799,1.2200,0.1269,-0.2089
642.8574,2.3269,1.0351,89.7403,1.9398,1.3366,-6.5748,286.6881,-46.9397,76.3977,1500,1500,0.7364,0.0317,0.0991,9.8042,2.1711,0.1916,-0.5858,-0.0068,0.1385,9.4764,1.7086,0.3941,-0.3540
642.8761,2.2965,1.0454,89.7297,1.1727,0.5016,-3.2345,273.5765,-46.3558,71.4292,1500,1500,0.7159,-0.2413,0.1589,9.7803,1.7513,-0.3046,-0.6469,-0.1409,0.1625,9.7254,0.5941,-0.0945,-0.3769
642.8954,2.2366,1.0414,89.7173,-0.3540,0.0076,-0.0776,257.5893,-45.1798,63.8508,1500,1500,0.6741,-0.2101,0.1565,9.9024,0.2016,-0.6863,-0.7156,-0.1217,0.2822,9.6823,-0.9097,-0.4151,-0.4227
642.9150,2.1946,0.9821,89.7050,-0.1899,0.0000,-0.0000,252.5337,-44.3619,59.8318,1500,1500,0.6441,0.0293,0.2140,9.7707,-0.1877,-0.9000,-0.6393,-0.0188,0.3037,9.6248,-0.1922,-0.3693,-0.4990
642.9345,2.1922,0.9347,89.6889,1.0734,0.0000,-0.0000,252.2529,-44.3350,59.6090,1500,1500,0.6424,-0.0306,0.2739,9.8210,0.8276,-0.9916,-0.8683,0.0578,0.3133,9.6320,1.3193,-0.6594,-0.6669
642.9529,2.2115,0.8909,89.6735,2.2528,0.0000,-0.0000,254.4823,-44.7446,61.4466,1500,1500,0.6563,-0.0090,0.2739,9.8737,2.1482,-0.8542,-0.8530,-0.0020,0.3588,9.9002,2.3574,-0.4303,-0.7356
642.9714,2.2444,0.8739,89.6551,3.1574,0.0000,0.0000,258.2600,-45.4236,64.5814,1500,1500,0.6796,-0.0569,0.2619,9.9646,3.2322,-0.1748,-0.9828,-0.2606,0.4665,9.8978,3.0826,0.4246,-0.9723
642.9898,2.2692,0.8811,89.6347,3.1154,0.0000,0.0000,261.1182,-45.9431,66.9736,1500,1500,0.6970,-0.1503,0.2356,9.9431,3.2856,0.2603,-0.8912,-0.1074,0.3157,9.7685,2.9452,0.4857,-1.3082
643.0082,2.2868,0.8774,89.6117,2.4169,0.0000,-0.0000,263.1467,-46.3185,68.6817,1500,1500,0.7092,-0.1287,0.2643,9.8665,3.0261,-0.3657,-1.3187,-0.1385,0.3588,9.7781,1.8078,0.4094,-1.1326
643.0266,2.2983,0.8462,89.5872,1.7681,0.0000,-0.0000,264.4702,-46.5715,69.8020,1500,1500,0.7171,0.0101,0.2954,9.9096,2.1024,-0.0985,-1.2881,-0.1146,0.4115,9.7326,1.4338,0.3025,-1.3463
643.0451,2.3376,0.8681,89.5594,1.9971,0.0000,-0.0000,268.9875,-47.3800,73.6188,1500,1500,0.7436,-0.2676,0.4151,10.0245,2.2627,-0.4420,-1.6774,-0.1146,0.4138,9.6560,1.7315,0.0506,-1.3234
643.0634,2.3883,0.8808,89.5311,2.5582,0.0000,0.0000,274.8181,-48.4173,78.5554,1500,1500,0.7766,-0.2125,0.4199,9.8354,2.5986,-0.3428,-1.5019,-0.2582,0.4426,9.8427,2.5177,0.1040,-1.5753
643.0818,2.4235,0.8906,89.5016,2.6918,0.0000,0.0000,278.8702,-49.1458,81.9836,1500,1500,0.7986,-0.2030,0.3457,9.8713,2.8810,-0.3199,-1.4942,-0.1912,0.3899,9.6631,2.5025,0.0887,-1.6975
643.1003,2.4465,0.8968,89.4703,2.3368,0.0000,-0.0000,281.5143,-49.6298,84.2161,1500,1500,0.8126,-0.1718,0.3265,9.9503,2.7589,-0.0756,-1.7232,-0.1648,0.3612,9.9265,1.9147,0.2185,-1.6364
643.1187,2.4264,0.8649,89.4373,1.5620,0.0000,-0.0000,279.2064,-49.2529,82.2861,1500,1500,0.8004,0.0293,0.1972,10.0700,1.9192,0.1763,-1.9217,0.0770,0.2558,9.8547,1.2048,0.5010,-1.6059
643.1370,2.3904,0.8717,89.4041,0.2566,0.0000,-0.0000,275.0677,-48.5575,78.8039,1500,1500,0.7779,-0.1431,0.2308,10.0077,0.6826,0.0313,-1.8301,-0.1289,0.2726,9.8068,-0.1693,0.7605,-1.7433
643.1555,2.3509,0.9086,89.3743,-0.4418,0.0000,-0.0000,270.5158,-47.7899,74.9643,1500,1500,0.7524,-0.2556,0.2667,9.8425,-0.1953,0.4206,-1.7309,-0.1169,0.2223,9.9169,-0.6884,1.0811,-1.4990
643.1739,2.2872,0.9173,89.3655,-1.4113,0.0000,-0.0000,263.1898,-46.5395,68.7937,1500,1500,0.7095,-0.0952,0.2260,9.8377,-0.2716,0.9397,-1.6087,-0.1576,0.1888,9.7469,-2.5510,1.3712,0.7071
643.1923,2.2459,0.9386,89.3405,-0.1823,0.0000,-0.0000,258.4386,-45.7362,64.8258,1500,1500,0.6807,-0.1455,0.2164,9.7276,-0.0579,1.2603,-1.5248,-0.1840,0.1553,9.7086,-0.3067,1.1651,-1.2166
643.2107,2.1794,0.9645,89.3174,-0.0792,0.0000,-0.0000,250.7849,-44.4277,58.5209,1500,1500,0.6331,-0.2101,0.0847,9.9455,0.0719,0.7030,-1.3416,-0.2079,0.0763,9.7565,-0.2303,0.9284,-1.1097
643.2292,2.0945,0.9990,89.2957,-0.4342,0.0000,-0.0000,241.0113,-42.7500,50.7065,1500,1500,0.5706,-0.2796,0.0177,9.9359,-0.1113,0.5580,-1.2576,-0.2127,-0.0267,9.7733,-0.7571,0.5468,-0.9799
643.2476,1.9673,0.9921,89.2813,-1.7014,0.0000,-0.0000,226.3721,-40.2253,39.6987,1500,1500,0.4755,-0.1216,-0.0877,9.7516,-1.2640,0.0313,-0.7919,-0.2367,-0.0171,9.5434,-2.1387,0.2490,-0.5982
643.2660,1.8184,1.0375,89.2667,-2.7892,0.0000,-0.0000,209.2434,-37.2664,28.2090,1500,1500,0.3653,-0.3586,-0.1164,9.8042,-2.3098,-0.0222,-0.9141,-0.3396,-0.1344,9.6943,-3.2685,0.5162,-0.4761
643.2844,1.6843,1.0847,89.2611,-2.9456,0.0000,-0.0000,193.8149,-34.6017,19.4030,1500,1500,0.2711,-0.3873,-0.0589,9.8330,-2.8136,-0.0222,-0.4103,-0.0738,-0.0794,9.6296,-3.0777,0.4017,-0.0334
643.3029,1.5527,1.0882,89.2602,-2.8273,0.0000,-0.0000,178.6734,-31.9856,12.3410,1500,1500,0.1869,-0.1958,-0.0829,9.9670,-2.7068,-0.1367,-0.0286,-0.1720,-0.0626,9.7709,-2.9479,0.3712,0.1040
643.3213,1.4429,1.1138,89.2639,-2.8273,0.0000,-0.0000,166.0306,-29.8026,7.6974,1500,1500,0.1254,-0.2939,-0.0039,9.8066,-2.7144,-0.0222,0.1699,-0.3157,-0.0099,9.6584,-2.9403,0.3025,0.3560
643.3397,1.3443,1.1487,89.2698,-2.9724,0.0000,-0.0000,154.6852,-27.8441,4.5039,1500,1500,0.0787,-0.3346,0.0416,9.7348,-2.6381,-0.0374,0.2997,-0.3181,0.0427,9.6560,-3.3067,0.4399,0.4323
643.3581,1.2282,1.1799,89.2954,-3.7281,0.0000,-0.0000,141.3301,-25.5352,1.8890,1500,1500,0.0361,-0.3298,0.0057,9.8258,-3.3861,-0.0680,0.3378,-0.2702,0.0020,9.6751,-4.0700,0.4704,2.6155
643.3764,1.0888,1.1841,89.2874,-4.5029,0.0000,-0.0000,125.2926,-22.7587,0.2669,1500,1500,0.0057,-0.2054,-0.0565,9.9120,-3.9434,0.1076,0.3531,-0.1696,-0.0195,9.8212,-5.0624,0.3254,-1.1555
643.3948,0.9451,1.1791,89.3025,-5.5754,0.0000,-0.0000,108.7515,-19.8931,0.0000,1500,1500,0.0000,-0.1718,-0.0087,9.8593,-5.2869,-0.0985,0.6661,-0.1600,0.0475,9.7446,-5.8639,0.3559,1.0964
643.4133,0.8304,1.1831,89.3188,-5.3693,-0.0148,-0.1017,95.8490,-16.6168,0.0000,1500,1500,0.0000,-0.2173,0.0895,9.8449,-5.2716,-0.1519,0.6890,-0.3492,0.0164,9.7182,-5.4670,0.2261,1.1346
643.4317,0.7397,1.1818,89.3325,-5.0487,-0.1736,-0.8008,72.8491,-14.8007,0.0000,1500,1500,0.0000,-0.1575,0.1494,9.7300,-4.9739,0.1687,0.6126,-0.1385,0.1289,9.7086,-5.1235,0.7605,0.8750
643.4501,0.6553,1.1803,89.3430,-5.0411,-0.4461,-1.6227,66.7360,-13.1135,0.0000,1500,1500,0.0000,-0.1287,0.1637,9.8832,-4.7297,0.5809,0.4523,-0.0284,0.2223,9.7541,-5.3525,1.0887,0.6613
643.4685,0.5756,1.1887,89.3378,-5.6899,-0.9568,-4.0098,64.8172,-11.5175,0.0000,1500,1500,0.0000,-0.1359,0.2332,9.9694,-5.1724,0.9320,0.4523,-0.0954,0.0763,9.6847,-6.2074,1.6231,-1.1860
643.4869,0.4751,1.1583,89.3444,-6.8884,-1.9782,-10.7145,71.2686,-9.5059,0.0000,1500,1500,0.0000,-0.0378,0.2164,9.7851,-6.3785,-0.8771,0.3913,-0.0834,0.2678,9.6057,-7.3983,1.5849,0.2567
643.5054,0.3560,1.1562,89.3463,-8.5411,-3.7643,-25.2349,94.7016,-7.1237,4.8621,1500,1500,0.1616,-0.0928,0.2571,9.8282,-7.9281,1.0084,0.0325,-0.0786,0.2822,9.5602,-9.1540,1.2567,0.0811
643.5238,0.2495,1.1250,89.3440,-9.8311,-5.6220,-38.4570,116.2191,-4.9920,33.5090,1500,1500,0.9564,0.0125,0.4008,9.7276,-9.3480,0.5503,-0.3492,-0.1409,0.4115,9.5961,-10.3143,0.9132,-0.0486
643.5422,0.1322,1.1490,89.3361,-10.2510,-6.4184,-36.7462,100.8686,-2.6455,29.5660,1500,1500,1.0000,-0.2700,0.3696,9.7085,-9.9205,0.3137,-0.5553,-0.2031,0.4234,9.7110,-10.5815,0.4628,-0.4456
643.5606,0.0241,1.1553,89.3250,-10.4227,-7.0191,-32.5745,80.4864,-0.4815,22.7770,1500,1500,1.0000,-0.2101,0.4055,9.6103,-10.1037,-0.0527,-0.7614,-0.1385,0.3564,9.5841,-10.7418,0.3712,-0.6059
643.5794,-0.1218,1.1488,89.3085,-11.0563,-7.6247,-32.2769,65.7811,2.4381,17.1997,1500,1500,1.0000,-0.1359,0.2810,9.7180,-10.4701,0.2068,-1.1126,-0.1768,0.2917,9.6368,-11.6426,0.5162,-0.7585
643.5979,-0.2822,1.1556,89.3007,-12.1899,-8.3094,-36.9993,61.7418,5.6460,14.4647,1500,1500,1.0000,-0.1742,0.2810,9.7827,-11.6457,0.4282,-1.5171,-0.2414,0.1601,9.7469,-12.7342,0.8139,0.6842
643.6163,-0.4878,1.1977,89.2708,-13.2663,-9.0530,-40.4624,60.3981,9.7614,12.0308,1500,1500,1.0000,-0.2580,0.1278,9.7180,-12.8900,0.5045,-1.7309,-0.1912,0.1385,9.6081,-13.6426,2.9055,-1.5448
643.6346,-0.7033,1.1928,89.2375,-13.6899,-9.7485,-37.8524,28.0910,14.0723,0.8293,1500,1500,1.0000,-0.1982,0.0823,9.7516,-13.4548,0.3671,-1.9370,-0.1481,0.2079,9.6440,-13.9250,-0.8884,-1.7127
643.6531,-0.9088,1.1601,89.2023,-13.2281,-10.2704,-28.2973,-23.0813,18.1856,-15.5556,1500,1500,1.0000,0.0293,0.0584,9.7156,-12.9205,0.6648,-2.0286,0.0339,-0.0027,9.6847,-13.5357,1.4246,-1.8120
643.6715,-1.1265,1.1535,89.1616,-13.3960,-10.7393,-25.5071,-56.1658,22.5414,-26.9971,1500,1500,1.0000,-0.0952,-0.0302,9.7276,-12.4625,0.8786,-2.3339,-0.0882,-0.0075,9.5243,-14.3296,0.8826,-2.0563
643.6898,-1.3067,1.1202,89.1185,-11.6365,-10.8739,-7.3220,-129.2744,26.1584,-49.2760,1500,1500,1.0000,0.0317,-0.0326,9.7635,-11.4777,0.7183,-2.6011,-0.1122,-0.0722,9.7110,-11.7952,1.0964,-2.0486
643.7082,-1.4806,1.1073,89.0763,-11.3922,-10.9516,-4.2313,-158.1885,29.6516,-59.1186,1500,1500,1.0000,-0.0545,-0.0565,9.7731,-11.0350,0.7030,-2.4484,-0.1122,-0.1584,9.6488,-11.7494,1.2567,-2.1097
643.7265,-1.6854,1.0868,89.0314,-11.7357,-11.0692,-6.4191,-175.4535,33.7643,-66.0091,1500,1500,1.0000,-0.1048,-0.2050,9.7803,-11.4014,0.6496,-2.5706,0.0506,-0.1823,9.5841,-12.0700,-0.9189,-2.3082
643.7449,-1.8715,1.0511,88.9854,-11.4418,-11.1251,-3.0364,-206.6094,37.5049,-76.6031,1500,1500,1.0000,0.0628,-0.1691,9.7324,-11.4243,0.8862,-2.6851,0.0435,-0.1679,9.5770,-11.4594,1.2643,-2.2242
643.7633,-2.0298,1.0461,88.9389,-10.2548,-10.9946,7.0912,-253.9935,40.6913,-91.4638,1500,1500,1.0000,-0.0449,-0.1715,9.6438,-10.3403,1.1916,-2.6469,-0.0188,-0.1248,9.6272,-10.1693,1.6460,-2.3311
643.7819,-2.1755,1.0155,88.8931,-9.3846,-10.7531,13.0278,-287.8507,43.6260,-102.4112,1500,1500,1.0000,0.0556,-0.2098,9.5169,-9.0808,1.1458,-2.6164,0.0315,-0.1943,9.4908,-9.6884,1.2490,-2.2395
643.8003,-2.3177,1.0133,88.8522,-9.3808,-10.5472,11.1946,-298.9442,46.4949,-106.9518,1500,1500,1.0000,-0.0186,-0.2265,9.6438,-9.1037,0.9397,-2.3034,-0.0355,-0.2996,9.5075,-9.6578,2.9284,-2.0181
643.8187,-2.4524,1.0004,88.8117,-8.8388,-10.2910,13.9112,-322.2637,49.2126,-114.8401,1500,1500,1.0000,-0.0713,-0.2600,9.6510,-8.6915,0.4435,-2.2652,-0.2031,-0.2685,9.5650,-8.9861,0.6689,-2.1173
643.8371,-2.5912,0.9566,88.7734,-8.1861,-9.9752,17.1915,-347.6775,52.0135,-123.3565,1500,1500,1.0000,0.0149,-0.3606,9.6606,-8.1037,-0.0298,-2.2423,0.0554,-0.2374,9.4549,-8.2685,-0.1937,-1.9036
643.8555,-2.7299,0.8959,88.7392,-8.0220,-9.6822,15.9212,-359.9836,54.8154,-128.2031,1500,1500,1.0000,0.0245,-0.3965,9.5816,-7.6991,-1.1061,-2.0897,-0.0068,-0.2493,9.5219,-8.3448,-0.8960,-1.6898
643.8739,-2.8512,0.8461,88.7094,-8.1785,-9.4567,12.2176,-363.2779,57.2703,-130.3530,1500,1500,1.0000,-0.0330,-0.3271,9.7779,-8.0579,-1.4726,-1.9523,0.0219,-0.3547,9.6775,-8.2990,-0.8578,-1.3769
643.8923,-2.9622,0.8211,88.6789,-7.5411,-9.1693,15.6452,-385.9254,59.5204,-137.8193,1500,1500,1.0000,-0.1072,-0.3582,9.8090,-7.5006,-0.9535,-1.9217,-0.1074,-0.3619,9.6991,-7.5815,-0.6899,-1.4837
643.9106,-3.0517,0.7758,88.6530,-6.8884,-8.8272,18.6646,-404.9142,61.3398,-144.0459,1500,1500,1.0000,0.0125,-0.3319,9.6749,-6.6686,-0.7932,-1.6011,-0.0667,-0.2924,9.5746,-7.1082,-0.3998,-1.3158
643.9290,-3.1397,0.7333,88.6299,-6.8044,-8.5238,16.4911,-408.7893,63.1326,-146.0273,1500,1500,1.0000,0.0221,-0.3510,9.7324,-6.4243,-0.7245,-1.4637,0.0219,-0.2709,9.6512,-7.1845,-0.0563,-1.1021
643.9474,-3.2138,0.7181,88.6067,-6.9418,-8.2865,12.8782,-406.9039,64.6455,-146.2558,1500,1500,1.0000,-0.1287,-0.2912,9.9191,-6.6533,-1.0069,-1.4942,-0.1936,-0.3188,9.7613,-7.2303,-0.5143,-1.1555
643.9659,-3.2896,0.7118,88.5862,-6.4991,-8.0184,14.5267,-420.3779,66.1950,-150.8033,1500,1500,1.0000,-0.2077,-0.3462,9.7755,-6.1724,-1.2206,-1.4408,-0.2486,-0.3451,9.6464,-6.8258,-1.3616,-0.9265
643.9843,-3.3701,0.7060,88.5470,-6.5182,-7.7933,12.2405,-423.0577,67.8388,-152.3755,1500,1500,1.0000,-0.2652,-0.3798,9.7420,-6.2335,-2.0985,-1.5248,-0.2390,-0.2709,9.5267,-6.8029,-1.5983,-3.1784
644.0027,-3.4574,0.7133,88.5255,-6.6212,-7.6175,9.5441,-425.3426,69.6200,-153.9059,1500,1500,1.0000,-0.3083,-0.4229,9.9024,-6.3480,-1.8313,-1.5324,-0.4330,-0.3307,9.8236,-6.8945,-1.5601,-0.9952
644.0211,-3.5191,0.7563,88.5054,-5.8121,-7.3467,14.6976,-447.2752,70.8875,-160.6808,1500,1500,1.0000,-0.4711,-0.3750,9.7300,-6.1571,-1.9458,-1.3950,-0.5096,-0.3116,9.6991,-5.4670,-1.4532,-1.0257
644.0395,-3.5494,0.8206,88.4862,-4.2853,-6.8875,24.9905,-480.4146,71.5306,-170.2814,1500,1500,1.0000,-0.5549,-0.3726,9.7324,-4.2945,-1.6481,-1.3187,-0.4019,-0.3858,9.9313,-4.2761,-1.1097,-0.9876
644.0579,-3.5725,0.8615,88.4673,-3.2052,-6.3352,29.9886,-497.4614,72.0273,-175.3028,1500,1500,1.0000,-0.4496,-0.4396,9.7228,-3.0579,-1.2512,-1.2652,-0.2247,-0.2781,9.6081,-3.3525,-1.3693,-0.9799
644.0764,-3.6250,0.8567,88.4504,-3.2930,-5.8508,24.6443,-488.1092,73.1131,-173.2271,1500,1500,1.0000,-0.2868,-0.5761,9.7468,-3.1571,-1.9306,-1.2729,-0.3444,-0.2685,9.7757,-3.4288,-1.7739,-0.7815
644.0947,-3.6320,0.8407,88.4341,-2.8960,-4.9201,22.0567,-481.4673,73.2903,-171.4560,1500,1500,1.0000,-0.2820,-0.4085,9.9072,-3.0579,-2.3352,-1.2118,-0.2606,-0.3691,9.8427,-2.7342,-2.3616,-0.9265
644.1132,-3.6078,0.8117,88.4192,-1.5869,-3.2724,21.0705,-475.8441,72.8427,-169.6577,1500,1500,1.0000,-0.2508,-0.3774,9.9120,-1.5770,-2.8924,-1.1202,-0.3157,-0.3475,9.9026,-1.5968,-2.5754,-0.9265
644.1316,-3.5793,0.7556,88.4050,-1.3159,-1.7830,11.8750,-446.0728,72.3070,-161.0539,1500,1500,1.0000,-0.1287,-0.3702,9.7611,-1.0884,-3.0298,-1.0973,-0.2821,-0.3834,9.7278,-1.5433,-2.7815,-0.8807
644.1500,-3.5460,0.7331,88.3920,-1.0067,-0.7110,5.0268,-422.5266,71.6780,-154.1464,1500,1500,1.0000,-0.2604,-0.3774,9.8952,-0.8213,-2.9000,-1.0362,-0.2343,-0.2541,9.8236,-1.1922,-2.4227,-0.7815
644.1684,-3.5113,0.7109,88.3796,0.3635,-0.0399,0.4264,-405.2824,71.0188,-148.9885,1500,1500,1.0000,-0.1958,-0.4803,9.9000,0.0413,-2.1138,-0.8454,-0.2654,-0.4696,10.0271,0.6857,-1.8349,-0.7815
644.1869,-3.4357,0.6958,88.3700,2.3597,0.0000,0.0000,-395.3532,69.5409,-145.4694,1500,1500,1.0000,-0.2269,-0.4588,9.9168,2.1940,-2.0527,-0.8683,-0.2726,-0.4002,9.8571,2.5254,-1.9113,-0.4456
644.2053,-3.3131,0.6702,88.3635,4.2528,0.0000,0.0000,-381.2473,67.1225,-140.3105,1500,1500,1.0000,-0.1934,-0.3893,9.9838,3.4001,-2.1367,-0.5400,-0.1768,-0.2613,9.9912,5.1055,-2.2471,-0.4761
644.2236,-3.2130,0.6485,88.3591,3.6231,0.0000,0.0000,-369.7242,65.1520,-136.0988,1500,1500,1.0000,-0.2293,-0.4229,10.1011,3.6826,-2.5565,-0.5553,-0.1529,-0.4050,9.9552,3.5635,-2.2471,-0.2395
644.2420,-3.0933,0.6306,88.3585,4.3597,0.0000,0.0000,-355.9502,62.7890,-131.0605,1500,1500,1.0000,-0.2173,-0.3774,10.0867,4.2093,-2.4497,-0.2881,-0.2462,-0.3427,9.9792,4.5101,-1.8197,-0.0486
644.2605,-2.9535,0.6186,88.3594,5.8215,0.0000,0.0000,-339.8613,60.0223,-124.9724,1500,1500,0.9984,-0.2030,-0.3845,9.9455,5.5681,-1.9153,-0.1355,-0.1050,-0.3738,9.8164,6.0750,-1.4838,0.0201
644.2789,-2.7678,0.6212,88.3667,7.6841,0.0000,0.0000,-318.4895,56.3356,-112.9658,1500,1500,0.9627,-0.1934,-0.3079,9.9838,7.5757,-1.2206,0.2310,-0.0715,-0.2613,10.1085,7.7926,-0.4227,0.4476
644.2974,-2.5575,0.6338,88.3736,8.8711,0.0003,0.0060,-294.3159,52.1567,-94.9076,1500,1500,0.8748,-0.1503,-0.2648,10.0676,8.8047,-0.1214,0.4294,-0.1768,-0.2182,9.9074,8.9376,0.5315,0.3025
644.3158,-2.3398,0.6516,88.3835,9.5315,1.0269,13.6419,-308.5348,47.8260,-82.1830,1500,1500,0.7451,-0.1982,-0.2505,10.0987,9.6749,0.8252,0.5363,-0.0810,-0.1895,9.9121,9.3880,-0.8884,0.5010
644.3341,-2.1025,0.6820,88.3943,10.1765,3.4728,35.6075,-344.4847,43.1003,-68.0430,1500,1500,0.5766,-0.1694,-0.1691,9.9503,10.0184,0.9320,0.5287,-0.1026,-0.1320,9.8499,10.3345,1.0735,0.6995
644.3529,-1.8405,0.6982,88.4092,10.8521,5.7459,46.8968,-346.8504,37.8789,-113.7007,1500,1500,0.9797,-0.1287,-0.0948,9.9527,10.7589,0.6648,0.8722,-0.1744,-0.0865,9.8595,10.9452,0.7529,0.7147
644.3714,-1.6064,0.7534,88.4275,11.8521,6.7178,48.9220,-325.7428,33.2126,-107.8143,1500,1500,1.0000,-0.2939,-0.2553,9.9814,11.6444,0.7794,1.0554,-0.3468,-0.1057,9.8667,12.0597,1.1498,0.9743
644.3899,-1.3109,0.8247,88.4451,13.3482,7.7123,53.7542,-305.6522,27.3150,-99.2401,1500,1500,1.0000,-0.3562,-0.0518,9.7420,13.1787,1.1076,1.0630,-0.3109,0.0212,9.6871,13.5177,1.2185,0.8521
644.4083,-0.9955,0.8802,88.4660,14.3063,8.7014,53.6868,-224.3118,21.0186,-73.3166,1500,1500,1.0000,-0.3227,0.0153,9.7970,14.2093,0.8862,1.0859,-0.2774,0.0140,9.5985,14.4032,0.8674,1.1804
644.4267,-0.7116,0.9546,88.4893,13.9131,9.4832,42.5381,-170.3308,14.2398,-54.8125,1500,1500,1.0000,-0.3490,-0.0422,9.8042,14.2474,0.5580,1.2310,-0.3995,-0.0219,9.7661,13.5788,2.9513,1.3407
644.4451,-0.4062,1.0291,88.5122,14.5124,10.2376,41.0096,-137.3783,8.1290,-42.5304,1500,1500,1.0000,-0.4160,0.0512,9.8234,15.5604,0.9778,1.2844,-0.3779,0.0571,9.6967,13.4643,1.2490,1.1880
644.4635,-0.1374,1.1138,88.5369,13.9055,10.7877,29.8793,-84.8890,2.7501,-25.1439,1500,1500,1.0000,-0.5190,-0.0110,9.6462,13.7284,0.5122,1.4065,-0.3971,-0.0147,9.5913,14.0826,0.5315,1.2720
644.4819,0.1385,1.1578,88.5566,14.6841,11.3722,31.8267,-63.1065,-2.7707,-16.2845,1500,1500,1.0000,-0.4136,0.0033,9.5480,14.6520,-0.4497,1.1394,-0.4354,0.0380,9.6584,14.7162,-0.2166,1.0124
644.5004,0.4143,1.2093,88.5760,14.8673,11.8965,28.4108,-34.1489,-8.2904,-5.4165,1500,1500,1.0000,-0.4496,0.0297,9.9024,15.0032,-0.3199,1.0859,-0.4258,-0.0171,9.6703,14.7315,0.1727,1.0353
644.5188,0.6722,1.2785,88.5928,15.1383,12.3827,26.3626,1.4272,-13.4511,7.1252,1500,1500,1.0000,-0.4879,-0.0302,9.8138,15.0642,0.2679,0.8416,-0.3779,0.0068,9.7086,15.2124,0.7758,1.0506
644.5372,0.9758,1.3534,88.5892,16.8673,13.0554,36.4614,7.2714,-19.5250,11.7985,1500,1500,1.0000,-0.5381,0.0823,9.8282,16.4917,0.3748,0.7806,-0.3755,0.0356,9.6799,17.2429,0.3941,-1.2318
644.5556,1.2671,1.4144,88.5952,17.9704,13.7927,40.0910,30.3387,-25.3540,21.1718,1500,1500,1.0000,-0.4735,-0.0158,9.7611,17.7436,0.3671,0.4676,-0.4234,0.0116,9.8547,18.1971,0.6155,0.2873
644.5741,1.5444,1.5131,88.6004,17.9513,14.4165,33.7928,80.3859,-30.9154,37.9657,1500,1500,1.0000,-0.5453,-0.0326,9.9191,18.1482,0.9168,0.4371,-0.5718,-0.2086,9.8475,17.7544,2.9513,0.1956
644.5925,1.8508,1.5634,88.6001,18.2757,14.9954,31.3683,122.6266,-37.0619,52.8664,1500,1500,1.0000,-0.4496,0.1230,9.8617,18.0490,0.4358,0.1699,-0.3396,0.1026,9.9241,18.5025,0.6994,-0.1250
644.6109,2.1909,1.5831,88.5997,19.8711,15.7267,39.7860,137.5225,-43.8863,60.4495,1500,1500,1.0000,-0.3131,0.1996,9.8018,19.6368,0.3900,0.1012,-0.3683,0.2367,9.7446,20.1055,0.6689,-0.0639
644.6293,2.5492,1.6285,88.5939,20.5887,16.4560,39.6070,179.2723,-51.0785,75.7355,1500,1500,1.0000,-0.3801,0.2786,9.7946,20.5986,0.9549,-0.1278,-0.3492,0.2798,9.8834,20.5788,1.4399,-0.5066
644.6478,2.8870,1.6902,88.5856,20.0658,16.9975,29.3531,247.6745,-57.8631,98.2804,1500,1500,1.0000,-0.4424,0.2882,9.9431,20.1406,1.5427,-0.3568,-0.3444,0.4019,9.6895,19.9910,1.4628,-0.5448
644.6662,3.2249,1.6942,88.5656,18.9818,17.2951,16.1661,324.5310,-64.6523,123.1948,1500,1500,1.0000,-0.2054,0.4343,9.7946,19.9497,1.2832,-0.4484,-0.3324,0.6413,9.6775,18.0139,0.9208,-1.8120
644.6846,3.3417,1.6578,88.5671,20.2185,17.7336,23.8266,315.9163,-67.0229,121.9680,1500,1500,1.0000,-0.0497,-0.6766,10.0341,19.1558,1.2755,0.2539,-0.0619,0.7538,9.5817,21.2811,0.3941,0.6613
644.7031,3.5882,1.5748,88.5530,13.7414,17.1348,-32.4641,506.3931,-71.9875,177.7838,1500,1500,1.0000,0.1203,0.6138,10.8385,13.0871,-0.2588,-1.2271,-0.2175,-0.0219,9.3399,14.3956,0.1956,-0.1860
644.7214,3.9476,1.5014,88.5332,13.5811,16.6017,-28.9865,537.7412,-79.2156,190.1754,1500,1500,1.0000,0.0580,1.0927,9.4690,15.5757,-0.2206,-1.4332,-0.2247,0.8328,10.1180,11.5865,-0.3693,-0.8960
644.7399,4.1843,1.4509,88.5086,13.0200,16.0645,-29.1025,565.3168,-83.9918,200.2846,1500,1500,1.0000,-0.0593,0.6210,9.2296,12.9726,-0.8542,-0.9904,-0.1169,0.7730,9.4884,13.0674,-0.2624,-1.5830
644.7584,4.3337,1.4396,88.4859,11.6650,15.4046,-35.7235,601.5804,-87.0235,211.9542,1500,1500,1.0000,-0.1742,0.4079,9.6678,11.1787,-0.2359,-1.1965,-0.1146,0.4665,10.2880,12.1513,0.5849,-1.0944
644.7768,4.4759,1.4114,88.4689,9.6269,14.5379,-47.0923,650.6848,-89.9117,227.1476,1500,1500,1.0000,-0.0018,0.6019,10.0413,9.8810,1.2755,-1.2118,-0.0475,0.2271,9.5698,9.3727,1.2032,-0.6975
644.7953,4.5636,1.3638,88.4530,7.5429,13.4887,-56.8039,688.7505,-91.7120,238.7061,1500,1500,1.0000,0.0436,0.5276,9.8377,9.0413,0.5809,-0.8301,0.0052,0.4306,9.7517,6.0445,0.7910,-0.8502
644.8137,4.5776,1.3212,88.4265,5.3444,12.2670,-66.1952,717.4115,-92.0382,246.8943,1500,1500,1.0000,0.0173,0.3672,9.3709,6.1940,0.3442,-1.1889,-0.0523,0.6174,10.0342,4.4948,0.6765,-1.5753
644.8321,4.5124,1.3037,88.4004,4.1421,11.0483,-66.3431,710.3301,-90.7787,244.2818,1500,1500,1.0000,-0.0856,0.1278,10.2759,3.4917,0.8862,-1.1584,0.0794,0.5072,9.8571,4.7926,0.4246,-1.4532
644.8505,4.4454,1.2458,88.3781,2.4360,9.7565,-70.0772,713.3698,-89.4825,244.4848,1500,1500,1.0000,0.1035,0.2691,10.0628,2.5375,0.6877,-1.3950,-0.3228,-0.1201,9.8355,2.3345,0.2109,-0.8044
644.8690,4.3971,1.1660,88.3574,3.5658,8.8279,-50.2337,650.6602,-88.5601,226.4649,1500,1500,1.0000,0.2304,0.2212,9.2583,3.7131,0.6419,-1.3492,0.1081,0.1840,10.2162,3.4185,1.1956,-0.7433
644.8874,4.3536,1.1297,88.3521,4.0773,8.1153,-38.6447,612.2818,-87.7344,215.3061,1500,1500,1.0000,0.1274,0.1972,9.5864,3.6291,1.4129,-1.1278,0.1321,0.2917,9.7278,4.5254,2.3559,0.6002
644.9058,4.2731,1.0979,88.3255,4.1918,7.5267,-31.9877,583.8408,-86.1663,206.5586,1500,1500,1.0000,0.2783,0.0153,9.7946,4.0566,2.4587,-1.4179,0.0411,-0.0554,10.0223,4.3269,4.9132,-1.7127
644.9243,4.1705,1.0850,88.2981,1.9895,6.6961,-44.9093,609.2549,-84.1573,212.6700,1500,1500,1.0000,0.1179,0.0919,9.7444,2.0184,3.0160,-1.6240,-0.0188,-0.1081,9.8954,1.9605,2.4399,-1.4608
644.9427,4.0709,1.0959,88.2692,2.3635,6.0463,-35.2830,570.0674,-82.2057,200.7217,1500,1500,1.0000,-0.0282,0.0512,9.6630,2.5528,2.1000,-1.7996,-0.0379,-0.0410,9.7733,2.1742,2.5468,-1.3616
644.9612,4.0529,1.0697,88.2421,4.7223,5.8040,-10.6893,497.1686,-81.8867,180.1506,1500,1500,1.0000,0.0867,0.2068,9.4523,4.5070,1.8404,-1.5935,0.2494,0.0882,9.6416,4.9376,1.6613,-1.3769
644.9797,4.0655,1.0179,88.2112,6.7185,5.9773,7.0556,447.5126,-82.1792,166.3932,1500,1500,1.0000,0.1993,0.1757,9.6294,5.9497,1.8252,-1.7003,0.1680,0.2989,9.5985,7.4872,1.3254,-1.6440
644.9982,4.0938,1.0622,88.1774,6.4360,6.0469,3.7165,460.3793,-82.7850,170.2987,1500,1500,1.0000,-0.2652,0.2763,9.7156,6.6749,1.4053,-1.8377,-0.3205,0.2175,9.5913,6.1971,0.9132,-1.8196
645.0166,4.1166,1.1291,88.1444,5.3902,5.9432,-5.3350,489.0698,-83.2819,178.5805,1500,1500,1.0000,-0.3370,0.3337,9.4379,5.9879,1.3748,-1.9675,-0.4138,0.3229,9.8810,4.7926,1.6689,-1.6746
645.0351,4.1437,1.1856,88.1120,2.9818,5.1010,-22.3456,541.1808,-83.8656,193.4634,1500,1500,1.0000,-0.3179,0.5707,9.6725,2.9268,1.3824,-1.9752,-0.3516,0.5623,9.3878,3.0368,1.4704,-1.6822
645.0536,4.1706,1.2261,88.0759,2.8750,4.0252,-16.8175,528.3608,-84.4462,190.1641,1500,1500,1.0000,-0.2413,0.5851,9.7563,3.2322,1.7030,-2.0439,-0.1648,0.7323,9.6416,2.5177,1.5086,-2.0410
645.0721,4.2360,1.2540,88.0409,3.2643,3.2063,-9.9252,516.0361,-85.7963,187.3883,1500,1500,1.0000,-0.1862,0.7335,9.6869,3.0871,1.8175,-2.1507,-0.2774,0.7012,9.5243,3.4414,1.3635,-1.8807
645.0906,4.2451,1.2838,88.0038,-0.4762,1.1118,-11.8363,522.5846,-86.0203,189.3339,1500,1500,1.0000,-0.3131,0.8030,9.7563,1.7055,0.7030,-2.1965,-0.3372,0.8424,9.4070,-2.6578,-0.1403,-1.8960
645.1091,4.1715,1.2582,87.9659,-4.3273,0.0000,-0.0000,480.0340,-84.5914,176.7052,1500,1500,1.0000,-0.2508,0.7527,9.7970,-2.7449,-0.9840,-2.0133,-0.3133,0.9717,9.7469,-5.9097,-2.8731,-1.8120
645.1276,4.0525,1.2677,87.9334,-8.9876,0.0000,-0.0000,466.3292,-82.2502,171.6973,1500,1500,1.0000,-0.3275,0.9490,9.9287,-8.1113,-1.1443,-1.9904,-0.2654,0.8520,9.6679,-9.8639,-0.5296,-1.4990
645.1461,3.9279,1.2727,87.8974,-10.3044,0.0000,-0.0000,451.9929,-79.7980,166.4570,1500,1500,1.0000,-0.2221,1.0161,9.8761,-10.0197,-0.2435,-2.0362,-0.1720,0.9502,9.7206,-10.5891,0.4781,-2.0257
645.1646,3.7539,1.3217,87.8590,-11.4418,0.0000,-0.0000,431.9746,-76.3565,159.1311,1500,1500,1.0000,-0.3155,0.8604,9.9144,-10.7297,0.9473,-2.2805,-0.3707,0.7778,9.8882,-12.1540,1.9132,-2.1479
645.1831,3.4846,1.4065,87.8246,-14.2930,-1.2394,-29.3996,485.6470,-71.0040,171.4831,1500,1500,1.0000,-0.4160,0.6282,9.8665,-13.1877,1.9549,-2.2271,-0.3564,0.5551,9.7350,-15.3983,2.6460,-1.6975
645.2016,3.1286,1.4396,87.7936,-18.1823,-6.2085,-114.4799,689.7186,-63.9167,225.0795,1500,1500,1.0000,-0.2461,0.5109,9.8880,-17.4014,1.7870,-1.8072,-0.0786,0.4833,9.7589,-18.9632,1.6155,-1.6440
645.2200,2.7222,1.4250,87.7632,-21.2624,-8.4666,-122.8090,666.9362,-55.8153,214.6498,1500,1500,1.0000,-0.1431,0.4630,9.7180,-20.3709,0.4053,-1.9294,-0.2007,0.4665,9.7038,-22.1540,0.2032,-1.3005
645.2385,2.2996,1.4276,87.7231,-23.2166,-10.6791,-119.2137,607.9519,-47.3863,193.9197,1500,1500,1.0000,-0.3634,0.5181,10.0341,-22.7220,-1.4268,-2.2271,-0.4330,0.6820,9.8236,-23.7113,-1.1021,-1.9189
645.2570,1.9349,1.4696,87.6878,-21.1060,-12.2431,-84.6587,466.4649,-40.1114,150.6659,1500,1500,1.0000,-0.3969,0.5157,9.9144,-21.8747,-0.7474,-2.1049,-0.5144,0.7323,9.3327,-20.3372,1.6231,-1.7433
645.2754,1.5321,1.5830,87.6530,-19.6594,-13.3555,-60.4019,291.8800,-32.0709,97.7618,1500,1500,1.0000,-0.5956,0.1446,9.8090,-19.9281,1.8557,-2.0820,-0.2654,0.2151,9.2466,-19.3906,2.4628,-1.6135
645.2938,1.0936,1.6634,87.6229,-18.8884,-14.1855,-45.1365,213.1976,-23.3125,71.3516,1500,1500,1.0000,-0.6028,-0.1571,9.5959,-17.7373,-0.8695,-1.6545,-0.5072,-0.0123,9.8667,-20.0395,1.5239,-1.2395
645.3123,0.6674,1.6923,87.5965,-19.6556,-15.0060,-44.4138,170.5885,-14.7940,55.1618,1500,1500,1.0000,-0.3346,-0.0996,9.7061,-19.2793,0.5274,-1.4637,-0.6724,-0.1320,9.3639,-20.0319,1.1422,-1.1326
645.3308,0.2725,1.6936,87.5663,-19.9800,-15.7521,-40.3853,123.0525,-5.4522,37.1808,1500,1500,1.0000,-0.3801,0.0009,10.0628,-19.4548,-0.5871,-1.6545,-0.6030,-0.0722,9.6105,-20.5052,-1.2929,-1.4456
645.3492,-0.0262,1.6970,87.5547,-16.1021,-15.8046,-2.8534,5.2054,0.5238,1.1956,1500,1500,1.0000,-0.5238,0.0344,9.2990,-16.8442,-3.1443,-1.8683,-0.6748,0.0811,9.7015,-15.3601,-2.6670,0.6766
