timestamp,roll_deg,pitch_deg,yaw_deg,omega_raw,omega_filtered,alpha,tau_ff,tau_pid,tau_total,pwm_left,pwm_right,deadzone_factor,accel1_x,accel1_y,accel1_z,gyro1_x,gyro1_y,gyro1_z,accel2_x,accel2_y,accel2_z,gyro2_x,gyro2_y,gyro2_z
2218.1769,-0.2898,0.6849,98.4462,-2.6943,0.0000,-0.0000,-27.1911,44.1260,-34.6330,1481,1518,1.0000,-0.1648,-0.2769,9.7910,-2.5512,-1.2164,2.0446,-0.2082,-0.2877,9.8402,-2.8374,-0.5771,2.4062
2218.1974,-0.4052,0.6863,98.5028,-2.2210,0.0000,-0.0000,-38.0229,46.0347,-39.0277,1478,1521,1.0000,-0.1768,-0.3487,9.9298,-2.2077,-0.6515,2.5179,-0.2010,-0.3093,9.8091,-2.2344,-0.5923,3.0627
2218.2182,-0.5093,0.6948,98.5689,-1.8851,0.0000,-0.0000,-47.7864,47.7566,-42.9899,1476,1523,1.0000,-0.1839,-0.3439,9.8939,-1.7420,-0.5599,2.9530,-0.2130,-0.3547,9.7875,-2.0282,-0.2106,3.4978
2218.2378,-0.6230,0.7125,98.6407,-2.2554,0.0000,-0.0000,-58.4561,49.6390,-47.3202,1474,1525,1.0000,-0.1648,-0.4014,9.9538,-2.1466,0.1424,3.4186,-0.2657,-0.3739,9.8450,-2.3641,0.5298,3.9940
2218.2571,-0.7250,0.7608,98.7168,-1.8966,0.0000,-0.0000,-68.0323,51.3301,-51.2077,1472,1527,1.0000,-0.2606,-0.4134,10.0400,-1.7726,0.7378,4.0369,-0.2633,-0.3140,9.7636,-2.0206,1.0718,3.9787
2218.2764,-0.8108,0.8039,98.7985,-1.1867,0.0000,0.0000,-91.2993,52.7538,-59.0421,1468,1531,1.0000,-0.2582,-0.4181,9.9729,-1.0932,0.6920,4.2354,-0.0765,-0.2757,9.8617,-1.2802,0.8504,4.3451
2218.2955,-0.8551,0.8249,98.8900,-0.4462,0.0000,0.0000,-96.2927,53.4940,-60.9842,1467,1532,1.0000,-0.1456,-0.3104,9.9514,-0.4672,0.6157,4.6324,-0.1939,-0.2542,9.7995,-0.4252,1.2626,5.0016
2218.3146,-0.8800,0.8469,98.9878,0.5423,0.0000,0.0000,-99.0942,53.9133,-62.0762,1466,1533,1.0000,-0.1456,-0.3080,9.7168,0.6091,0.7455,5.0293,-0.1292,-0.2997,9.7253,0.4756,1.2703,5.2840
2218.3340,-0.8659,0.8551,99.0906,1.5576,0.0000,0.0000,-97.4997,53.6883,-61.4629,1466,1533,1.0000,-0.0666,-0.2218,9.6473,1.3725,0.7989,5.3194,-0.1939,-0.3763,9.8976,1.7427,1.6138,5.3680
2218.3531,-0.8348,0.9014,99.2010,1.9355,0.0000,0.0000,-94.0023,53.1842,-60.1112,1467,1532,1.0000,-0.2079,-0.1763,9.6832,1.9297,0.9668,5.7545,-0.1484,-0.3715,9.9790,1.9412,2.2016,5.8642
2218.3722,-0.7888,0.9486,99.3138,2.2637,0.0000,0.0000,-74.0203,52.4334,-53.6661,1471,1528,1.0000,-0.2199,-0.1332,9.4989,1.9603,1.2340,5.9301,-0.2633,-0.2039,10.0317,2.5672,1.8275,5.9405
2218.3913,-0.7168,0.9769,99.4307,2.8057,0.0000,0.0000,-67.2573,51.2513,-50.9280,1472,1527,1.0000,-0.1361,-0.0590,9.6330,2.5252,1.3638,6.1973,-0.1723,-0.1536,9.7636,3.0863,1.9573,6.0398
2218.4099,-0.6673,1.0135,99.5474,2.9698,0.0000,0.0000,-62.6142,50.4416,-49.0492,1473,1526,1.0000,-0.1911,-0.1572,9.7670,2.9832,1.6233,6.4034,-0.2513,-0.1584,9.8641,2.9565,1.5680,6.2382
2218.4284,-0.6067,1.0457,99.6684,2.7752,0.0000,0.0000,-56.9259,49.4474,-46.7462,1474,1525,1.0000,-0.1983,-0.0806,9.7838,2.8152,1.0813,6.5026,-0.2872,-0.1129,9.9383,2.7351,1.6061,6.5894
2218.4470,-0.5471,1.0923,99.7906,2.7446,0.0000,0.0000,-51.3378,48.4703,-44.4835,1475,1524,1.0000,-0.2510,-0.0758,9.9370,2.6244,1.5165,6.5713,-0.3974,-0.0890,9.9575,2.8649,1.6825,6.5970
2218.4655,-0.5009,1.0743,99.9136,2.0347,0.0000,0.0000,-46.9988,47.7124,-42.7270,1476,1523,1.0000,0.0363,-0.0638,9.8006,1.7389,1.3943,6.6095,-0.4213,-0.1488,10.1083,2.3305,1.5527,6.6810
2218.4841,-0.4436,1.0913,100.0396,1.1569,0.0000,-0.0000,-41.6291,46.7726,-40.5523,1478,1521,1.0000,-0.2175,0.0727,10.0304,0.7007,-0.8042,6.6247,-0.3519,-0.0698,10.1514,1.6130,1.7435,6.9176
2218.5031,-0.3973,1.1369,100.1641,0.8019,0.0000,-0.0000,-37.2807,46.0120,-38.7914,1479,1520,1.0000,-0.2677,0.0583,9.9610,0.5862,1.2416,6.4797,-0.0622,-0.1800,10.0389,1.0176,1.7359,6.5741
2218.5222,-0.3586,1.1594,100.2870,0.1645,0.0000,-0.0000,-33.6464,45.3765,-37.3198,1479,1520,1.0000,-0.1432,0.0846,10.0879,0.1053,1.4477,6.3881,-0.1747,-0.0100,9.8665,0.2237,2.0947,6.4367
2218.5413,-0.3393,1.1806,100.4087,0.2027,0.0000,-0.0000,-31.8418,45.0626,-36.5901,1480,1519,1.0000,-0.1385,-0.0040,9.9418,0.2122,1.5317,6.3118,-0.2537,0.0164,9.9264,0.1931,1.9955,6.4367
2218.5605,-0.3403,1.2143,100.5266,-0.0302,0.0000,-0.0000,-31.9297,45.0814,-36.6278,1480,1519,1.0000,-0.1816,-0.0758,10.2100,0.1282,1.6081,6.1820,-0.3351,0.0451,9.9240,-0.1885,2.3848,6.1466
2218.5795,-0.3055,1.3301,100.6405,-0.4309,0.0000,-0.0000,-28.6636,44.5102,-35.3052,1480,1519,1.0000,-0.5455,0.1253,9.6377,-1.9481,1.8676,6.0522,-0.2465,-0.1776,9.9671,1.0863,2.2474,5.8337
2218.5986,-0.2078,1.2989,100.7497,0.5385,0.0000,-0.0000,-19.4997,42.9009,-31.5904,1482,1517,1.0000,0.0411,0.3360,9.8413,0.9068,0.7989,5.8843,-0.1388,0.0906,10.2328,0.1702,2.0489,5.3909
2218.6178,-0.1951,1.3193,100.8520,0.5767,0.0000,-0.0000,-18.3100,42.6936,-31.1092,1483,1516,1.0000,-0.1265,-0.0423,10.1884,0.7465,2.4019,5.3805,-0.2202,0.0714,9.6319,0.4069,1.9955,5.3146
2218.6369,-0.1917,1.3730,100.9496,0.6149,0.0000,-0.0000,-17.9907,42.6394,-30.9809,1483,1516,1.0000,-0.3084,-0.0854,10.0519,0.7618,1.6539,5.1209,0.0096,0.0379,9.8258,0.4679,2.3008,5.1085
2218.6561,-0.1285,1.4386,101.0211,1.2485,0.0000,0.0000,-12.0565,41.5972,-28.5753,1484,1515,1.0000,-0.3611,0.1397,10.1357,1.6015,1.9821,4.7698,0.0791,0.2031,9.8186,0.8954,2.3771,2.6734
2218.6751,-0.0736,1.4577,101.1048,1.6034,0.0000,0.0000,-6.9094,40.6929,-26.4886,1485,1514,1.0000,-0.1696,0.0751,9.8963,1.5786,1.8218,4.5560,-0.1005,0.2294,9.6127,1.6282,2.0260,4.1772
2218.6943,-0.0133,1.4520,101.1803,1.9698,0.0000,0.0000,-1.2499,39.6979,-24.1937,1486,1513,1.0000,-0.0834,0.0775,9.6952,2.0213,1.1806,4.0217,-0.0813,0.1504,10.0030,1.9183,2.0642,3.8108
2218.7135,0.0664,1.4386,101.2501,2.4622,0.0000,0.0000,6.2297,38.3820,-21.1603,1488,1511,1.0000,-0.0355,0.1325,9.7982,2.3419,1.4172,3.7469,-0.0358,0.2246,9.7803,2.5824,2.1558,3.4444
2218.7326,0.1480,1.4194,101.3119,2.6072,0.0000,0.0000,13.8846,37.0345,-18.0553,1490,1509,1.0000,-0.1385,0.1421,9.5348,2.3954,-0.8118,3.2812,-0.1172,0.1528,9.8785,2.8191,1.2245,3.1085
2218.7518,0.2343,1.4151,101.3685,2.5652,0.0000,0.0000,21.9870,35.6075,-14.7684,1492,1507,1.0000,-0.1552,0.1828,9.6138,2.4335,0.5317,2.8766,-0.2346,0.1289,9.8091,2.6969,0.9802,2.9405
2218.7709,0.3241,1.4161,101.4377,2.8859,0.0000,0.0000,30.4155,34.1222,-11.3486,1493,1506,1.0000,-0.2055,0.1828,9.6066,2.9526,0.4630,2.5789,-0.1795,0.2246,9.6965,2.8191,0.4458,4.5360
2218.7902,0.4169,1.3984,101.4809,2.7790,0.0000,0.0000,39.1221,32.5871,-7.8156,1495,1504,1.0000,-0.1720,0.2259,9.7431,2.8687,-0.0637,2.1744,-0.0622,0.1193,9.4044,2.6893,-0.0809,2.2230
2218.8094,0.4873,1.3882,101.5202,2.6836,0.0000,0.0000,45.7266,31.4209,-5.1346,1497,1502,1.0000,-0.1959,0.1469,9.7886,3.0900,0.0203,2.0827,-0.1220,0.3276,9.4044,2.2771,-0.0122,1.9558
2218.8286,0.5408,1.3782,101.5512,1.8897,0.0000,-0.0000,50.7424,30.5335,-3.0974,1498,1501,1.0000,-0.2246,0.1541,9.6665,2.3572,-0.4988,1.5255,-0.1675,0.2151,9.4475,1.4221,-0.2565,1.6810
2218.8478,0.5832,1.3370,101.5778,1.2103,0.0000,-0.0000,54.7298,29.8265,-1.4770,1499,1500,1.0000,-0.0954,0.1708,9.5587,1.6549,-0.5675,1.2736,-0.2106,0.2031,9.4763,0.7656,-0.5389,1.4749
2218.8669,0.6211,1.3383,101.6053,0.3591,0.0000,-0.0000,58.2813,29.1958,-0.0331,1499,1500,1.0000,-0.2965,0.2307,9.5707,0.5404,-0.9263,1.1973,-0.3351,0.2055,9.4906,0.1779,-0.6763,1.6123
2218.8860,0.6280,1.3312,101.6307,-0.7248,0.0000,-0.0000,58.9270,29.0760,0.2325,1500,1499,1.0000,-0.3372,0.1948,9.8269,-0.3298,-1.5981,1.2049,-0.1963,0.3132,9.6127,-1.1198,-1.5618,1.4444
2218.9052,0.6108,1.2948,101.6535,-1.6141,0.0000,-0.0000,57.3134,29.3536,-0.4181,1499,1500,1.0000,-0.2103,0.1660,9.8173,-1.1695,-1.8118,0.9377,-0.1196,0.2342,9.7420,-2.0588,-1.4778,1.4215
2218.9244,0.5843,1.2481,101.6724,-2.1103,0.0000,-0.0000,54.8245,29.7854,-1.4239,1499,1500,1.0000,-0.1816,0.1636,9.8125,-1.7955,-1.9492,0.8537,-0.1340,0.2055,9.5385,-2.4252,-1.9511,1.1390
2218.9434,0.5332,1.2106,101.6922,-2.6981,0.0000,-0.0000,50.0367,30.6220,-3.3622,1498,1501,1.0000,-0.2223,0.0990,9.7239,-2.3985,-2.2164,0.9072,-0.0789,0.1073,9.7253,-2.9977,-1.8748,1.2153
2218.9626,0.4670,1.1826,101.7113,-3.4615,0.0000,-0.0000,43.8233,31.7099,-5.8789,1496,1503,1.0000,-0.2630,0.0894,9.7359,-3.2611,-2.2164,0.9606,-0.2106,0.1025,9.7779,-3.6618,-1.9969,1.0703
2218.9818,0.4022,1.1188,101.7332,-3.6218,0.0000,-0.0000,37.7364,32.7761,-8.3448,1495,1504,1.0000,-0.1313,0.0966,9.7096,-3.5054,-2.7126,1.0140,-0.1723,0.0834,9.7372,-3.7382,-2.3252,1.3146
2219.0009,0.3380,1.0755,101.7540,-3.6218,0.0000,-0.0000,31.7176,33.8311,-10.7834,1494,1505,1.0000,-0.2031,0.0918,9.8652,-3.4825,-2.5141,1.0140,-0.1412,0.0211,9.8498,-3.7611,-2.2030,1.1848
2219.0202,0.2866,1.0332,101.7763,-3.1714,0.0000,-0.0000,26.8947,34.6763,-12.7374,1493,1506,1.0000,-0.1911,0.1014,9.9155,-3.1695,-2.3232,1.0140,-0.1436,0.0427,9.7779,-3.1733,-2.1343,1.3222
2219.0393,0.2227,1.0078,101.8033,-2.7744,0.0000,-0.0000,20.8928,35.7294,-15.1698,1491,1508,1.0000,-0.2318,-0.0016,9.8484,-2.8336,-2.3614,1.2125,-0.3591,0.0092,9.6271,-2.7153,-1.5923,1.6505
2219.0584,0.1785,0.9562,101.8309,-2.0607,0.0000,-0.0000,16.7487,36.4563,-16.8492,1490,1509,1.0000,-0.1073,0.0176,10.0879,-1.9481,-1.7584,1.2889,-0.1963,-0.1225,9.9934,-2.1733,-2.0809,1.6352
2219.0776,0.1441,0.9123,101.8567,-1.6752,0.0000,0.0000,13.5228,37.0221,-18.1564,1490,1509,1.0000,-0.1624,0.0200,10.0807,-1.6962,-2.3996,1.2354,-0.0574,-0.0291,9.9455,-1.6542,-1.9893,1.4825
2219.0974,0.1017,0.9251,101.8856,-0.9882,0.0000,0.0000,9.5396,37.7215,-19.7710,1489,1510,1.0000,-0.3731,-0.0806,10.1549,-0.9176,-1.7813,1.3652,-0.1460,-0.0363,9.9695,-1.0588,-1.5771,1.6123
2219.1187,0.0850,0.8808,101.9217,-0.2325,0.0000,0.0000,7.9731,37.9961,-20.4057,1488,1511,1.0000,-0.1792,-0.0327,10.1070,-0.1848,-1.4530,1.5408,-0.1244,-0.0579,10.0724,-0.2802,-3.0885,1.8871
2219.1381,0.1075,0.8520,101.9594,0.6836,0.0000,0.0000,10.0853,37.6236,-19.5486,1489,1510,1.0000,-0.1073,0.0559,10.0400,0.6244,-1.1171,1.6858,-0.1460,-0.0291,10.1921,0.7427,-0.7755,2.2001
2219.1573,0.1145,0.8403,101.9785,1.6988,0.0000,0.0000,10.7401,37.5073,-19.2824,1489,1510,1.0000,-0.0666,-0.1021,10.1429,1.5710,1.0737,-0.0928,-0.1723,-0.0052,9.7779,1.8267,-0.4855,2.1924
2219.1764,0.1549,0.8429,102.0186,2.0233,0.0000,0.0000,14.5369,36.8382,-17.7418,1490,1509,1.0000,-0.2103,0.0248,10.0184,2.1053,-0.7584,2.0217,-0.0861,0.0451,10.0197,1.9412,-0.3328,2.1772
2219.1956,0.1909,0.8508,102.0623,2.0691,0.0000,0.0000,17.9104,36.2431,-16.3727,1491,1508,1.0000,-0.1983,0.0056,10.0328,2.2198,-0.5065,2.1362,-0.0694,0.0762,10.0772,1.9183,0.2626,2.4444
2219.2148,0.2236,0.8347,102.1272,1.8973,0.0000,0.0000,20.9779,35.7014,-15.1275,1491,1508,1.0000,-0.0690,0.0104,10.0591,2.2732,-0.0942,2.2431,-0.1125,0.0475,9.9838,1.5214,0.2626,4.5894
2219.2339,0.2685,0.8220,102.1762,0.5958,0.0000,0.0000,25.1956,34.9571,-13.4156,1492,1507,1.0000,-0.0594,0.1924,10.0687,1.7389,0.0126,2.3728,-0.0263,-0.0267,9.9503,-0.5473,0.7054,2.7192
2219.2530,0.3058,0.8375,102.2258,1.2943,0.0000,0.0000,28.6969,34.3384,-11.9940,1493,1506,1.0000,-0.1480,0.0990,10.0687,1.3267,0.5394,2.6247,-0.0670,0.2175,9.9814,1.2618,1.0718,2.5283
2219.2722,0.3502,0.8292,102.2770,1.0118,0.0000,0.0000,32.8653,33.6019,-10.3016,1494,1505,1.0000,-0.0762,0.1636,10.0376,1.2198,-0.7889,2.5713,-0.1556,0.1768,10.0197,0.8038,1.5985,2.7344
2219.2913,0.3857,0.8494,102.3312,0.7256,0.0000,0.0000,36.1935,33.0129,-8.9497,1495,1504,1.0000,-0.0930,0.1541,9.9203,0.8763,1.4630,2.7240,-0.0670,0.1911,9.9958,0.5748,1.8810,2.9024
2219.3105,0.4120,0.8615,102.3839,0.3095,0.0000,-0.0000,38.6640,32.5743,-7.9454,1495,1504,1.0000,-0.0499,0.1589,10.1214,0.4259,1.5317,2.7469,-0.0382,0.1265,9.8641,0.1931,2.0642,2.6963
2219.3296,0.4209,0.8752,102.4430,-0.2935,0.0000,-0.0000,39.5001,32.4231,-7.6038,1495,1504,1.0000,-0.0451,0.1325,9.9777,-0.0932,1.7378,2.8079,-0.0119,0.1648,9.7875,-0.4939,2.1787,3.3375
2219.3487,0.4143,0.8984,102.4975,-0.8393,0.0000,-0.0000,38.8755,32.5288,-7.8546,1495,1504,1.0000,-0.0714,0.1110,9.9681,-0.5970,2.0432,2.8156,-0.0358,0.1241,9.6247,-1.0817,2.3084,2.8413
2219.3679,0.4120,0.9427,102.5540,-0.7630,0.0000,-0.0000,38.6614,32.5623,-7.9389,1495,1504,1.0000,-0.1720,0.1229,9.8820,-0.6504,1.9745,2.9377,-0.0957,0.1049,9.7420,-0.8756,2.3390,2.9024
2219.3872,0.4369,0.9565,102.6106,-0.1676,0.0000,-0.0000,40.9937,32.1478,-6.9906,1496,1503,1.0000,-0.0475,0.1924,9.8436,-0.1313,1.9134,2.8614,-0.0119,0.1744,9.8306,-0.2038,2.2550,2.9558
2219.4061,0.4836,0.8902,102.6661,0.7179,0.0000,0.0000,45.3796,31.3718,-5.2092,1497,1502,1.0000,0.2350,0.2163,9.5132,0.4641,1.3561,2.8690,0.2132,0.1193,9.6151,0.9718,1.1710,2.9176
2219.4247,0.4964,0.8148,102.7188,0.3782,0.0000,0.0000,46.5774,31.1562,-4.7205,1497,1502,1.0000,0.2614,0.1014,9.6880,1.1282,0.4783,2.8766,0.3736,0.1648,9.4619,-0.3718,1.2550,2.7879
2219.4433,0.4993,0.7413,102.7673,1.5385,0.0000,0.0000,46.8501,31.1033,-4.6069,1497,1502,1.0000,0.3524,-0.0399,9.8413,1.8992,1.1042,2.6400,0.2634,0.0882,9.7612,1.1779,2.4916,2.5741
2219.4619,0.5190,0.7176,102.8172,2.1340,0.0000,0.0000,48.6979,30.7732,-3.8545,1497,1502,1.0000,0.1177,-0.0111,9.4678,1.9832,1.5012,2.7621,0.1341,0.1145,9.4595,2.2847,1.8275,2.6047
2219.4804,0.5577,0.6852,102.8619,3.0500,0.0000,0.0000,52.3332,30.1284,-2.3771,1498,1501,1.0000,0.1752,0.0056,10.0328,2.7923,1.6997,2.3881,0.1605,-0.0076,9.6343,3.3076,1.7130,2.4444
2219.4990,0.6044,0.6586,102.9076,4.0309,0.0000,0.0000,56.7140,29.3520,-0.5970,1499,1500,1.0000,0.1417,-0.0375,9.7407,4.0977,1.5317,2.4034,0.2060,-0.0196,9.6654,3.9641,1.7741,2.5131
2219.5181,0.6729,0.6730,102.9570,4.9469,0.0000,0.0000,63.1435,28.2147,2.0142,1501,1498,1.0000,0.0172,-0.0159,10.0424,5.1511,2.1882,2.6324,-0.0334,-0.0459,9.5433,4.7427,2.3848,2.5283
2219.5372,0.7457,0.7227,103.0060,5.5423,0.0000,0.0000,69.9732,27.0064,4.7882,1502,1497,1.0000,-0.1121,-0.0375,9.9418,5.6549,2.5928,2.6553,-0.1244,0.0211,9.4403,5.4298,2.7817,2.4444
2219.5565,0.8309,0.7862,103.0568,5.6149,0.0000,0.0000,93.5630,25.5921,12.7137,1506,1493,1.0000,-0.2079,0.0224,9.8245,5.6702,2.1882,2.6934,-0.2393,-0.0148,9.6941,5.5595,2.4916,2.5360
2219.5757,0.9272,0.8262,103.1084,6.3935,0.2537,1.9357,98.8270,23.9946,15.2514,1508,1491,1.0000,-0.1863,0.0200,9.5372,7.4030,1.3867,2.6629,-0.1316,-0.0315,9.7660,5.3840,1.5680,2.7115
2219.5949,0.9967,0.8616,103.1613,4.7943,0.4953,1.3671,108.2918,22.8377,18.7849,1510,1489,1.0000,-0.2294,0.0559,9.6210,5.0061,0.7149,2.7545,-0.0933,-0.0196,9.6702,4.5824,0.9802,2.7879
2219.6141,1.0484,0.8946,103.2181,4.2485,0.6231,0.7188,115.9817,21.9740,21.6101,1511,1488,1.0000,-0.2031,0.0344,9.7239,4.5252,0.8523,2.9301,-0.1316,-0.0603,9.6726,3.9718,1.3771,2.9787
2219.6332,1.0863,0.9111,103.2756,3.7103,0.6080,-0.0802,122.5484,21.3381,23.9617,1512,1487,1.0000,-0.1528,0.0272,9.6210,4.1129,0.9363,2.9911,-0.1412,0.0116,9.4978,3.3076,0.8504,3.0550
2219.6523,1.1056,0.9639,103.3368,3.0271,0.4445,-0.7044,126.5241,21.0079,25.3525,1513,1486,1.0000,-0.3659,0.0080,9.6928,3.3877,0.4172,3.2660,-0.2250,0.0379,9.4595,2.6664,0.3008,3.2001
2219.6714,1.1137,0.9939,103.4010,2.1645,0.1913,-0.6505,127.2857,20.8624,25.6683,1513,1486,1.0000,-0.3084,0.0344,9.7455,2.7313,-0.1477,3.1438,-0.2370,0.0618,9.4523,1.5977,0.0489,3.6352
2219.6906,1.0847,0.9759,103.4656,1.2027,0.0093,-0.0525,122.2895,21.3313,23.8881,1512,1487,1.0000,-0.1145,-0.0494,9.7479,1.7542,-0.4683,3.4797,-0.2226,0.0427,9.4332,0.6511,-0.0580,3.3833
2219.7097,1.0573,0.9816,103.5344,-0.0149,0.0000,-0.0000,119.0517,21.7730,22.6517,1512,1487,1.0000,-0.2318,0.0583,9.6784,0.3877,-0.5981,3.4950,-0.2585,0.0523,9.4739,-0.4176,-0.2717,3.7497
2219.7289,1.0437,0.9655,103.6044,-0.8393,0.0000,-0.0000,117.5249,21.9863,22.0657,1511,1488,1.0000,-0.1648,0.1876,9.6904,-0.6657,-0.8423,3.5331,-0.2202,0.0379,9.7085,-1.0130,-0.6916,3.7955
2219.7480,0.9852,0.9692,103.6730,-1.7401,0.0000,-0.0000,110.9378,22.9416,19.5164,1510,1489,1.0000,-0.2989,0.0583,9.7646,-1.4519,-1.3919,3.4568,-0.1532,0.1049,9.6439,-2.0282,-1.1725,3.8413
2219.7671,0.9206,0.9753,103.7427,-2.4348,0.0000,-0.0000,103.6578,23.9992,16.6978,1509,1490,1.0000,-0.3468,0.0822,9.9777,-2.0321,-1.8271,3.6705,-0.1891,0.1313,9.6103,-2.8374,-1.4244,3.7115
2219.7863,0.8561,0.9768,103.8101,-3.0187,0.0000,-0.0000,96.3968,25.0546,13.8863,1507,1492,1.0000,-0.3228,0.1229,9.9801,-2.4672,-1.7965,3.4721,-0.0813,0.1696,9.6175,-3.5702,-1.3252,3.6352
2219.8055,0.8020,0.9508,103.8752,-3.0722,0.0000,-0.0000,90.3032,25.9395,11.5273,1506,1493,1.0000,-0.1768,0.1636,9.8676,-2.7268,-1.6897,3.4034,-0.1316,0.1289,9.7540,-3.4176,-1.0885,3.4291
2219.8246,0.7244,0.9024,103.9412,-3.2668,0.0000,-0.0000,67.9784,27.2113,4.0667,1502,1497,1.0000,-0.0594,0.0631,9.9131,-2.8794,-1.5981,3.4339,-0.1963,0.1456,9.7779,-3.6542,-0.9893,3.5360
2219.8437,0.6662,0.8790,104.0022,-3.2363,0.0000,-0.0000,62.5102,28.1662,1.8534,1501,1498,1.0000,-0.1528,0.1325,9.8987,-3.0626,-1.5828,3.2125,-0.3471,0.3635,10.1203,-3.4099,-0.7908,3.1924
2219.8629,0.6541,0.8925,104.0610,-2.9348,0.0000,-0.0000,61.3817,28.3580,1.3997,1500,1499,1.0000,-0.3204,0.3121,9.9418,-2.8184,-1.3461,2.8385,-0.2202,0.2965,10.0054,-3.0511,-0.9893,3.2611
2219.8820,0.6451,0.8787,104.0934,-2.8851,0.0000,-0.0000,60.5382,28.4999,1.0615,1500,1499,1.0000,-0.2199,0.3241,10.0041,-2.8947,-1.4988,2.6018,-0.1508,0.2677,10.1251,-2.8756,-1.3404,0.7192
2219.9011,0.6484,0.8401,104.1373,-2.3279,0.0000,-0.0000,60.8444,28.4396,1.1896,1500,1499,1.0000,-0.1887,0.3336,10.1405,-2.4596,-1.5981,2.1896,0.0575,0.2869,10.1538,-2.1962,-3.0503,2.3756
2219.9203,0.6449,0.8068,104.1791,-1.5569,0.0000,0.0000,60.5179,28.4905,1.0610,1500,1499,1.0000,-0.0738,0.2331,10.2842,-1.2993,-1.0790,2.1515,0.1844,0.3970,10.1442,-1.8145,-0.5007,2.1848
2219.9394,0.6747,0.8017,104.2171,-0.9309,0.0000,0.0000,63.3151,27.9919,2.1994,1501,1498,1.0000,-0.2223,0.3312,10.1788,-0.6199,-1.2927,1.8843,-0.0598,0.3994,10.0820,-1.2420,-0.8900,2.0474
2219.9587,0.7276,0.8140,104.2477,-0.9691,0.0000,0.0000,68.2721,27.1130,4.2138,1502,1497,1.0000,-0.2438,0.4509,10.3129,-0.5817,-0.5141,1.5179,-0.2441,0.5287,9.9742,-1.3565,-0.3786,1.5741
2219.9779,0.7619,0.8040,104.2677,-0.9500,0.0000,0.0000,71.4986,26.5381,5.5267,1502,1497,1.0000,-0.1456,0.3672,10.1381,-0.6886,-0.8576,1.0140,-0.1172,0.4976,10.0820,-1.2115,-0.1572,1.0016
2219.9970,0.8233,0.7798,104.2822,-1.0264,0.0000,0.0000,92.7062,25.5176,12.5013,1506,1493,1.0000,-0.0547,0.5108,10.1980,-0.8184,-0.6362,0.6782,-0.0765,0.5766,10.1275,-1.2344,0.1100,0.7344
2220.0156,0.8838,0.7527,104.2901,-0.6790,0.0000,0.0000,99.5221,24.5101,15.1506,1508,1491,1.0000,-0.0020,0.4940,10.1740,-0.4825,-0.0408,0.4492,-0.0071,0.5503,10.1897,-0.8756,0.2092,0.2917
2220.0342,0.9417,0.7414,104.2958,-0.7096,0.0000,0.0000,106.0407,23.5455,17.6850,1509,1490,1.0000,-0.0666,0.4893,10.0256,-0.6428,0.0279,0.2278,-0.0622,0.4760,10.0580,-0.7763,0.2626,0.2917
2220.0527,0.9948,0.7579,104.3008,-0.8622,0.0000,0.0000,112.0214,22.6592,20.0109,1510,1489,1.0000,-0.1720,0.5012,10.2459,-0.6046,0.3027,0.1591,-0.1292,0.5000,10.1155,-1.1198,0.6290,0.2688
2220.0712,1.0230,0.7702,104.3009,-1.4882,0.0000,-0.0000,115.1932,22.1842,21.2475,1511,1488,1.0000,-0.1480,0.4438,10.1860,-1.0626,0.5394,-0.1081,-0.0023,0.4593,10.0533,-1.9137,0.5680,0.0169
2220.0897,1.0293,0.7638,104.2807,-2.4080,0.0000,-0.0000,115.8975,22.0707,21.5269,1511,1488,1.0000,-0.0523,0.4270,10.1884,-1.9787,0.3638,-2.0776,0.0408,0.4042,9.9886,-2.8374,0.8581,-0.1434
2220.1086,1.0073,0.7533,104.2739,-3.1447,0.0000,-0.0000,113.4300,22.4222,20.5757,1511,1488,1.0000,0.0100,0.3576,10.1046,-2.6810,0.8676,-0.4058,0.0144,0.2701,10.0126,-3.6084,1.3008,-0.4106
2220.1279,0.9782,0.7964,104.2689,-3.2439,0.0000,-0.0000,110.1473,22.8934,19.3081,1510,1489,1.0000,-0.1217,0.3312,10.1142,-2.9787,3.0813,-0.3295,-0.0885,0.3132,10.0604,-3.5092,1.6214,-0.3114
2220.1481,0.9467,0.8486,104.2659,-2.9577,0.0000,-0.0000,106.5964,23.4042,17.9364,1509,1490,1.0000,-0.2175,0.2929,10.0160,-2.6275,1.4783,-0.3829,-0.0765,0.2773,9.4523,-3.2878,1.9649,-0.0060
2220.1686,0.9300,0.8709,104.2630,-2.5378,0.0000,-0.0000,104.7270,23.6689,17.2168,1509,1490,1.0000,-0.1289,0.3145,9.9849,-2.3603,1.3867,-0.2989,0.0144,0.3587,9.6031,-2.7153,1.2855,-0.0747
2220.1889,0.8648,0.8479,104.2601,-2.5378,0.0000,-0.0000,97.3777,24.7371,14.3710,1507,1492,1.0000,0.0124,0.0966,9.5755,-2.4290,0.4859,-0.2455,0.0647,0.1816,9.8091,-2.6466,1.0489,-0.0442
2220.2089,0.8043,0.8359,104.2608,-2.6981,0.0000,-0.0000,90.5680,25.7269,11.7343,1506,1493,1.0000,-0.0020,0.1205,9.8341,-2.3832,0.9439,-0.1997,-0.0287,0.0954,9.5912,-3.0130,1.1939,0.2611
2220.2285,0.7381,0.8609,104.2618,-2.8355,0.0000,-0.0000,69.2594,26.8122,4.6905,1502,1497,1.0000,-0.1983,0.0894,9.6808,-2.8336,0.4554,-0.0928,-0.1723,0.1121,9.7061,-2.8374,0.7665,0.2001
2220.2479,0.6784,0.8787,104.2616,-2.3737,0.0000,-0.0000,63.6572,27.7905,2.4229,1501,1498,1.0000,-0.1792,0.0679,9.7814,-2.4901,0.3943,-0.0623,-0.1915,0.0259,9.6199,-2.2573,0.6825,0.0550
2220.2680,0.6712,0.8840,104.2643,-1.2248,0.0000,0.0000,62.9818,27.9025,2.1530,1501,1498,1.0000,-0.1432,0.1924,9.7407,-1.2535,0.2798,0.0522,-0.0741,0.0187,9.6008,-1.1962,0.4229,0.1772
2220.2884,0.6485,0.8662,104.2649,0.0462,0.0000,0.0000,60.8502,28.2708,1.2926,1500,1499,1.0000,-0.0379,0.0152,9.6976,-0.1084,0.1577,0.0522,-0.0239,0.0164,9.5361,0.2008,0.7435,0.0398
2220.3086,0.6422,0.8862,104.2680,1.0347,0.0000,0.0000,60.2604,28.3681,1.0572,1500,1499,1.0000,-0.1528,-0.0040,9.5061,0.9068,0.8065,0.1209,-0.1603,-0.0124,9.3326,1.1626,0.9573,0.2001
2220.3285,0.6501,0.8864,104.2692,1.8897,0.0000,0.0000,61.0030,28.2311,1.3623,1500,1499,1.0000,-0.1001,-0.0183,9.6306,1.7923,0.5699,0.0446,-0.2729,0.0235,9.4882,1.9870,0.5222,0.1161
2220.3480,0.6573,0.9241,104.2691,2.0729,0.0000,0.0000,61.6746,28.1064,1.6386,1500,1499,1.0000,-0.2941,-0.0351,9.5372,2.2961,0.2645,0.0140,-0.2130,0.0211,9.4260,1.8496,0.1329,0.0245
2220.3675,0.6313,0.9445,104.2698,1.3095,0.0000,0.0000,59.2427,28.5277,0.6562,1500,1499,1.0000,-0.2653,-0.1093,9.4271,1.6320,-0.2622,-0.0012,-0.0598,-0.1105,9.3853,0.9870,-0.3023,0.1695
2220.3876,0.5732,0.9490,104.2708,1.0614,0.0000,0.0000,53.7855,29.4815,-1.5533,1499,1500,1.0000,-0.2031,-0.2194,9.4055,1.0061,-0.4835,-0.0165,-0.2753,-0.2710,9.4116,1.1168,-0.2641,0.2535
2220.4079,0.5599,0.9676,104.2732,2.5156,0.0000,0.0000,52.5419,29.6946,-2.0542,1498,1501,1.0000,-0.2749,-0.1668,9.4678,1.7084,-0.6744,0.1591,-0.5003,-0.1872,9.3039,3.3229,-0.4549,0.2001
2220.4281,0.5320,1.0217,104.2750,0.5881,0.0000,0.0000,49.9209,30.1502,-3.1138,1498,1501,1.0000,-0.4282,-0.0734,9.5396,0.9374,-0.6515,0.0446,-0.3998,0.0307,9.3733,0.2389,-0.3862,0.2077
2220.4479,0.5033,1.0577,104.2762,0.5843,0.0000,0.0000,47.2309,30.6181,-4.2016,1497,1502,1.0000,-0.3803,-0.0830,9.4486,0.5175,-0.8423,0.0369,-0.4045,0.0714,9.3230,0.6511,-0.6687,0.1772
2220.4673,0.4679,1.0534,104.2816,0.3515,0.0000,-0.0000,43.9032,31.1986,-5.5482,1497,1502,1.0000,-0.2965,-0.1021,9.6545,0.5328,-1.5828,0.1820,-0.2298,0.0211,9.4044,0.1702,-1.6381,0.4825
2220.4868,0.4888,0.9985,104.2954,-0.2821,0.0000,-0.0000,45.8676,30.8483,-4.7487,1497,1502,1.0000,-0.0762,0.1924,9.7407,0.4030,-1.8271,0.5484,-0.0406,0.2582,9.6534,-0.9672,-1.3328,0.8413
2220.5070,0.5450,0.8953,104.3093,-1.4500,0.0000,-0.0000,51.1373,29.9162,-2.6085,1498,1501,1.0000,0.1680,0.4414,9.6784,-1.4901,-1.3461,0.3805,0.1222,0.3827,9.5098,-1.4099,-0.9664,0.8795
2220.5271,0.6600,0.7967,104.3235,-0.5111,0.0000,-0.0000,61.9334,28.0113,1.7732,1500,1499,1.0000,0.1153,0.6305,9.7910,-0.6581,-1.6668,0.4721,0.0025,0.3827,9.6702,-0.3641,-1.8977,0.7955
2220.5474,0.7789,0.7550,104.3398,0.7065,0.0000,0.0000,73.0908,26.0416,6.3023,1503,1496,1.0000,-0.1289,0.5587,9.8891,1.0213,-2.5446,0.6934,-0.2034,0.5790,9.8737,0.3916,-1.3939,0.8260
2220.5671,0.8470,0.6467,104.3541,-0.4653,0.0000,-0.0000,95.3698,24.9106,13.6646,1507,1492,1.0000,0.0531,0.4725,9.8341,0.3572,-3.7584,0.5179,0.1318,0.3563,10.0964,-1.2878,-2.9129,0.9253
2220.5865,0.8389,0.6011,104.3734,-0.6103,0.0000,-0.0000,94.4586,25.0357,13.3162,1507,1492,1.0000,-0.0523,0.1660,10.2842,-0.6962,-2.1706,1.0904,-0.1675,0.2797,10.2400,-0.5244,-1.1343,0.9405
2220.6062,0.8573,0.6966,104.3930,0.1950,0.0000,0.0000,96.5372,24.7225,14.1276,1507,1492,1.0000,-0.4760,0.2115,10.1573,0.0671,-0.0866,0.9148,-0.4596,0.3061,10.0844,0.3229,1.4687,1.0398
2220.6264,0.8808,0.8645,104.4052,0.8859,0.0000,0.0000,99.1758,24.3271,15.1565,1508,1491,1.0000,-0.6484,0.1732,10.0591,0.9068,2.1577,0.6324,-0.6823,0.2175,10.0940,0.8649,2.5451,0.5131
2220.6466,0.8086,1.0607,104.4143,0.1492,0.0000,0.0000,91.0460,25.5103,12.0076,1506,1493,1.0000,-0.8807,-0.1715,10.1238,0.8000,1.6768,0.5331,-0.9408,-0.3787,9.7707,-0.5015,1.3390,0.4673
2220.6667,0.7008,1.2649,104.4315,2.2790,0.0000,0.0000,65.7569,27.2818,3.3580,1501,1498,1.0000,-1.1081,-0.5379,10.0735,2.7313,0.3485,0.6629,-1.0965,-0.4098,10.1586,1.8267,-0.8519,1.3756
2220.6864,0.6241,1.4295,104.4611,0.9927,0.0000,0.0000,58.5647,28.5402,0.4452,1500,1499,1.0000,-0.8878,-0.3080,9.9131,0.7084,-0.4759,1.4263,-0.9456,-0.2183,9.7660,1.2771,1.8046,1.8031
2220.7058,0.5745,1.4903,104.4982,-2.6752,0.0000,-0.0000,53.9127,29.3525,-1.4377,1499,1500,1.0000,-0.2630,0.1110,9.6545,-2.2153,2.7836,1.6782,-0.3208,0.1361,9.4092,-3.1351,2.9649,2.0856
2220.7252,0.5591,1.4609,104.5358,-3.8890,0.0000,-0.0000,52.4663,29.6012,-2.0208,1498,1501,1.0000,-0.1289,0.3456,9.3720,-3.2611,0.7378,1.6705,-0.1675,0.2510,9.7253,-4.5168,-0.9358,2.0550
2220.7449,0.4186,1.4191,104.5772,-7.6294,0.0000,-0.0000,39.2777,31.9161,-7.3664,1496,1503,1.0000,-0.4856,0.1421,10.4566,-6.4901,-3.6668,1.7469,-0.4500,0.1193,10.1083,-8.7687,-5.3252,2.5207
2220.7645,0.1579,1.2427,104.6252,-12.0951,-0.0363,-0.9102,17.0059,36.2149,-16.6271,1491,1508,1.0000,-0.2127,-0.0375,10.4637,-11.1390,-8.0790,2.1133,0.0049,0.0211,10.1418,-13.0511,-8.7374,2.9711
2220.7840,-0.0737,1.0839,104.6764,-11.5607,-2.0993,-30.4583,66.1835,40.0379,-4.1677,1497,1502,1.0000,-0.1001,-0.0111,10.6673,-12.5588,-7.8271,2.3805,-0.1292,0.1552,10.8649,-10.5626,-5.6763,2.9329
2220.8029,-0.2177,1.0424,104.7059,-9.1905,-4.1628,-30.3432,52.3937,42.4163,-9.7317,1494,1505,1.0000,-0.3372,0.1277,10.3799,-9.6581,-4.4988,2.2889,-0.4979,0.1025,10.3094,-8.7229,-3.0885,0.7726
2220.8229,-0.3483,1.0812,104.7576,-7.0187,-4.9314,-12.7111,-2.1744,44.5740,-27.3968,1485,1514,1.0000,-0.3994,0.0008,10.7750,-6.1695,-2.1095,2.4721,-0.0813,-0.0794,10.6949,-7.8679,1.7588,2.7115
2220.8441,-0.5492,1.1224,104.8165,-9.1676,-5.9956,-26.3744,14.1204,47.8941,-24.5004,1486,1513,1.0000,-0.0164,-0.0997,10.8253,-8.5665,3.2722,2.7698,0.0575,-0.0674,10.6901,-9.7687,4.5680,2.8642
2220.8646,-0.7042,1.1582,104.8708,-7.5645,-6.2309,-11.4858,-46.2174,50.4594,-44.1409,1476,1523,1.0000,0.0794,-0.1045,10.3943,-8.4672,4.9287,2.8003,0.0719,-0.1776,10.6255,-6.6618,4.7512,2.6123
2220.8849,-0.7551,1.4254,104.9144,-2.9615,-5.6191,23.6200,-153.0478,51.3060,-76.6979,1458,1541,1.0000,-0.7490,-0.0901,10.2890,-3.8031,7.3409,2.4415,-0.7421,-0.1201,10.0724,-2.1198,6.8886,2.0550
2220.9048,-0.7608,1.6572,104.9457,0.4164,-3.1606,30.5349,-173.6148,51.4091,-82.9299,1455,1544,1.0000,-0.7202,-0.1907,9.8197,0.2045,6.9592,1.7011,-0.3686,-0.3811,10.0413,0.6282,5.4840,1.6810
2220.9243,-0.7260,1.8064,104.9853,3.6149,-0.3167,5.7719,-81.9745,50.8408,-55.0968,1470,1529,1.0000,-0.2917,-0.2960,9.8580,2.7236,6.9363,2.0522,-0.3447,-0.2374,9.3781,4.5061,8.0718,2.3069
2220.9440,-0.5280,1.9405,105.0264,9.0958,0.0000,0.0000,-49.5464,47.5798,-43.4118,1476,1523,1.0000,-0.2965,-0.0399,8.7854,7.9603,6.8523,2.4797,-0.1795,-0.1895,8.6359,10.2313,6.3161,1.8260
2220.9639,-0.1743,2.0786,105.0642,15.2332,0.0000,0.0000,-16.3590,41.7459,-29.9553,1483,1516,1.0000,-0.5383,0.1086,9.1805,14.2961,4.5623,2.0980,-0.6942,0.2175,9.1506,16.1702,3.5527,1.6352
2220.9842,0.2682,2.2302,105.1073,19.6110,0.4931,18.5251,-19.2966,34.4420,-26.4542,1485,1514,1.0000,-0.8208,0.1493,9.3241,19.7847,2.2264,2.1515,-0.0670,-0.0052,9.0429,19.4374,1.2932,1.9863
2221.0044,0.6562,2.2185,105.1523,18.8553,5.9606,112.1271,-249.0341,28.0326,-91.5298,1450,1549,1.0000,-0.2366,0.0607,9.2235,19.5175,0.9134,2.3805,-0.1556,0.0475,8.7077,18.1931,1.0413,2.1008
2221.0243,0.9305,2.3305,105.1994,17.3668,7.6738,86.3045,-143.7783,23.4975,-57.2320,1469,1530,1.0000,-0.2677,-0.1835,9.1637,17.6626,5.2951,2.5789,-0.4405,-0.2231,9.3781,17.0710,8.1100,2.3146
2221.0437,1.2840,2.5160,105.2472,21.1683,9.6979,104.0483,-155.0728,17.6516,-57.1128,1469,1530,1.0000,-0.3779,-0.1045,9.4989,20.0748,9.3790,2.7163,-0.4931,-0.1201,9.7133,22.2618,9.9268,2.1543
2221.0632,1.6863,2.4578,105.2985,22.0233,11.5467,94.6966,-82.8452,10.9978,-31.4522,1483,1516,1.0000,0.4194,0.0798,9.0176,21.8916,7.7073,2.9072,0.3520,0.1672,9.6151,22.1550,7.1176,2.2611
2221.0833,2.0901,2.4282,105.3535,14.6569,12.0133,23.2563,168.3746,4.3141,47.9239,1525,1474,1.0000,0.1560,0.7502,9.6904,16.5481,5.7913,2.7011,0.2610,0.5263,9.2704,12.7656,4.9878,2.1008
2221.1037,2.3785,2.3270,105.4166,10.4049,11.7720,-11.8131,301.8502,-0.4682,90.8360,1549,1450,1.0000,0.6947,0.6592,9.6976,10.1969,7.5241,2.7469,1.3145,0.6460,9.2799,10.6130,9.0794,2.5894
2221.1237,2.6887,2.0324,105.4797,14.5500,12.1887,20.8604,242.6890,-5.6144,76.1753,1541,1458,1.0000,2.2007,0.4773,9.6401,14.1587,14.8981,2.8232,2.5834,0.3204,8.7676,14.9412,16.1100,2.3069
2221.1429,2.8757,1.4639,105.5306,13.9088,12.4467,13.4613,285.0536,-8.7281,90.7530,1549,1450,1.0000,3.0841,0.0679,8.6250,15.5252,13.9516,2.8461,3.1125,0.2055,8.4875,12.2924,11.8504,1.8413
2221.1617,2.9661,1.0327,105.5871,7.8057,11.7506,-36.9309,440.3644,-10.2496,138.2591,1574,1425,1.0000,2.2534,0.1972,8.8596,9.7694,8.2111,3.4263,1.8292,0.7442,8.1954,5.8420,8.3619,2.1008
2221.1810,3.0907,1.1476,105.6502,1.0652,10.1478,-83.1513,587.5059,-12.3356,183.6532,1599,1400,1.0000,-0.2845,0.7981,8.0983,1.7389,4.6768,2.9988,-0.3830,0.9214,7.3430,0.3916,3.6748,2.9405
2221.2006,3.2993,1.3618,105.7087,-1.9386,8.3348,-92.3384,637.4591,-15.8110,200.7243,1608,1391,1.0000,-1.3571,1.5068,8.9554,1.0366,-4.0255,3.0369,-1.0797,1.2637,8.8897,-4.9137,-3.1343,2.8184
2221.2204,3.1290,1.6916,105.7685,-9.1981,5.5501,-129.6954,725.8700,-13.0325,225.5805,1621,1378,1.0000,-1.5534,0.5635,9.0344,-6.6504,1.2874,3.1285,0.4238,0.8160,7.3071,-11.7458,0.0031,2.9558
2221.2402,2.7984,1.1425,105.7939,-21.5912,0.0000,-0.0000,315.1126,-7.6049,99.0967,1553,1446,1.0000,1.0898,0.9394,8.5891,-15.8794,-6.7584,1.5408,0.1198,-1.2286,3.1987,-27.3031,-12.0351,1.7573
2221.2596,2.3397,0.5478,105.8024,-23.2172,0.0000,-0.0000,263.4665,-0.0610,79.0765,1542,1457,1.0000,0.2805,0.5826,12.5347,-20.9252,-19.1095,0.4034,-0.5721,0.3851,9.3206,-25.5092,-32.0198,2.8795
2221.2792,1.9377,0.0711,105.7907,-21.8699,-3.9313,-117.4383,556.4127,6.5537,162.9916,1588,1411,1.0000,-2.2382,0.7406,13.7773,-19.1924,-38.5294,0.9911,-2.4636,0.7969,12.6438,-24.5473,-44.5160,1.1772
2221.2993,1.2582,-0.3522,105.7770,-28.2477,-8.5527,-172.6130,532.3376,17.7522,149.0500,1580,1419,1.0000,-1.6109,-0.1715,13.0040,-22.9710,-41.4759,0.0217,-1.3143,1.4122,13.0269,-33.5244,-29.3786,0.9405
2221.3196,0.6162,-0.5606,105.7677,-29.3584,-11.6736,-154.0758,427.6064,28.3387,111.2787,1560,1439,1.0000,-0.7945,0.0200,11.8859,-29.8871,-19.8042,-1.1539,0.2586,-0.3835,13.4099,-28.8298,-17.3404,0.8871
2221.3399,-0.0454,-0.8301,105.7603,-32.0454,-14.7293,-150.6680,428.8086,39.2565,105.0887,1556,1443,1.0000,0.3212,0.0798,11.8117,-30.3451,-15.4759,-0.7722,-0.3471,0.4138,11.9710,-33.7458,-8.1648,0.2306
2221.3597,-0.5899,-0.4240,105.7558,-24.1981,-16.1497,-71.6522,139.9384,48.2455,13.0342,1507,1492,1.0000,-0.6843,-0.4253,14.5435,-23.8336,5.0737,-0.1768,-0.9935,-0.2662,14.9973,-24.5626,20.0947,0.0169
2221.3791,-1.2623,0.2399,105.7461,-27.7859,-17.8951,-89.9493,116.9175,59.3529,-0.5365,1499,1500,1.0000,-0.8447,-0.9904,14.3160,-26.3451,25.7760,0.3652,-1.0342,-0.8408,12.3397,-29.2267,27.2397,-0.0824
2221.3988,-1.7597,0.9401,105.7178,-23.9386,-18.8016,-46.0859,-65.4235,67.5782,-60.1740,1467,1532,1.0000,-0.6915,-0.3535,10.4135,-24.5970,26.6615,0.1285,-0.8690,-0.4888,10.6303,-23.2802,30.0031,-1.0137
2221.4189,-2.4662,1.3124,105.6725,-30.2935,-20.5254,-85.5662,-31.2803,79.2604,-56.9404,1469,1530,1.0000,0.3907,-0.7078,9.8173,-30.6428,29.6310,-0.8409,0.5124,-0.6636,7.9847,-29.9443,21.0336,-1.4335
2221.4392,-2.7055,1.2576,105.6676,-26.9157,-21.4839,-47.1845,-168.7676,83.2360,-100.5718,1445,1554,1.0000,-0.4066,0.6233,6.8629,-27.1313,0.4935,-1.6577,-0.0071,0.2270,6.4907,-26.7000,-12.6992,-0.2045
2221.4594,-2.8164,0.8868,105.6812,-16.1561,-20.6848,39.6364,-431.2972,85.0935,-180.4452,1402,1597,1.0000,-0.3994,0.2905,6.5756,-18.0626,-23.1935,-1.2150,-0.7445,0.4162,7.7261,-14.2496,-22.6687,-0.1434
2221.4791,-2.6359,0.2866,105.7029,-1.2668,-17.7721,147.8843,-722.7208,82.1410,-266.1009,1356,1643,1.0000,0.0555,0.2834,6.7886,-2.5054,-26.4530,-0.9096,0.5364,-0.0579,6.8474,-0.0282,-28.5771,0.2306
2221.4985,-2.7864,-0.6554,105.6983,-4.4271,-15.7703,102.9972,-610.4017,84.6533,-233.9125,1373,1626,1.0000,1.2574,-0.5786,7.8110,-2.4367,-30.6057,-0.9860,0.9147,-0.5894,8.6574,-6.4176,-29.1648,-1.8610
2221.5183,-3.3426,-2.0854,105.6614,-9.1943,-14.7839,49.8636,-520.0104,93.8636,-212.3213,1385,1614,1.0000,4.6619,-2.5298,10.7894,-9.2535,-32.3385,-0.8027,2.2195,-0.9413,13.0101,-9.1351,-25.3710,-6.0747
2221.5384,-2.2266,-1.3953,105.4917,28.3515,-8.3136,320.9906,-1175.1765,75.4713,-397.8357,1285,1714,1.0000,-4.1847,1.6457,7.2555,22.6931,-27.6897,-6.4211,-4.9224,2.5949,9.1985,34.0099,-20.7603,-12.4793
2221.5586,-0.1005,-0.6811,105.5401,80.9546,3.9298,513.4196,-1241.6382,40.3922,-396.7268,1285,1714,1.0000,-5.8510,1.9282,7.2148,71.7236,-54.0026,0.2507,-14.0012,1.8551,15.1188,90.1855,-12.6152,4.6123
2221.5789,0.0746,-3.0436,105.3162,78.1607,16.0392,542.1910,-1553.1115,37.5024,-488.4349,1236,1763,1.0000,7.0250,-5.6830,3.3793,94.8458,-45.4759,-11.7264,4.6257,-8.4855,15.1188,61.4756,-10.7908,-9.2732
2221.5986,-0.5026,0.8564,105.5760,42.0423,19.9397,197.3789,-520.8747,47.0316,-184.4814,1400,1599,1.0000,-11.3266,-10.4379,19.4845,31.5557,121.9134,16.5102,1.0870,3.4808,-16.0100,52.5290,103.5603,10.7421
2221.6180,0.5822,-0.1288,105.5473,44.8706,23.6793,192.5104,-488.8757,29.1266,-164.1386,1411,1588,1.0000,20.0111,2.5818,-16.6889,47.7847,47.6844,-9.4287,14.1474,4.2134,-5.9352,41.9565,28.5909,7.3146
2221.6379,1.3946,0.5825,105.2814,64.5805,29.8145,309.3629,-733.9256,15.7072,-229.6020,1376,1623,1.0000,-2.6572,-3.8419,19.4845,48.1969,28.3714,-13.2455,-18.8136,-1.5949,15.1188,80.9641,7.6519,-13.9908
2221.6581,2.5317,-0.9772,105.1191,70.2027,35.8727,300.0038,-578.9309,-3.0794,-171.8316,1407,1592,1.0000,8.2891,-1.8595,-8.8311,79.7542,21.1806,5.1133,6.2705,-1.4393,-16.2782,60.6511,-29.1954,-22.0976
2221.6772,5.6466,-3.2485,104.8093,94.5538,44.6749,459.7798,-688.2726,-54.5322,-173.7625,1406,1593,1.0000,5.0306,3.0894,-3.5854,82.3496,-19.9263,-13.3676,-5.1139,-4.3914,-7.9200,106.7580,-2.8900,-1.7236
2221.6963,5.5786,-1.9463,104.7224,44.6530,44.6716,-0.1716,628.7291,-53.4661,220.6984,1619,1380,1.0000,-1.4720,-2.1827,5.5604,65.4946,40.4554,-8.4592,-4.0653,-4.5901,14.9656,23.8115,26.7359,-12.7923
2221.7154,5.8932,0.3439,104.3076,-10.7592,36.3570,-436.2690,1920.1298,-58.7165,611.2688,1830,1169,1.0000,-8.5253,2.4501,5.2348,-17.6886,-2.0637,-17.1844,-3.0765,-4.9827,-10.2113,-3.8298,-24.4549,-20.9221
2221.7341,6.3069,0.1717,104.0876,8.5118,32.1802,-222.9009,1352.2286,-65.6052,445.0317,1740,1259,1.0000,-9.0162,3.8938,19.4845,29.9755,-58.5370,-7.2073,-7.6111,6.6627,5.3056,-12.9519,-61.8290,-3.6167
2221.7526,7.0809,0.4813,104.0356,6.3630,28.3076,-209.6144,1401.1525,-78.4463,467.4135,1752,1247,1.0000,-1.7521,2.1676,4.5118,4.5862,-32.1400,-1.4592,-2.0230,1.7426,10.2328,8.1397,-7.7679,0.5512
2221.7711,7.7620,0.5080,103.8918,-13.7286,22.0022,-341.4138,1857.4700,-89.7619,611.0982,1829,1170,1.0000,0.4242,4.6073,7.0209,-10.6886,3.2569,-9.3066,0.3137,4.4528,10.6638,-16.7687,11.3924,-8.7083
2221.7896,7.7914,0.0250,103.8601,-19.2668,15.8118,-334.4567,1840.7536,-90.3260,606.4217,1827,1172,1.0000,1.0467,1.6959,5.0457,-19.0932,-3.3767,-0.3295,4.4677,1.1560,10.5273,-19.4405,-1.5084,-2.9297
2221.8081,7.6362,-0.2404,103.7934,-13.4729,11.4191,-237.2044,1543.1749,-87.8408,515.6569,1778,1221,1.0000,0.9820,2.6177,14.3424,-11.9252,-8.8194,-2.7722,2.6145,1.6827,15.1188,-15.0206,-4.2717,-2.6396
2221.8269,6.6842,0.1799,103.7724,-31.8775,3.4800,-243.6504,1454.4909,-72.2003,479.6675,1759,1240,1.0000,-1.7665,-0.6528,18.9009,-30.1466,5.9974,-2.3829,-2.0518,1.1775,11.9255,-33.6084,16.4764,-2.0137
2221.8461,6.1927,0.5949,103.6908,-39.0874,0.0000,-0.0000,697.4139,-64.1530,247.7160,1633,1366,1.0000,-1.4744,1.7223,7.2962,-29.8260,1.4935,-4.7035,-0.7421,1.2996,9.6439,-48.3489,-2.7755,-3.3190
2221.8653,4.5237,0.4703,103.6239,-58.3279,-10.1748,-444.6855,1790.1165,-36.6595,559.0306,1801,1198,1.0000,-0.0283,-1.2729,8.4359,-56.5741,-5.6057,-2.5356,0.6274,-0.4457,5.8586,-60.0817,-5.9816,-1.5022
2221.8843,2.8897,0.7821,103.5799,-76.3393,-20.0995,-520.4628,1824.3311,-9.7267,553.1354,1798,1201,1.0000,1.6165,-0.0016,14.9648,-77.1619,22.6004,-4.8409,0.0527,-1.4345,15.1188,-75.5168,36.9573,-2.3343
2221.9035,1.4994,1.4394,103.5307,-63.7706,-26.6501,-341.9224,961.3142,13.1979,280.4755,1651,1348,1.0000,0.4098,-0.4014,14.4261,-62.9939,43.2645,-4.2684,-0.0239,0.5718,11.9997,-64.5473,33.8046,-2.5404
2221.9226,0.5506,1.7535,103.4928,-58.2096,-31.3841,-248.0879,776.4981,28.8470,215.6412,1616,1383,1.0000,0.4625,0.8628,8.1677,-60.0779,25.4096,-3.5508,-0.6919,-0.5487,8.8370,-56.3412,25.5298,-1.2885
2221.9417,-0.5380,2.2661,103.4576,-58.5760,-35.4628,-213.7204,554.9304,46.8156,138.3898,1574,1425,1.0000,-0.3108,0.1660,6.4439,-58.2229,26.6539,-2.1921,0.0360,-0.6373,6.6798,-58.9290,22.9802,-0.7999
2221.9609,-1.6547,2.5988,103.4280,-40.9767,-36.2899,-42.9672,-62.5807,65.2571,-57.9285,1468,1531,1.0000,-1.1105,-1.1891,7.6099,-44.5512,7.3332,-1.2760,0.2203,-1.7673,7.7189,-37.4023,3.8657,0.7192
2221.9800,-2.8636,2.3352,103.4098,-37.2248,-36.4302,-7.3537,-301.2824,85.2328,-141.5244,1423,1576,1.0000,0.1895,-2.2880,8.5484,-31.8413,-4.0561,-1.2531,-0.1244,-2.5047,7.2305,-42.6084,-9.1496,2.0550
2221.9990,-3.8664,2.2388,103.4266,-45.1103,-37.7322,-68.3850,-238.4396,101.8170,-132.6221,1428,1571,1.0000,-0.9932,-0.7294,6.2212,-47.0932,-21.1019,-0.5127,-1.2329,-0.4505,6.2656,-43.1275,-15.4702,1.5665
2222.0181,-4.5536,2.1734,103.4609,-33.3393,-37.0733,34.5088,-612.1722,113.2019,-251.5728,1364,1635,1.0000,-0.9453,-0.7174,7.9642,-35.3298,-14.0942,0.1820,0.1940,-0.9772,9.9862,-31.3489,-10.0503,2.3069
2222.0367,-4.6227,1.9475,103.5018,-6.7363,-32.5227,244.8729,-1225.7991,114.3877,-436.3723,1264,1735,1.0000,0.1153,-0.4972,10.0855,-13.4825,-7.7202,0.7316,-0.2250,-0.2614,10.0317,0.0099,-5.5389,2.5054
2222.0552,-4.1310,1.5183,103.5511,14.6683,-25.4441,382.4308,-1566.5885,106.3160,-533.7661,1211,1788,1.0000,0.4625,0.2163,8.0815,9.8000,-11.5294,-0.0318,-1.2473,0.0331,11.1235,19.5366,-15.3481,3.0703
2222.0738,-3.4985,1.2624,103.6183,25.5309,-17.7978,411.7748,-1579.8733,95.9156,-531.5113,1212,1787,1.0000,-0.4114,0.0487,9.9418,22.5404,-17.0408,2.1591,-0.7230,-0.3428,10.7428,28.5214,-14.1954,2.7726
2222.0923,-2.8249,0.9806,103.6861,33.5118,-10.1014,416.1668,-1516.6596,84.8287,-505.8951,1226,1773,1.0000,-0.1480,-0.4756,12.7526,34.6626,-13.9187,3.0217,1.1804,-0.2470,10.2711,32.3611,-13.9587,2.9176
2222.1107,-2.1285,0.5948,103.7622,30.8401,-0.9573,80.3315,-471.0322,73.3594,-185.3253,1399,1600,1.0000,0.6875,0.0679,9.8556,32.4565,-11.6744,3.0675,0.8213,0.9669,8.6790,29.2237,-10.3023,4.5360
2222.1295,-1.1556,0.4505,103.8229,33.3515,0.0000,0.0000,-130.1196,57.3177,-73.4265,1460,1539,1.0000,-0.0235,1.5451,12.2067,30.1053,-8.0026,3.1591,-0.1699,2.2573,12.3182,36.5977,-5.4702,2.9558
2222.1486,0.2586,0.3385,103.8968,51.0233,9.0446,388.7960,-1090.6166,33.9821,-347.5742,1312,1687,1.0000,0.0579,2.2227,11.9481,49.5786,-3.8423,4.6629,-0.4476,2.6524,11.3605,52.4679,-5.4626,3.4902
2222.1676,1.6635,0.3292,103.9921,60.7637,16.8025,407.6121,-986.6053,10.7841,-302.4520,1336,1663,1.0000,-0.7250,1.3081,10.8755,59.4183,-7.5981,6.4263,-1.0677,1.5415,11.0085,62.1092,-7.1496,4.2306
2222.1867,2.9929,0.4738,104.1116,68.0691,24.4925,402.4877,-822.1384,-11.1817,-239.9325,1370,1629,1.0000,-0.2558,0.5635,13.0662,68.4335,5.9210,7.2965,0.1772,-0.0243,12.5265,67.7046,6.7283,5.3146
2222.2059,3.7365,0.1044,104.2159,50.1721,28.3444,201.2412,-158.8142,-23.4874,-33.5518,1481,1518,1.0000,2.1863,-0.4804,9.1230,55.3572,10.4783,6.5408,3.0670,-0.2398,7.7907,44.9870,7.2779,4.0398
2222.2249,4.0712,-0.3770,104.2820,17.2599,26.6817,-87.2637,709.7743,-29.0507,230.3627,1624,1375,1.0000,2.4257,0.5826,9.2810,24.8839,2.5928,3.9530,2.1333,1.2302,9.2225,9.6359,5.6825,2.6963
2222.2439,4.2835,-0.2967,104.3635,2.4851,23.0522,-190.6762,1031.5082,-32.5959,329.0100,1677,1322,1.0000,0.6947,1.5858,10.8325,1.7771,8.7226,3.4950,0.8285,2.4489,9.5744,3.1931,13.7054,3.6505
2222.2631,5.0316,-0.1911,104.4594,12.6187,21.4872,-81.5047,801.3556,-44.9905,267.4010,1644,1355,1.0000,-0.1528,2.5052,7.8684,10.7084,5.6386,4.9224,-0.3112,2.2573,7.1371,14.5290,0.3542,5.0856
2222.2822,5.4112,-0.5533,104.5385,16.3477,20.7163,-40.4157,725.7771,-51.3083,248.5181,1634,1365,1.0000,0.5702,1.0854,9.0368,17.5252,-13.0026,5.2660,0.5005,0.8136,10.6781,15.1702,-10.4702,5.4291
2222.3013,5.4393,-0.8620,104.6077,18.3401,20.3598,-18.6778,666.3336,-51.8259,230.9956,1624,1375,1.0000,0.8456,-0.5786,11.0288,15.5404,-9.7049,4.4492,1.7646,-0.2398,10.6327,21.1397,-5.9740,4.0398
2222.3205,5.2428,-1.2165,104.6830,4.4584,17.9746,-124.5327,949.0607,-48.6357,313.8996,1669,1330,1.0000,1.7027,-0.4541,12.5539,10.2961,-4.5828,4.3270,1.2858,-1.0299,11.1402,-1.3794,-4.3786,3.9634
2222.3396,4.7588,-1.2280,104.7555,-10.2592,13.7396,-221.2156,1173.0010,-40.6984,376.3193,1703,1296,1.0000,0.3404,-0.3583,9.0655,-9.2077,-1.3538,3.1973,-1.5155,-0.1967,8.2049,-11.3107,3.8275,3.6963
2222.3587,4.3227,-1.2902,104.8207,-21.7706,8.4130,-279.5780,1291.9637,-33.5453,407.7163,1720,1279,1.0000,1.4106,0.7526,10.3273,-19.0245,7.9668,2.4568,-2.8418,0.8208,12.9957,-24.5168,11.0184,2.8795
2222.3778,4.0942,-1.1235,104.8588,-20.0912,1.3332,-72.1004,668.6949,-29.8162,218.4982,1617,1382,1.0000,0.3476,1.4014,9.1900,-26.9176,12.4630,0.9072,-0.3231,0.9477,10.3334,-13.2649,8.1176,2.0321
2222.3970,4.2000,-1.4282,104.8768,-5.3164,0.0000,-0.0000,472.9667,-31.6047,160.8528,1586,1413,1.0000,1.1544,1.3176,7.6482,-7.0703,-1.0561,0.9301,-0.1651,0.2821,12.2559,-3.5626,-1.8213,1.7039
2222.4160,4.1250,-1.3821,104.9111,-4.6256,0.0000,-0.0000,464.5119,-30.4072,157.5979,1585,1414,1.0000,0.1345,0.8628,10.5260,-6.7191,0.7226,1.2202,-0.3543,0.3539,12.4187,-2.5321,1.4229,2.3451
2222.4352,3.9028,-1.0637,104.9412,-5.3508,0.0000,-0.0000,439.4854,-26.7797,147.9134,1579,1420,1.0000,-1.2565,0.1780,8.2994,-8.0703,0.2340,0.9224,-0.4165,-0.9533,8.6981,-2.6313,-6.6381,2.5894
2222.4543,3.3416,-0.5340,104.9515,-15.1294,0.0000,-0.0000,376.2915,-17.5544,123.4201,1566,1433,1.0000,-2.6811,-0.7007,11.6058,-12.3756,0.1042,0.3194,-0.4309,-0.7235,10.9247,-17.8832,0.4000,0.7497
2222.4734,2.7734,-0.0049,104.9469,-22.4195,-3.3427,-111.1534,632.4204,-8.2060,194.6497,1605,1394,1.0000,-2.1089,-0.0662,12.7574,-23.6352,10.1195,-0.2608,-0.3734,-0.5223,11.3988,-21.2038,6.0871,-0.7999
2222.4926,2.3061,0.0602,104.9345,-18.9920,-6.9955,-110.1935,577.0333,-0.5187,173.4212,1593,1406,1.0000,-0.0930,0.0176,10.3249,-21.0245,4.7302,-0.7340,-0.0981,0.4521,7.2089,-16.9595,-0.4244,-0.6549
2222.5117,1.9426,0.0200,104.9215,-13.1561,-7.9196,-48.4640,358.3255,5.4587,104.2224,1556,1443,1.0000,0.6995,-0.1261,11.6321,-15.1161,2.6004,-0.6882,-0.9768,0.1983,9.8761,-11.1962,6.6825,-1.0060
2222.5307,1.8936,0.5637,104.9123,1.8553,-6.4533,76.9613,-8.4200,6.2487,-6.2752,1496,1503,1.0000,-1.5439,-0.0447,9.8700,0.2656,10.5699,-0.2226,0.2610,0.0930,7.7285,3.4450,11.9039,-1.4106
2222.5499,1.9119,0.8214,104.9079,5.2332,-2.8182,54.8788,57.2342,5.9283,13.6133,1507,1492,1.0000,-0.6604,-0.0351,8.0217,6.9374,5.6004,0.4873,-0.9863,-0.3859,7.7788,3.5290,4.4535,-1.2732
2222.5690,1.8009,1.2263,104.8892,-2.4271,-1.8740,7.6803,180.6690,7.7414,49.5559,1526,1473,1.0000,-1.5989,0.0200,9.4342,-0.8260,5.0050,-0.6424,-1.0031,0.2390,7.5034,-4.0282,2.3008,-1.3953
2222.5880,1.5129,1.3592,104.8533,-9.8241,-4.2279,-35.1279,271.5322,12.4773,73.9733,1539,1460,1.0000,-1.0506,-0.1213,8.1174,-10.1008,-2.4835,-2.2608,-0.5386,0.0259,8.2983,-9.5473,-8.2641,-0.7923
2222.6072,1.3913,1.4540,104.8301,-6.5340,-4.7917,-9.4522,183.8935,14.4698,46.4862,1525,1474,1.0000,-1.2637,0.2857,9.4893,-8.7955,-5.3767,-2.4898,-0.6775,-0.0411,7.9919,-4.2725,-9.6610,0.6428
2222.6263,1.4550,1.4173,104.7968,2.0576,-1.6387,22.4349,99.2255,13.4051,21.7246,1511,1488,1.0000,-0.5718,0.3288,8.6705,-1.6581,-6.1019,-2.0928,-0.8594,0.2223,9.9719,5.7733,-7.2412,-1.0900
2222.6454,1.6867,1.4876,104.7736,6.7637,0.0000,0.0000,189.9327,9.5646,51.2410,1527,1472,1.0000,-0.9070,0.7790,10.3656,3.7389,-3.4148,-1.5279,-0.4452,0.3348,9.5385,9.7885,-3.3862,-0.9602
2222.6645,1.8268,1.4565,104.7579,7.1225,0.0000,0.0000,205.7013,7.2358,57.3689,1530,1469,1.0000,-0.3515,0.2857,8.9051,6.5862,-3.4225,-0.8027,0.2132,0.0259,8.3055,7.6588,-2.6152,-0.6549
2222.6836,1.8522,1.3679,104.7353,2.8553,0.0000,0.0000,208.5719,6.7967,58.4936,1531,1468,1.0000,-0.0762,0.1636,9.2619,4.4335,-3.6515,-1.0470,0.3664,0.3444,8.6742,1.2771,-1.3939,-1.0595
2222.7028,1.7328,1.2927,104.7126,-9.0493,0.0000,-0.0000,195.1188,8.7506,53.2853,1528,1471,1.0000,0.1967,0.5347,9.5970,-6.7115,-0.4225,-1.3066,-0.0334,0.6245,8.9208,-11.3870,2.6977,-1.2656
2222.7218,1.5973,1.2176,104.6915,-11.9080,-0.1174,-2.7928,187.9074,10.9699,49.7903,1526,1473,1.0000,-0.3563,0.5970,8.2539,-11.8336,-5.4530,-1.3371,-0.3662,0.6867,8.5689,-11.9824,-7.2946,-0.6778
2222.7411,1.5472,1.1600,104.6682,-8.3584,-1.2294,-11.7453,208.0439,11.7818,55.3441,1529,1470,1.0000,-0.7586,0.7790,9.8245,-9.0550,-9.7813,-1.3524,-0.7756,0.7298,11.1785,-7.6618,-8.9129,-0.7618
2222.7603,1.5636,1.1154,104.6547,-4.8928,-1.5050,-2.2422,182.5213,11.4956,47.8590,1525,1474,1.0000,-0.4976,0.8029,10.2147,-6.1008,-5.5981,-0.9783,-0.0885,0.5359,10.1107,-3.6847,-5.3939,-0.3343
2222.7794,1.4904,0.8794,104.6417,-4.2554,-1.5208,-0.1251,168.1890,12.6874,42.8443,1523,1476,1.0000,0.3117,0.2834,9.2068,-3.2916,-7.0484,-0.8791,-0.0358,0.2558,9.9958,-5.2191,-5.5771,-0.0900
2222.7985,1.2890,0.8167,104.6279,-9.7706,-3.8537,-33.1633,240.6615,15.9974,62.6000,1533,1466,1.0000,0.1225,0.2139,11.3568,-8.3298,-1.3919,-0.8256,-0.1747,0.2893,11.0373,-11.2115,0.8046,-0.5556
2222.8177,1.0386,0.8796,104.6165,-13.9958,-6.3925,-70.0162,265.4996,20.1189,67.5785,1536,1463,1.0000,-0.0714,0.3217,10.5811,-13.2382,4.6386,-0.9096,-0.3375,0.2653,9.8450,-14.7534,3.4229,-0.4182
2222.8368,0.7728,0.9567,104.6060,-14.8317,-7.6584,-66.2477,231.5090,24.4976,54.7541,1529,1470,1.0000,-0.2989,0.2522,9.5396,-15.2382,1.7760,-0.9096,-0.6535,0.2653,10.0341,-14.4252,2.5069,-0.2045
2222.8559,0.5304,1.0872,104.5970,-14.0073,-8.6107,-49.8158,169.3279,28.4917,33.7033,1518,1481,1.0000,-0.6245,0.2498,10.0041,-13.8642,1.8600,-0.7951,-0.2848,0.3276,10.1778,-14.1504,1.4611,-0.1358
2222.8751,0.3826,1.0133,104.5999,-8.4386,-8.5849,1.3479,32.6678,30.9262,-8.7554,1495,1504,1.0000,-0.0906,0.1517,9.5875,-8.5435,-1.6210,-0.2302,0.2323,0.0475,9.7396,-8.3336,-3.8900,0.6047
2222.8942,0.2969,0.8517,104.6134,-3.9386,-7.8879,36.4986,-59.7359,32.3374,-37.3232,1479,1520,1.0000,0.0435,0.0080,9.9538,-2.6657,-6.1400,0.5331,0.2371,0.1911,10.8793,-5.2115,-5.6076,1.0092
2222.9132,0.1531,0.8379,104.6322,-5.2668,-7.4948,20.6425,-35.1762,34.7087,-31.3781,1483,1516,1.0000,-0.3611,-0.1692,11.2131,-4.7878,-2.9950,0.7011,0.0863,-0.1872,10.5082,-5.7458,-2.1877,1.4291
2222.9323,-0.0696,0.7803,104.6574,-6.7706,-7.3861,5.6800,-20.1618,38.3837,-29.0788,1484,1515,1.0000,-0.0020,-0.4373,10.7199,-5.8947,-2.3843,1.1744,-0.1148,-0.2925,10.5297,-7.6466,-0.2488,1.6505
2222.9515,-0.2485,0.8069,104.6903,-6.5454,-7.2600,6.5831,-39.1144,41.3376,-36.5369,1480,1519,1.0000,-0.1528,-0.2745,10.5906,-6.6046,0.3180,1.5789,0.0384,-0.2087,10.5848,-6.4863,2.4764,1.9711
2222.9707,-0.3717,0.8985,104.7384,-3.8202,-6.7441,26.7865,-99.1646,43.3744,-55.7740,1469,1530,1.0000,-0.1648,-0.2984,11.1485,-4.5283,3.6462,2.4110,-0.1795,-0.3236,11.2599,-3.1122,5.8046,2.7421
2222.9899,-0.4190,0.9932,104.8045,1.0271,-5.2789,57.6875,-177.7628,44.1586,-79.8240,1456,1543,1.0000,-0.1672,-0.3990,10.7080,0.5481,5.3485,3.3499,-0.1412,-0.4122,10.4268,1.5061,4.4840,3.7726
2223.0090,-0.4709,1.0520,104.8843,2.4469,-1.9137,27.5682,-110.3552,45.0212,-60.1192,1467,1532,1.0000,-0.2438,-0.5642,10.3919,3.4794,2.4401,4.2583,-0.3184,-0.2757,10.6566,1.4145,2.2016,4.3298
2223.0281,-0.4700,1.1586,104.9768,3.6950,-0.0274,0.5481,-45.4168,45.0100,-40.6311,1478,1521,1.0000,-0.4952,-0.4684,11.3328,3.9832,2.3256,4.9453,-0.2202,-0.3045,11.0660,3.4069,3.1100,4.9253
2223.0472,-0.4617,1.1939,105.0832,3.5958,0.0000,0.0000,-43.3217,44.8776,-39.9231,1478,1521,1.0000,-0.1696,-0.3990,10.7918,3.7694,2.4248,5.5789,-0.2896,-0.3452,10.2616,3.4221,2.1329,5.7192
2223.0663,-0.4516,1.2333,105.2181,3.0767,0.0000,0.0000,-42.3775,44.7160,-39.5429,1478,1521,1.0000,-0.1337,-0.3439,10.8732,3.0442,1.9974,6.0446,-0.0622,-0.3380,11.0708,3.1092,4.1558,8.4291
2223.0854,-0.4236,1.3784,105.3502,4.3515,0.0000,0.0000,-39.7534,44.2588,-38.4813,1479,1520,1.0000,-0.3276,-0.3942,11.2347,5.2427,6.5623,6.8614,-0.2441,-0.3547,11.0421,3.4603,6.7741,7.1924
2223.1046,-0.3549,1.6191,105.4922,6.3401,0.0000,0.0000,-33.3016,43.1279,-35.8673,1480,1519,1.0000,-0.5479,-0.3583,10.4829,7.3190,9.1119,7.7469,-0.2609,-0.0842,10.4052,5.3611,9.6214,7.3604
2223.1237,-0.2214,1.8257,105.6418,8.1912,0.0000,0.0000,-20.7708,40.9267,-30.7873,1483,1516,1.0000,-0.4018,-0.1979,10.5858,8.1129,9.0966,8.1133,-0.3902,-0.1991,10.6015,8.2695,10.2855,7.7039
2223.1428,-0.0597,2.0029,105.7947,7.6454,0.0000,0.0000,-5.6027,38.2602,-24.6369,1486,1513,1.0000,-0.2677,0.0080,10.5691,7.9221,10.1882,8.2812,-0.3782,0.0427,10.0676,7.3687,9.7130,7.7268
2223.1619,0.0868,2.1208,105.9556,5.0538,0.0000,0.0000,8.1404,35.8428,-19.0636,1489,1510,1.0000,-0.3156,0.1828,9.5444,5.9374,7.1500,8.3652,-0.1986,0.1025,9.8785,4.1702,5.6367,8.3756
2223.1810,0.2054,2.1958,106.1136,3.8668,0.0062,0.0147,19.2346,33.8838,-14.5599,1492,1507,1.0000,-0.3539,0.1924,9.8532,3.6626,3.9058,8.2354,-0.5123,0.1887,10.1610,4.0710,4.2016,8.1695
2223.2002,0.3271,2.2643,106.2735,3.7027,0.0301,0.0463,30.5823,31.8718,-9.9484,1494,1505,1.0000,-0.3659,0.2307,9.7000,3.8992,3.9363,8.2736,-0.2681,0.2534,9.3302,3.5061,3.4382,8.1848
2223.2193,0.4549,2.3003,106.4289,3.7446,0.0681,0.0938,42.4630,29.7581,-5.1160,1497,1502,1.0000,-0.2989,0.2810,9.8389,4.0595,2.8523,8.1438,-0.2058,0.2366,9.6798,3.4298,3.1634,7.8413
2223.2384,0.6122,2.3371,106.5744,4.0271,0.1437,0.2573,56.8301,27.1567,0.7550,1500,1499,1.0000,-0.2055,0.4198,10.2554,3.6397,3.7836,7.5942,0.2275,1.0267,9.6295,4.4145,5.0718,7.2535
2223.2569,1.1313,2.0793,106.6938,4.3553,0.2812,0.6347,125.5582,18.5808,26.5190,1514,1485,1.0000,1.1233,2.1484,9.7646,4.7542,4.1271,5.9224,1.6569,2.6691,9.4739,3.9565,3.1100,5.2153
2223.2754,1.8552,1.5594,106.7834,2.6798,0.1606,-0.3226,209.8375,6.6169,58.9811,1531,1468,1.0000,1.8320,2.9361,8.0360,2.2427,1.0508,3.2889,2.0112,2.9181,7.8913,3.1168,-1.4015,4.5283
2223.2939,2.2102,1.1032,106.8268,-3.1905,0.0000,-0.0000,248.8748,0.7387,74.2192,1540,1459,1.0000,1.6093,2.1484,9.0847,-3.2153,-2.6744,1.3347,1.4941,1.8240,8.5401,-3.1656,-1.6229,2.6428
2223.3125,2.2971,0.6782,106.8271,-3.2401,0.0000,-0.0000,258.6606,-0.7181,78.0290,1542,1457,1.0000,1.4321,0.9489,8.6322,-3.3374,-2.2545,0.0675,1.2858,0.6556,9.1099,-3.1427,-2.0122,-0.0671
2223.3309,2.2621,0.4119,106.8091,-2.6447,0.0000,-0.0000,254.7292,-0.1647,76.5176,1541,1458,1.0000,1.0634,0.4486,9.5707,-2.6428,-0.9416,-0.8485,0.8811,0.4497,9.7181,-2.6466,-0.0122,-1.0518
2223.3499,2.1944,0.3547,106.7810,-1.5073,0.0000,-0.0000,247.1035,0.9307,73.5726,1539,1460,1.0000,0.4050,0.2163,9.9586,-2.0855,2.2798,-1.5814,-0.1867,0.2438,10.0030,-0.9290,2.2703,-1.5327
2223.3691,2.1309,0.3836,106.7407,-1.9309,0.0000,-0.0000,239.9516,1.9573,70.8111,1538,1461,1.0000,0.1680,0.2666,10.0448,-1.9710,3.3943,-2.1768,0.0719,0.1816,10.5872,-1.8908,4.7054,-2.3343
2223.3883,2.0535,0.3894,106.6881,-3.3431,0.0000,-0.0000,231.2371,3.2137,67.4429,1536,1463,1.0000,0.2590,0.3073,9.6042,-3.6352,4.7302,-2.9707,0.1605,0.0475,8.7891,-3.0511,3.2855,-2.7923
2223.4074,1.8967,0.4413,106.6204,-5.1981,0.0000,-0.0000,213.5824,5.7816,60.6058,1532,1467,1.0000,-0.2103,0.0918,9.2451,-4.8794,0.8752,-3.4974,-0.2872,0.0307,8.6838,-5.5168,0.5985,-3.5785
2223.4266,1.7570,0.5850,106.5387,-5.7439,0.0000,-0.0000,197.8502,8.0692,54.5135,1529,1470,1.0000,-0.6365,0.1756,8.7854,-5.4519,-0.6668,-4.2073,-0.5362,0.1600,8.8011,-6.0359,0.6672,-4.2503
2223.4457,1.6445,0.6246,106.4475,-4.4653,0.0000,-0.0000,185.1741,9.9102,49.6061,1526,1473,1.0000,-0.5407,0.1660,8.8453,-4.7191,-3.2240,-4.9096,-0.7278,0.1552,8.6239,-4.2115,-4.6763,-4.3495
2223.4649,1.5806,0.5479,106.3388,-3.1790,0.0000,-0.0000,177.9823,10.9482,46.8258,1525,1474,1.0000,-0.1935,0.2498,8.8884,-3.5817,-5.6515,-5.6119,-0.2058,0.1624,9.1530,-2.7763,-5.1648,-5.4182
2223.4840,1.5654,0.4350,106.2293,-0.6523,0.0000,0.0000,176.2679,11.1837,46.1701,1524,1475,1.0000,0.0674,0.2450,9.0081,-1.2535,-4.2698,-5.7340,0.2802,0.1073,9.3757,-0.0511,-3.8061,-5.4640
2223.5031,1.5320,0.3301,106.1161,0.0805,0.0000,0.0000,172.5153,11.7183,44.7236,1524,1475,1.0000,0.0938,0.1086,9.0990,-0.1848,-3.8881,-5.7951,-0.0119,0.0738,9.1937,0.3458,-3.3404,-5.8228
2223.5223,1.5006,0.3566,105.9955,0.1912,0.0000,0.0000,168.9775,12.2217,43.3603,1523,1476,1.0000,-0.3946,0.1014,9.3121,0.6549,-2.8271,-6.2073,-0.0215,0.0762,9.0022,-0.2725,-2.9435,-6.2274
2223.5415,1.4735,0.3226,105.8706,-1.1905,0.0000,0.0000,165.9191,12.6551,42.1827,1522,1477,1.0000,-0.2270,0.2211,9.1637,0.1206,-3.3843,-6.4058,0.0144,0.1241,8.8825,-2.5015,-4.6916,-6.3648
2223.5606,1.4527,0.1392,105.7476,-0.1752,0.0000,0.0000,163.5852,12.9825,41.2860,1522,1477,1.0000,0.1465,0.1732,9.5037,0.5786,-6.6744,-6.4516,0.3017,0.1744,9.0788,-0.9290,-7.8595,-6.0137
2223.5797,1.3982,-0.0702,105.6222,-0.8508,0.0000,0.0000,157.4391,13.8691,38.9103,1521,1478,1.0000,0.1943,0.0751,9.9370,-0.0168,-8.5141,-6.5050,0.1222,0.2103,9.5194,-1.6847,-8.7450,-6.1663
2223.5989,1.3353,-0.2904,105.4987,-1.6561,0.0000,-0.0000,150.3598,14.8931,36.1721,1519,1480,1.0000,0.1919,0.0966,9.6808,-1.1924,-9.6362,-6.4898,0.0384,0.1409,9.7133,-2.1198,-9.5084,-5.9602
2223.6180,1.2727,-0.4123,105.3777,-3.0874,0.0000,-0.0000,143.3141,15.9128,33.4466,1518,1481,1.0000,-0.0738,0.2187,10.0088,-2.5894,-8.8347,-6.5661,0.0288,0.1073,10.0700,-3.5855,-7.1114,-5.7770
2223.6370,1.1509,-0.4427,105.2639,-4.9691,0.0000,-0.0000,129.5930,17.9118,28.1308,1515,1484,1.0000,-0.1863,0.1038,10.5116,-4.7802,-5.4683,-6.2073,-0.1412,-0.0603,10.7883,-5.1580,-3.7679,-5.5709
2223.6556,1.0134,-0.4924,105.1434,-5.4500,0.0000,-0.0000,114.1117,20.1702,22.1314,1511,1488,1.0000,0.1010,0.0344,10.3105,-4.2916,-2.9339,-5.7951,0.0073,-0.0483,10.2783,-6.6084,-2.2412,-7.0289
2223.6742,0.8246,-0.5384,105.0471,-8.3050,-0.1778,-2.4232,99.8276,23.2776,15.9817,1508,1491,1.0000,0.1991,0.0104,10.4973,-7.9023,-2.0332,-5.5814,0.0312,0.0642,10.6303,-8.7076,-0.8442,-4.8076
2223.6927,0.6026,-0.4900,104.9569,-9.3737,-1.7443,-19.5518,103.4725,26.9335,14.8816,1508,1491,1.0000,-0.1696,-0.0925,10.5739,-9.0092,-0.4759,-5.1921,-0.1460,-0.0243,10.4531,-9.7382,-0.2565,-4.5785
2223.7112,0.3625,-0.4008,104.8735,-9.9348,-4.1513,-36.6888,122.0669,30.8923,18.0847,1509,1490,1.0000,-0.3515,-0.1668,10.3488,-9.5894,-0.9797,-4.7722,-0.2609,-0.0938,10.0580,-10.2802,0.7512,-4.2503
2223.7297,0.1318,-0.3275,104.7972,-9.8928,-5.8283,-38.1788,103.9981,34.6969,10.3813,1505,1494,1.0000,-0.4329,-0.1668,10.3225,-9.5588,-1.7278,-4.4974,-0.2681,-0.1512,10.3334,-10.2267,-1.5313,-3.7541
2223.7482,-0.0874,-0.2879,104.7321,-9.3393,-6.3849,-28.1541,59.3696,38.3147,-5.1779,1497,1502,1.0000,-0.2462,-0.2003,10.4374,-9.0092,-1.4988,-3.9936,-0.1196,-0.3476,10.2663,-9.6695,-0.9206,-3.0747
2223.7668,-0.3059,-0.2473,104.6777,-8.6523,-6.7250,-18.3134,15.2472,41.9233,-20.5798,1488,1511,1.0000,-0.2127,-0.3008,10.4326,-8.5894,-1.1477,-3.2302,-0.3447,-0.2566,10.1730,-8.7153,-0.3786,-2.6549
2223.7854,-0.5140,-0.1834,104.6306,-7.9080,-6.9025,-9.5602,-30.3464,45.3622,-36.3213,1480,1519,1.0000,-0.3228,-0.3583,10.4398,-7.6810,-0.0332,-2.7417,-0.3303,-0.2590,10.2256,-8.1351,-1.0656,-2.3495
2223.8039,-0.6968,-0.0609,104.5964,-7.3126,-6.9640,-3.3179,-68.9107,48.3857,-49.7046,1473,1526,1.0000,-0.4138,-0.3248,10.3536,-7.0321,1.3103,-2.2379,-0.3710,-0.2015,10.2448,-7.5931,2.0489,-1.4335
2223.8224,-0.8766,0.0513,104.5690,-7.0111,-6.9711,-0.3813,-97.6147,51.3612,-60.1012,1467,1532,1.0000,-0.3324,-0.3535,10.0400,-5.7344,1.7149,-1.7493,-0.5674,-0.3763,10.5417,-8.2878,2.4840,-1.1511
2223.8414,-1.0143,0.1584,104.5525,-5.7630,-6.7899,9.5818,-141.8139,53.6434,-74.7302,1459,1540,1.0000,-0.3587,-0.2936,10.3680,-5.2382,2.2111,-1.0394,-0.6440,-0.2973,9.7923,-6.2878,1.3161,-0.6320
2223.8605,-1.1018,0.2272,104.5440,-2.4042,-6.1320,34.3194,-222.9035,55.0971,-99.9293,1446,1553,1.0000,-0.3468,-0.3703,10.0376,-2.8413,-0.0408,-0.6730,-0.3854,-0.2757,10.4411,-1.9672,-0.0427,-0.2121
2223.8796,-1.1195,0.2453,104.5482,-0.4233,-4.5016,38.2149,-236.1172,55.4005,-104.0755,1443,1556,1.0000,-0.1768,-0.2386,10.0256,-1.4443,-0.6820,-0.0776,-0.3830,-0.3428,10.4076,0.5977,-0.6534,0.4749
2223.8990,-1.1013,0.2724,104.5641,1.6492,-1.5670,19.8583,-181.2064,55.1121,-87.4292,1452,1547,1.0000,-0.2630,-0.2577,9.8508,0.6244,-1.4454,0.4110,-0.4381,-0.2231,10.5584,2.6740,-0.9969,1.1695
2223.9182,-0.9933,0.3236,104.5885,3.0843,-0.0195,0.3555,-112.8708,53.3391,-65.8647,1464,1535,1.0000,-0.3156,0.0320,10.2076,2.0748,-0.5446,1.0217,-0.4237,-0.2183,10.3023,4.0939,-0.2259,1.4673
2223.9374,-0.8800,0.4117,104.6250,4.5652,0.0000,0.0000,-99.0903,51.4787,-60.6143,1467,1532,1.0000,-0.4066,-0.0614,10.5428,4.3038,0.6004,1.7392,-0.4883,0.0164,10.2687,4.8267,0.9497,2.0779
2223.9565,-0.7437,0.4976,104.6638,6.2256,0.0000,0.0000,-69.7819,49.2366,-50.4765,1472,1527,1.0000,-0.2701,-0.0854,10.5236,6.3496,1.9058,2.2125,-0.2872,0.0978,10.1466,6.1015,2.7206,1.9024
2223.9757,-0.6033,0.6004,104.7122,6.3859,0.0000,0.0000,-56.6076,46.9260,-45.1379,1475,1524,1.0000,-0.2701,-0.0542,10.3871,6.4946,3.2035,2.5789,-0.3303,0.0762,9.9120,6.2771,3.4458,2.5436
2223.9949,-0.4601,0.7288,104.7596,5.9851,0.0000,0.0000,-43.1701,44.5678,-39.6917,1478,1521,1.0000,-0.3851,0.0248,10.2985,6.5023,3.5852,2.6782,-0.4213,0.0044,9.8474,5.4679,3.5756,2.3298
2224.0140,-0.3330,0.8565,104.8089,5.3515,0.0000,0.0000,-31.2502,42.4752,-34.8602,1481,1518,1.0000,-0.3779,0.0296,10.2770,5.8458,3.8523,2.8461,-0.6416,0.1097,10.1347,4.8573,3.8352,2.3451
2224.0333,-0.2510,1.0179,104.8789,4.5538,0.0000,0.0000,-23.5549,41.1246,-31.7412,1482,1517,1.0000,-0.5622,-0.0949,10.2076,4.8381,4.1119,2.7240,-0.4141,0.1361,9.8474,4.2695,3.4993,4.5589
2224.0525,-0.1426,1.1328,104.9334,4.3019,0.0000,0.0000,-13.3795,39.3368,-27.6159,1485,1514,1.0000,-0.4353,0.0679,9.9921,4.3648,3.0737,2.8003,-0.4261,0.1576,9.8761,4.2389,2.9802,2.8566
2224.0716,-0.0057,1.2442,104.9864,5.2217,0.0000,0.0000,-0.5381,37.0788,-22.4087,1487,1512,1.0000,-0.4114,0.1397,9.9801,4.9908,2.9592,2.6247,-0.3662,0.0978,10.0341,5.4527,3.7817,2.8642
2224.0913,0.1291,1.3708,105.0349,6.0500,0.1624,1.1377,9.3796,34.8535,-18.0982,1490,1509,1.0000,-0.4353,0.0655,9.8580,5.5786,3.5699,2.5331,-0.3567,-0.0866,9.7899,6.5214,4.1863,2.3604
2224.1109,0.2838,1.4992,105.0837,7.2866,0.9968,7.4322,8.7916,32.2977,-16.7411,1490,1509,1.0000,-0.4545,0.0679,9.8173,6.9755,3.7302,2.6095,-0.2154,0.0068,9.7899,7.5977,4.3237,2.3146
2224.1302,0.3876,1.6460,105.1282,6.2981,1.7929,7.4836,18.4137,30.5802,-12.8240,1493,1506,1.0000,-0.5263,-0.0351,9.9514,7.2656,4.3714,2.3423,-0.3950,0.0187,9.7636,5.3305,4.8504,2.2840
2224.1494,0.5241,1.7379,105.1707,7.1874,2.9830,13.9709,15.6541,28.3225,-12.2973,1493,1506,1.0000,-0.3659,0.0511,9.6425,7.2503,3.9363,2.5179,-0.2824,0.0858,9.5385,7.1244,3.5832,1.8718
2224.1686,0.6897,1.7853,105.2059,7.6378,4.2560,18.4596,24.5011,25.5837,-7.9999,1495,1504,1.0000,-0.2653,0.1636,9.4103,7.5633,2.8294,1.8919,-0.3160,0.1097,9.6941,7.7122,2.6138,1.6734
2224.1878,0.8761,1.8187,105.2319,8.2714,5.4399,23.2425,31.7091,22.5003,-3.9875,1497,1502,1.0000,-0.2677,0.2331,9.5180,7.7313,2.0050,1.3957,-0.3399,0.1911,9.6055,8.8115,2.1787,1.1924
2224.2069,1.0616,1.8313,105.2513,8.8973,6.1382,25.4501,46.2416,19.4286,2.2153,1501,1498,1.0000,-0.2294,0.2115,9.6090,8.3801,1.3180,1.0827,-0.2585,0.2007,9.7492,9.4145,1.8275,0.8566
