timestamp,roll_deg,pitch_deg,yaw_deg,omega_raw,omega_filtered,alpha,tau_ff,tau_pid,tau_total,pwm_left,pwm_right,deadzone_factor,accel1_x,accel1_y,accel1_z,gyro1_x,gyro1_y,gyro1_z,accel2_x,accel2_y,accel2_z,gyro2_x,gyro2_y,gyro2_z
393.4884,0.9389,0.6107,34.1124,-8.5792,-3.6207,-25.1792,150.4602,-20.6427,5.8069,1502,1497,0.1107,0.0963,0.5229,10.0604,-7.4625,0.5122,-3.2729,0.0291,0.4833,9.3160,-9.6960,0.3635,-2.9189
393.5078,0.8065,0.5503,34.0480,-11.8388,-6.0020,-53.0782,204.7242,-16.1382,65.3919,1532,1467,1.0000,0.1777,0.6043,9.8090,-10.1342,-0.1825,-3.5324,-0.0906,0.5599,9.7996,-13.5433,0.2948,-3.2318
393.5278,0.6175,0.5619,33.9808,-14.5449,-7.2835,-64.2492,213.4081,-12.3557,65.9321,1532,1467,1.0000,-0.1000,0.5731,9.7539,-14.4625,0.4435,-3.5782,-0.1768,0.5647,9.7709,-14.6273,0.4552,-3.2776
393.5465,0.3938,0.5796,33.9179,-17.0869,-8.7540,-78.6224,226.4584,-7.8805,67.3486,1533,1466,1.0000,-0.1982,0.5540,9.8114,-16.4854,0.3290,-3.7843,-0.1146,0.4593,9.6224,-17.6884,-0.7510,-3.0715
393.5650,0.1193,0.6057,33.8504,-19.8235,-10.4144,-89.6140,226.5161,-2.3877,64.6184,1532,1467,1.0000,-0.1790,0.5133,9.9646,-18.5617,0.1458,-3.8225,-0.1840,0.5814,9.8283,-21.0853,0.8139,-3.5601
393.5839,-0.1330,0.5954,33.7788,-21.9647,-12.1470,-91.4804,248.1608,2.6611,68.1545,1534,1465,1.0000,-0.0521,0.7886,9.9790,-21.0732,-0.8542,-4.1965,-0.1026,0.5599,9.9026,-22.8563,0.8750,-3.5677
393.6024,-0.4583,0.6577,33.7044,-24.2930,-13.9689,-98.7685,231.7210,9.1699,60.2969,1530,1469,1.0000,-0.3658,0.5612,9.8521,-24.3174,0.5580,-4.4332,-0.4928,0.2510,9.5554,-24.2685,0.1040,-3.7662
393.6210,-0.8563,0.7246,33.6317,-27.4418,-15.9898,-108.8526,214.9649,17.1340,51.6232,1525,1474,1.0000,-0.4136,0.4678,10.2879,-26.6533,0.1076,-4.1965,-0.4282,0.4067,9.9600,-28.2303,0.6078,-3.7280
393.6394,-1.2799,0.7630,33.5584,-28.9113,-17.9280,-104.9686,155.0359,25.6102,30.6050,1515,1484,1.0000,-0.2604,0.3792,9.9383,-28.4167,0.5351,-4.4332,-0.2750,0.2846,9.6895,-29.4059,0.6689,-3.6211
393.6579,-1.7370,0.7645,33.4790,-30.8846,-19.8715,-105.4576,103.8467,34.7693,11.6924,1505,1494,1.0000,-0.1383,0.3194,10.0652,-30.2182,0.2526,-4.6393,-0.1074,0.2870,9.6895,-31.5510,0.0887,-4.1097
393.6763,-2.2255,0.7977,33.3965,-31.1518,-21.5635,-91.9468,8.7130,44.5633,-19.8420,1490,1509,1.0000,-0.2413,0.1039,10.0556,-30.5617,0.3519,-4.8606,-0.3300,0.3253,10.0917,-31.7418,1.0811,-4.1555
393.6948,-2.7102,0.8725,33.3129,-31.5296,-23.0585,-80.6341,-79.6434,54.2844,-49.4423,1475,1524,1.0000,-0.4017,0.0895,9.8832,-31.5083,0.9778,-4.9370,-0.3348,-0.0051,9.6272,-31.5510,1.4017,-4.0792
393.7132,-3.1731,0.9267,33.2290,-30.0716,-24.1104,-57.1311,-200.5987,63.5738,-87.9545,1456,1543,1.0000,-0.3873,-0.0302,9.7875,-29.9205,0.3671,-4.9370,-0.3348,-0.2230,9.9193,-30.2227,0.4628,-4.2395
393.7316,-3.6349,0.9381,33.1430,-27.2968,-24.5884,-25.9836,-343.4460,72.8461,-132.5879,1433,1566,1.0000,-0.2054,-0.3391,9.5265,-27.6228,-0.4268,-4.9294,0.0123,-0.3643,10.1157,-26.9708,1.1040,-4.4227
393.7500,-4.0702,0.9715,33.0592,-24.2434,-24.5366,2.8163,-476.4812,81.5923,-174.2109,1412,1587,1.0000,-0.2389,-0.5689,9.7923,-25.3938,0.6648,-4.9217,-0.0092,-0.6061,9.8523,-23.0929,1.8597,-4.0257
393.7684,-4.4297,0.9775,32.9772,-19.9189,-23.8440,37.6962,-618.3104,88.8271,-217.5405,1391,1608,1.0000,-0.0880,-0.6431,9.5433,-20.0121,1.1687,-4.5782,0.0746,-0.6324,9.5506,-19.8258,2.0048,-4.1326
393.7867,-4.6786,0.9856,32.9003,-15.4876,-22.5905,68.2649,-734.9867,93.8508,-252.7217,1373,1626,1.0000,-0.1479,-0.5617,9.4068,-15.5694,0.7030,-4.4637,-0.4689,-0.6420,9.8403,-15.4059,1.0277,-3.8425
393.8051,-4.8358,1.0305,32.8240,-9.9953,-20.7012,102.8109,-852.5729,97.0435,-287.2422,1356,1643,1.0000,-0.3059,-0.6311,9.2703,-11.4014,0.3519,-4.3416,-0.0188,-0.7114,9.9169,-8.5891,1.8216,-3.8349
393.8234,-4.8718,1.0730,32.7625,-3.9571,-18.1896,136.8312,-954.6983,97.8129,-316.2220,1341,1658,1.0000,-0.3729,-0.6479,9.7659,-4.6686,0.4129,-3.5553,0.0746,-0.6300,9.1699,-3.2456,0.3941,-3.1708
393.8418,-4.8761,0.9622,32.7123,2.1002,-15.1461,165.8359,-1038.7298,97.9482,-339.8184,1330,1669,1.0000,0.3525,-1.0166,9.5672,1.1635,-0.9458,-2.8835,-0.4833,-0.4792,9.3471,3.0368,1.6842,-2.4456
393.8602,-4.6098,0.7332,32.6786,10.2108,-11.3426,207.2361,-1127.3106,92.6676,-361.9807,1319,1680,1.0000,0.7092,-0.3893,8.3533,9.6826,-4.1519,-2.0439,1.0155,-0.7545,9.9193,10.7391,2.8903,-1.8120
393.8794,-4.2314,0.9671,32.6585,12.8597,-7.7123,188.4618,-1029.6904,85.1414,-330.8840,1334,1665,1.0000,-1.2085,-0.1739,8.9399,14.9879,-2.7932,-1.6164,-0.5623,-0.4672,9.4716,10.7315,-0.2853,-0.9494
393.8981,-3.9565,0.8563,32.6464,15.1116,-1.6942,72.5048,-664.1019,79.6836,-225.7903,1387,1612,1.0000,0.1227,-0.7868,10.0245,14.9574,-3.1596,-0.5477,-0.8735,-0.1751,10.2090,15.2658,-2.4151,-1.0792
393.9168,-3.6434,0.7225,32.6483,16.0391,0.0000,0.0000,-419.2529,73.4574,-154.1195,1422,1577,1.0000,0.2998,-0.6551,10.2783,14.5070,-0.5107,-0.2958,0.5367,-0.2541,9.1987,17.5712,-3.5677,0.2644
393.9354,-3.1991,0.6793,32.6516,16.1116,0.0000,0.0000,-368.1263,64.6038,-135.3773,1432,1567,1.0000,-0.0066,0.0416,11.1210,14.9116,-0.8542,-0.2423,0.1991,0.1696,9.1245,17.3116,-0.9494,0.3636
393.9540,-2.7426,0.5906,32.6660,18.2681,0.8404,29.3461,-400.1151,55.5020,-133.4353,1433,1566,0.9546,0.1897,-0.0182,9.7659,19.1100,-3.8466,0.8493,0.3523,0.0667,9.5003,17.4261,1.7071,0.5010
393.9725,-2.3514,0.7376,32.6883,15.6918,5.4747,92.2816,-536.3512,47.7012,-159.8927,1420,1579,0.9188,-0.8709,-0.0015,9.7683,16.9192,-0.5794,1.3760,-0.2893,-0.4074,9.6967,14.4643,-1.4227,0.7834
393.9909,-2.0840,0.7837,32.6930,14.6154,7.0100,72.8878,-449.7246,42.3737,-147.1097,1426,1573,1.0000,-0.2724,-0.4133,9.2823,17.6444,1.3213,-0.1889,0.5103,-0.0099,9.7709,11.5865,0.1956,0.8445
394.0094,-1.8822,0.7062,32.7208,10.3063,7.5044,26.8595,-293.9428,38.3567,-101.4824,1449,1550,1.0000,0.2974,-0.3199,10.1394,10.4077,-3.5871,1.6279,0.2206,0.0044,9.2130,10.2048,5.8063,1.4323
394.0278,-1.5221,0.7557,32.7521,7.9589,7.5726,3.7047,-185.8154,31.1692,-67.6129,1466,1533,1.0000,-0.2365,0.6306,9.4714,9.9497,-0.9153,1.9638,-0.9238,0.7993,11.5139,5.9681,3.5544,1.1575
394.0462,-1.0657,0.8880,32.7912,12.5696,8.3221,40.7093,-199.8947,22.0524,-66.9967,1466,1533,1.0000,-0.7033,0.6905,8.4611,11.7665,0.1000,1.7958,-0.4928,0.6461,8.9832,13.3727,-1.8349,2.1269
394.0646,-0.7496,0.8332,32.8216,12.9742,9.0199,37.9353,-162.9255,15.7378,-53.4881,1473,1526,1.0000,-0.0042,0.2212,11.5520,12.6215,0.1534,1.2157,-0.2726,-0.2134,10.4173,13.3269,-3.2624,2.0659
394.0829,-0.3732,0.8926,32.8481,18.7490,10.4793,79.4109,-226.3746,7.4681,-67.1190,1466,1533,1.0000,-0.2461,0.0440,9.1458,17.4459,1.1534,1.0477,0.2949,-0.3595,10.7166,20.0521,3.0811,2.0430
394.1013,-0.0612,1.0398,32.8760,15.2185,11.1902,38.7299,-98.8247,1.2255,-28.2837,1485,1514,1.0000,-0.7991,0.0751,9.8497,16.2245,-0.1367,1.2462,0.0052,-0.1751,8.7605,14.2124,1.9895,1.8598
394.1206,0.1943,1.0984,32.9043,12.3521,11.3645,9.0086,-2.9877,-3.8882,1.1075,1500,1499,1.0000,-0.5717,-0.0398,10.2711,17.4001,-0.4726,1.6432,-0.6317,0.3636,9.1316,7.3040,-2.5372,1.1956
394.1394,0.2424,1.2231,32.9293,6.8330,10.6847,-36.1977,110.1167,-4.8501,33.2577,1516,1483,1.0000,-0.5525,-0.3223,10.2328,4.1482,2.8786,2.0325,-0.4066,0.5431,9.3974,9.5177,2.3941,0.4628
394.1583,0.2760,1.3011,32.9412,2.9475,9.5242,-61.5507,174.1876,-5.5228,51.5339,1525,1474,1.0000,-0.4472,-0.0589,11.1857,2.2627,3.2603,0.9561,-0.1720,0.0212,9.7158,3.6323,0.4094,0.2185
394.1777,0.4478,1.2195,32.9480,7.5925,9.2344,-14.8933,94.4205,-8.9605,30.9180,1515,1484,1.0000,0.0724,0.1278,9.4547,9.2780,-1.7016,0.2539,-0.3133,0.0044,10.6136,5.9071,0.4399,0.4552
394.1973,0.7706,1.3830,32.9378,12.9360,9.7897,28.3938,6.8973,-15.4196,9.6410,1504,1495,1.0000,-0.8901,0.3433,8.7604,13.8963,-0.5642,-0.1202,-0.2390,-0.1967,9.6248,11.9758,-0.7128,-1.2318
394.2166,0.9905,1.5280,32.9384,14.9856,10.5691,40.2839,-2.0461,-19.8191,9.3367,1504,1495,1.0000,-0.8159,-0.1978,10.4866,14.8505,4.6114,0.2691,-0.3228,0.1433,8.2793,15.1208,-2.4380,-0.1250
394.2354,1.1302,1.6149,32.9339,14.0849,11.0964,28.1275,49.0404,-22.6146,25.0386,1512,1487,1.0000,-0.6028,-0.4229,9.9646,15.1940,1.3519,0.4981,-0.3995,-0.0291,9.5626,12.9758,0.1498,-0.7738
394.2542,1.2674,1.6879,32.9213,10.4055,10.9928,-5.5006,161.6768,-25.3713,57.9552,1528,1471,1.0000,-0.4807,-0.0637,9.6103,10.0642,-0.9916,-0.3797,-0.0451,-0.2637,10.4293,10.7468,4.6918,-0.9189
394.2739,1.5474,1.7234,32.9028,11.1116,11.0106,0.9078,175.4433,-30.9873,64.6178,1532,1467,1.0000,-0.3538,0.5013,9.9527,11.7360,0.7335,-1.0515,0.1943,-0.0746,9.2082,10.4872,1.8521,-1.0639
394.2935,1.8047,1.6938,32.8844,14.5467,11.5410,26.9661,129.9992,-36.1506,54.4751,1527,1472,1.0000,-0.3442,0.1230,10.4052,16.6139,-2.0451,-0.7156,-0.1169,0.2391,8.5834,12.4796,-1.5601,-0.9570
394.3130,2.1275,1.6532,32.8638,21.0276,12.9640,73.2128,33.9573,-42.6286,30.8223,1515,1484,1.0000,-0.1216,-0.0877,10.2208,21.8887,-0.5184,-0.5171,-0.2821,0.3205,10.1492,20.1666,0.3635,-1.4074
394.3318,2.4889,1.5695,32.8405,23.3673,14.5245,82.8884,47.6824,-49.8820,38.2921,1519,1480,1.0000,0.1514,0.0153,9.6342,22.5833,1.8328,-0.9904,-0.1122,0.1265,9.4525,24.1513,-1.0868,-1.2624
394.3506,2.8474,1.4568,32.8069,20.7452,15.4576,49.5639,184.9073,-57.0798,80.3139,1540,1459,1.0000,0.0915,0.2978,9.9503,20.0948,-1.5260,-1.6851,-0.3420,0.1577,9.9912,21.3956,-2.5448,-1.5295
394.3702,3.1710,1.4809,32.7688,19.0582,15.9977,27.5987,285.4124,-63.5847,111.7078,1555,1444,1.0000,-0.3227,0.2786,10.0317,19.2398,-0.2665,-1.7843,-0.2534,0.3660,10.3216,18.8765,1.1803,-2.0410
394.3898,3.4180,1.5123,32.7290,18.1765,16.3245,16.6938,345.2427,-68.5589,130.9474,1565,1434,1.0000,-0.2820,0.0632,9.9479,19.0108,1.5809,-1.7003,-0.2726,0.0882,9.2394,17.3422,0.7223,-2.2700
394.4092,3.7381,1.4586,32.6883,20.1536,16.8989,29.5302,345.0997,-74.9964,134.1261,1567,1432,1.0000,-0.0378,0.2619,9.4403,19.8658,0.0313,-1.7309,-0.2965,0.4378,9.8068,20.4414,-0.8960,-2.2318
394.4282,4.0713,1.4650,32.6440,21.7185,17.6218,38.0637,358.8745,-81.7022,141.3360,1570,1429,1.0000,-0.1239,0.3050,9.9814,20.4535,1.6496,-2.1813,-0.2750,0.2702,10.3623,22.9834,1.6155,-2.5066
394.4470,4.4225,1.4664,32.5951,22.2719,18.3193,37.1305,401.9756,-88.7699,156.9381,1578,1421,1.0000,-0.2149,0.4079,9.7563,21.0642,1.1839,-2.4713,-0.0667,0.2367,10.1324,23.4796,-0.7281,-2.6059
394.4663,4.7323,1.4043,32.5343,19.5773,18.5080,9.7538,516.4750,-95.0134,192.1197,1596,1403,1.0000,-0.1694,0.4558,9.7970,20.7589,-2.4420,-2.7843,-0.2175,0.0858,9.7637,18.3956,-2.6059,-2.9189
394.4859,4.9456,1.3703,32.4502,15.5276,18.0610,-22.8453,634.9056,-99.3284,227.4378,1613,1386,1.0000,-0.1982,0.4367,10.3573,16.8047,-2.8313,-3.1813,0.0387,0.3755,9.9648,14.2506,0.2643,-5.1326
394.5056,5.0999,1.3418,32.3768,14.1116,17.4686,-30.0774,673.4920,-102.4654,239.8104,1619,1380,1.0000,-0.0402,0.3122,9.8952,14.7742,1.3900,-3.6087,0.0842,0.4043,9.5578,13.4490,-0.4838,-3.6517
394.5247,5.2133,1.2419,32.2999,13.9169,16.9358,-27.9530,680.4347,-104.7872,242.9153,1621,1378,1.0000,0.2400,0.1972,9.8186,13.4994,-0.2817,-3.7232,-0.1409,0.4258,9.9193,14.3345,-0.1021,-3.9723
394.5436,5.3428,1.2131,32.2212,13.9017,16.4807,-24.0854,684.1989,-107.4304,245.2909,1622,1377,1.0000,0.0652,0.3146,10.3717,13.8810,0.7335,-3.9217,-0.0595,0.2486,10.2066,13.9223,1.9055,-4.4074
394.5630,5.4151,1.2014,32.1329,11.6918,15.7624,-36.8686,729.3322,-108.9300,258.6780,1629,1370,1.0000,-0.0425,0.2308,9.8545,12.6139,0.8481,-4.2118,0.0315,0.2941,8.8970,10.7697,1.0200,-4.7738
394.5826,5.4064,1.2371,32.0378,6.2299,14.3325,-73.0237,832.4518,-108.8091,287.4910,1643,1356,1.0000,-0.3801,0.3457,9.8545,8.6062,-0.9687,-4.7003,-0.1792,0.4043,9.3160,3.8536,-0.1479,-4.6440
394.6021,5.3318,1.2161,31.9367,1.7414,12.4438,-96.7647,892.2406,-107.3705,303.5126,1651,1348,1.0000,-0.0138,0.4486,9.8880,3.3467,0.4282,-5.0973,-0.2678,0.5072,10.0127,0.1361,1.0353,-5.2013
394.6206,5.2156,1.1733,31.8386,-1.2853,10.3844,-111.2912,920.7065,-105.0991,310.3474,1655,1344,1.0000,0.1035,0.4941,9.7372,-1.6381,1.2068,-5.5248,-0.1409,0.4976,9.4979,-0.9326,0.3025,-5.0257
394.6398,5.1034,1.1255,31.7300,-1.9762,8.5304,-96.6907,865.7502,-102.9073,293.8637,1646,1353,1.0000,-0.0593,0.5683,9.6654,-2.1495,-1.1596,-5.7309,0.1033,0.4043,9.8882,-1.8029,-1.4761,-5.2013
394.6594,4.9285,1.1384,31.6162,-4.2472,6.6137,-97.7555,848.6795,-99.4570,287.3588,1643,1356,1.0000,-0.2748,0.4989,10.1921,-3.7984,-1.3199,-5.7919,0.0267,0.5072,9.7278,-4.6960,0.2338,-5.5372
394.6789,4.6800,1.1446,31.5000,-7.1021,2.4065,-55.6834,698.9136,-94.5340,242.9628,1621,1378,1.0000,-0.1383,0.3696,10.0149,-4.8976,1.0694,-6.2423,-0.2941,0.2630,9.2106,-9.3067,-0.1784,-5.4990
394.6980,4.3664,1.1837,31.3800,-10.6212,0.0000,-0.0000,502.4589,-88.3063,184.8416,1592,1407,1.0000,-0.3346,0.2906,9.2248,-10.7297,-0.2588,-6.4026,0.1057,0.4593,9.6440,-10.5128,-0.0792,-5.9189
394.7166,3.9743,1.1684,31.2590,-16.2357,0.0000,-0.0000,457.3355,-80.5041,168.3060,1584,1415,1.0000,-0.0641,0.3696,10.5369,-15.7984,-0.6634,-6.4866,-0.1050,0.4929,9.3711,-16.6731,1.5926,-6.3387
394.7358,3.5634,1.1814,31.1416,-16.8273,0.0000,-0.0000,410.0536,-72.3225,150.9762,1575,1424,1.0000,-0.2149,0.2882,9.7348,-15.7831,0.0236,-6.1660,-0.1553,0.4091,9.9552,-17.8716,0.2261,-5.8731
394.7554,3.3133,1.1679,31.0206,-14.1594,-2.6121,-48.4536,520.8086,-67.3518,179.5023,1589,1410,1.0000,-0.2652,0.6905,9.1099,-14.2793,-1.5336,-6.4561,-0.2678,0.6868,9.7685,-14.0395,-2.5448,-5.6669
394.7749,3.0808,1.2057,30.9239,-12.0678,-5.6271,-55.8844,515.4604,-62.7337,175.6958,1587,1412,1.0000,-0.4065,0.6043,9.8856,-12.7449,-0.9077,-6.2347,-0.4689,0.4234,9.2944,-11.3906,-0.5067,-3.3998
394.7940,2.9046,1.3014,30.8148,-9.6250,-6.3268,-30.4667,421.9796,-59.2385,147.7735,1573,1426,1.0000,-0.6602,0.5755,9.9910,-8.4243,-0.0222,-5.8148,-0.2103,0.6509,9.8331,-10.8258,-0.6441,-5.5601
394.8127,2.6741,1.2641,30.7045,-8.9418,-6.7190,-21.0064,368.2089,-54.6552,130.4261,1565,1434,1.0000,-0.1982,0.2068,9.2703,-8.9358,-2.6252,-5.9217,0.1608,0.1672,9.8762,-8.9479,-1.3616,-5.5143
394.8319,2.3466,1.2223,30.5933,-13.3235,-7.7097,-51.5658,418.5309,-48.1283,141.2528,1570,1429,1.0000,-0.2461,0.1518,10.1658,-12.2793,-2.5184,-5.9141,-0.1457,0.0667,9.2442,-14.3677,-2.7662,-5.2089
394.8515,1.9718,1.2253,30.4805,-15.0716,-8.8140,-56.3351,389.1391,-40.6523,129.2851,1564,1435,1.0000,-0.2844,0.0488,10.3884,-12.7144,-0.9535,-5.7385,-0.3659,0.4522,9.4932,-17.4288,-0.5448,-5.4914
394.8711,1.6309,1.2534,30.3916,-14.8006,-9.7120,-45.9839,320.0976,-33.8502,106.5524,1553,1446,1.0000,-0.4113,0.1015,9.1985,-14.1190,-1.6939,-5.5324,-0.4617,0.4689,9.3471,-15.4823,-1.0181,-3.2089
394.8902,1.4057,1.2440,30.2953,-14.0067,-10.3562,-33.7203,258.8663,-29.3606,87.1629,1543,1456,1.0000,-0.2293,0.4869,9.7851,-14.9739,-1.3123,-5.2118,-0.2199,0.2606,9.8283,-13.0395,-0.2166,-4.9036
394.9088,1.2246,1.2476,30.2023,-9.6250,-10.2465,5.8753,103.3283,-25.7512,41.8075,1520,1479,1.0000,-0.2484,0.2356,9.4954,-9.5770,-0.6481,-5.1736,-0.0092,0.2630,9.9074,-9.6731,-0.0563,-4.7433
394.9280,1.0318,1.2269,30.1095,-7.9075,-9.8957,18.2762,55.0761,-21.9051,26.3738,1513,1486,1.0000,-0.2628,0.0368,9.4212,-8.0197,-1.8390,-5.0973,-0.2774,-0.0602,9.4956,-7.7952,-1.8960,-4.3692
394.9476,0.8260,1.2556,30.0248,-8.0296,-9.6158,14.2971,44.8911,-17.7972,21.4681,1510,1489,1.0000,-0.5118,-0.0302,10.0029,-7.6228,-1.8695,-4.4790,-0.4114,-0.0099,9.6943,-8.4365,-2.1097,-3.9647
394.9672,0.6349,1.3045,29.9439,-7.9342,-9.3635,12.9007,29.9228,-12.7051,14.7309,1507,1492,1.0000,-0.5860,-0.0110,9.5480,-7.0884,-1.1901,-3.9599,-0.3085,-0.0195,9.5889,-8.7800,-2.8731,-4.1708
394.9863,0.4858,1.2815,29.8644,-7.7739,-9.1251,12.4875,16.6101,-9.7201,9.5109,1504,1495,1.0000,-0.2748,0.1134,9.7228,-8.1037,-2.1214,-4.2118,-0.0116,0.1481,10.3838,-7.4441,-1.4609,-4.0639
395.0050,0.4145,1.2341,29.7889,-5.0144,-8.5085,32.9152,-39.2533,-8.2934,-6.8442,1496,1503,1.0000,-0.1048,0.1972,9.9072,-5.0732,-1.3352,-4.2271,0.0914,0.1553,9.7302,-4.9555,-0.9723,-3.8502
395.0246,0.4524,1.2255,29.6942,-1.2166,-7.4147,55.8166,-90.5811,-9.0521,-20.8367,1489,1510,1.0000,-0.1982,0.3409,9.4475,-1.1648,-0.6252,-6.0744,-0.3564,0.1385,9.7422,-1.2685,-0.2624,-3.6364
395.0446,0.4628,1.2524,29.6263,0.9093,-6.1661,62.3707,-105.3076,-9.2614,-24.8554,1487,1512,1.0000,-0.4065,0.0464,9.5576,0.8047,-0.8313,-3.6393,-0.3995,0.2032,9.3639,1.0139,-1.3922,-3.0944
395.0642,0.4731,1.3095,29.5579,-0.3617,-4.5564,38.1520,-46.1953,-9.4675,-4.3316,1497,1502,0.5282,-0.5358,0.1589,9.7587,0.2245,-1.1901,-3.4866,-0.0068,0.1720,9.6296,-0.9479,-0.3387,-3.4990
395.0837,0.4654,1.2853,29.4921,-1.1785,-2.7531,18.6693,-0.1761,-9.3132,0.0000,1500,1500,0.0000,-0.1407,0.1494,9.7037,-1.5465,-0.4039,-3.3645,-0.0284,0.3779,9.6057,-0.8105,-0.1632,-3.4379
395.1025,0.4190,1.2391,29.4282,-4.0640,-2.4894,2.6616,33.7912,-8.3843,0.0000,1500,1500,0.0000,-0.0809,0.2140,9.5528,-3.6610,-1.0756,-3.5171,-0.2007,0.2870,9.4309,-4.4670,-0.7357,-3.3387
395.1215,0.4015,1.2548,29.3680,-4.1289,-2.2976,1.8350,34.0954,-8.0339,0.0000,1500,1500,0.0000,-0.4041,0.3529,9.8330,-3.8823,-1.4344,-3.4866,-0.3037,0.3396,9.6560,-4.3754,-1.3616,-2.9418
395.1411,0.3945,1.2679,29.3102,-4.0716,-2.1149,1.6234,33.9351,-7.8944,0.0000,1500,1500,0.0000,-0.3442,0.3840,9.6031,-3.7984,-0.9458,-3.2576,-0.3109,0.3851,9.8762,-4.3448,-0.9265,-2.7815
395.1606,0.3434,1.2098,29.2509,-5.8350,-2.6959,-6.1442,47.6789,-6.8722,0.0000,1500,1500,0.0000,-0.0832,0.3481,9.7970,-5.3785,-1.3886,-3.2729,-0.1193,0.3157,9.6536,-6.2914,-1.4838,-2.9036
395.1800,0.2267,1.1480,29.1914,-7.9456,-4.1475,-20.4769,70.8795,-4.5355,7.2316,1503,1496,0.3270,-0.0186,0.2284,9.8569,-6.9816,-1.4726,-3.3950,-0.0499,0.1696,9.8834,-8.9097,-0.5067,-2.7967
395.1987,0.0486,1.1252,29.1390,-10.9838,-6.0261,-46.6994,116.7383,-0.9723,33.1729,1516,1483,1.0000,-0.1120,0.1709,9.8473,-10.1113,-0.5107,-3.1049,-0.2223,0.0404,9.6967,-11.8563,0.0200,-2.5143
395.2177,-0.2051,1.1367,29.0875,-14.0945,-7.2364,-63.8772,133.6369,4.1043,35.3662,1517,1482,1.0000,-0.2508,0.0727,10.1801,-13.1419,0.0465,-2.9523,-0.2606,0.0882,9.7398,-15.0471,0.0353,-2.4761
395.2372,-0.4864,1.1530,29.0377,-15.0831,-8.4134,-60.3930,117.9617,9.7330,28.1628,1514,1485,1.0000,-0.2604,0.0225,9.9168,-14.1648,-0.3352,-2.7080,-0.2917,0.0236,9.9864,-16.0013,0.6002,-2.3998
395.2567,-0.7803,1.1655,28.9880,-15.6060,-9.4923,-55.1602,69.0751,15.6134,11.5343,1505,1494,1.0000,-0.2437,-0.0302,10.2065,-15.5159,0.0542,-2.7385,-0.2630,-0.0387,9.9241,-15.6960,0.4323,-2.3158
395.2760,-1.0690,1.1975,28.9428,-15.5792,-10.4053,-47.3309,13.3093,21.3898,-6.9683,1496,1503,1.0000,-0.3442,-0.0829,10.0939,-15.1724,-0.0832,-2.5248,-0.3205,0.0427,9.8810,-15.9861,0.3635,-2.1479
395.2947,-1.3853,1.2059,28.9010,-15.9456,-11.2364,-44.4387,-31.4278,27.7315,-22.6655,1488,1511,1.0000,-0.2437,-0.2648,9.8713,-15.4090,-0.5871,-2.4026,-0.0691,-0.3236,9.8667,-16.4823,0.8826,-1.9723
395.3137,-1.7472,1.2171,28.8593,-16.8044,-12.0716,-44.1378,-73.9330,34.9860,-38.1942,1480,1519,1.0000,-0.2317,-0.4492,10.1203,-16.0197,-0.1443,-2.1736,-0.1457,-0.4265,10.0342,-17.5891,1.1345,-2.0792
395.3332,-2.1200,1.2572,28.8165,-16.3655,-12.7157,-33.0249,-148.8350,42.4629,-62.9053,1468,1531,1.0000,-0.3322,-0.5354,9.8856,-16.3556,0.2526,-2.3721,-0.2726,-0.5319,10.1013,-16.3754,1.2796,-1.7815
395.3527,-2.4214,1.3079,28.7797,-14.6861,-13.0112,-15.1188,-235.0843,48.5146,-90.0809,1454,1545,1.0000,-0.3083,-0.4276,9.9910,-14.8671,1.2068,-1.9294,-0.2630,-0.4888,9.8882,-14.5052,2.1727,-1.6364
395.3720,-2.6768,1.3664,28.7443,-12.2052,-12.8903,6.2627,-326.0622,53.6509,-118.1229,1440,1559,1.0000,-0.3418,-0.5066,9.9455,-12.3632,1.7412,-1.8606,-0.1481,-0.4481,9.8643,-12.0471,1.9437,-1.5677
395.3907,-2.8706,1.4335,28.7142,-9.6289,-12.4011,26.1750,-405.7077,57.5550,-142.3757,1428,1571,1.0000,-0.4160,-0.5282,9.9766,-9.6457,1.8557,-1.6698,-0.0068,-0.4768,9.7493,-9.6120,1.5849,-1.3234
395.4096,-3.0160,1.4923,28.6684,-7.1327,-11.6108,41.7299,-467.2345,60.4926,-161.0720,1419,1580,1.0000,-0.3993,-0.5474,10.0556,-7.0732,1.4969,-1.5248,-0.3731,-0.5103,9.8738,-7.1922,1.6231,-3.1937
395.4291,-3.1056,1.5590,28.6428,-4.4495,-10.5366,55.0511,-515.9111,62.3158,-175.6130,1412,1587,1.0000,-0.4256,-0.5234,9.7587,-4.4090,0.6877,-1.4637,-0.2678,-0.5343,9.8427,-4.4899,2.4399,-0.9570
395.4487,-3.1419,1.5617,28.6231,-3.3808,-9.4633,54.8039,-519.3739,63.0728,-176.9611,1411,1588,1.0000,-0.2724,-0.4013,9.7899,-2.1571,-0.7016,-1.2423,0.5462,-0.4983,9.7613,-4.6044,1.4552,-0.8044
395.4680,-3.1319,1.5077,28.6104,0.2986,-7.9990,76.1159,-579.6084,62.9053,-193.7430,1403,1596,1.0000,0.0413,-0.5282,9.8665,0.8505,-0.0527,-0.7538,0.0554,-0.3092,9.8690,-0.2532,1.8216,-0.4685
395.4866,-3.0433,1.5549,28.6041,2.0658,-6.4893,80.8566,-583.0657,61.1637,-193.8402,1403,1596,1.0000,-0.3706,-0.3175,9.9838,2.4383,1.0923,-0.3263,-0.1265,-0.0961,9.5339,1.6933,1.6765,-0.3387
395.5056,-2.9399,1.6065,28.5952,2.1574,-4.2657,56.2235,-500.2225,59.1249,-169.1746,1415,1584,0.9973,-0.3538,-0.2553,10.2184,2.9803,2.3061,-0.3874,-0.3923,-0.0219,9.2418,1.3345,1.3941,-0.5372
395.5252,-2.7423,1.6620,28.5961,3.4551,-0.8334,14.1882,-356.4189,55.1998,-121.5963,1439,1560,0.9545,-0.4735,0.0656,10.0796,4.0719,0.3137,0.1470,0.0219,0.0787,9.8571,2.8384,1.3025,-0.3769
395.5448,-2.5631,1.6623,28.5973,3.0009,0.0000,0.0000,-294.9359,51.6415,-95.1431,1452,1547,0.8777,-0.1263,0.0512,9.5816,3.9421,1.5274,-0.1126,-0.0236,0.0691,9.3639,2.0597,2.2109,0.0735
395.5642,-2.3868,1.5835,28.5958,1.7185,0.0000,0.0000,-274.6540,48.1403,-78.3204,1460,1539,0.7757,0.1825,0.1972,9.8162,1.7207,1.1381,-0.3645,0.0076,-0.0363,10.2713,1.7162,1.5926,-0.0639
395.5829,-2.2852,1.5139,28.5941,1.6040,0.0000,0.0000,-262.9551,46.1299,-68.4659,1465,1534,0.7081,0.1059,-0.0805,9.2296,1.5528,0.8099,-0.4790,-0.2821,0.1720,9.9624,1.6552,0.5315,0.1880
395.6018,-2.1814,1.5777,28.5884,-2.1861,0.0000,-0.0000,-251.0091,44.0754,-58.5796,1470,1529,0.6345,-0.4855,0.2834,10.4818,-1.8442,0.9549,-0.7232,-0.6006,0.2870,9.7326,-2.5281,1.2032,-0.1784
395.6213,-2.0418,1.5361,28.5811,-1.3617,0.0000,0.0000,-234.9476,41.3043,-45.9256,1477,1522,0.5313,-0.0018,0.3505,9.6606,-0.8823,1.2145,-0.7232,-0.2462,0.4641,10.2449,-1.8410,0.6613,-0.3998
395.6408,-1.9474,1.4246,28.5642,-2.6365,0.0000,-0.0000,-224.0834,39.4355,-37.9785,1481,1518,0.4606,0.1801,0.2834,9.3613,-3.2869,0.1305,-0.9981,0.3068,0.1601,9.8834,-1.9861,-0.9036,-1.1479
395.6592,-1.8690,1.3678,28.5298,-4.6365,0.0000,-0.0000,-215.0651,37.8868,-31.8474,1484,1515,0.4023,0.0245,0.4486,10.1155,-4.5235,-0.8390,-1.1202,0.0147,0.3612,10.1851,-4.7494,1.1116,-3.1479
395.6776,-1.8297,1.4130,28.5053,-2.9724,0.0000,-0.0000,-210.5404,37.1187,-28.9496,1485,1514,0.3735,-0.3107,0.1182,9.5696,-3.2411,1.7488,-1.3950,-0.3516,0.1625,9.7876,-2.7036,1.2567,-1.4303
395.6970,-1.7884,1.4389,28.4727,-3.7319,0.0000,-0.0000,-205.7859,36.3102,-26.0393,1486,1513,0.3436,-0.3514,0.1972,9.9670,-3.7678,0.7183,-2.0286,-0.0858,0.1265,9.6919,-3.6960,-0.2853,-1.5906
395.7155,-1.7158,1.4079,28.4334,-1.6594,0.0000,0.0000,-197.4396,34.8767,-21.2788,1489,1510,0.2926,0.0101,0.1805,9.8473,-2.3327,1.6190,-2.2652,0.3236,0.0763,9.9121,-0.9861,1.2948,-2.1555
395.7339,-1.6249,1.3061,28.3892,1.0963,0.0000,0.0000,-186.9725,33.0737,-15.9717,1492,1507,0.2318,0.2591,0.0440,9.8737,0.5070,1.6114,-2.5171,0.3858,-0.0123,9.5195,1.6857,-0.9189,-2.4532
395.7522,-1.5156,1.2343,28.3382,4.8673,0.0000,0.0000,-174.3959,30.9030,-10.6129,1494,1505,0.1651,0.1059,-0.1762,9.5720,4.4765,0.2984,-2.8148,0.0147,-0.1009,9.7110,5.2582,-0.2777,-2.7815
395.7706,-1.3572,1.2272,28.2837,7.2070,0.0000,0.0000,-156.1710,27.7490,-4.8556,1497,1502,0.0843,-0.1287,-0.1284,9.7611,6.7589,-0.1901,-2.9294,-0.2438,-0.2278,9.7948,7.6552,1.5010,-3.0410
395.7890,-1.1607,1.1958,28.2234,10.2986,0.0000,0.0000,-133.5628,23.8311,-0.9041,1499,1500,0.0183,0.0317,-0.1882,9.6702,9.9803,0.8710,-3.2042,-0.0571,-0.2302,9.8020,10.6170,1.4933,-3.3082
395.8074,-0.9205,1.1225,28.1627,12.8750,0.2492,6.4350,-124.4598,19.0370,-0.0000,1500,1500,0.0000,0.1969,-0.1619,9.6055,11.6826,0.4206,-3.1278,0.2063,-0.3786,9.7110,14.0674,1.2490,-3.4456
395.8257,-0.6305,1.0372,28.1016,16.4475,4.9264,95.9659,-290.7783,12.6165,-62.0622,1468,1531,0.7075,0.3142,-0.2050,9.7587,15.9497,1.1992,-3.2194,0.2254,-0.2182,9.7589,16.9452,1.4094,-3.3387
395.8441,-0.3265,1.0254,28.0409,19.0315,7.4735,111.0069,-297.7241,6.5331,-86.6293,1456,1543,1.0000,0.0724,-0.3271,10.1705,18.5681,1.6572,-3.2118,0.0554,-0.2446,9.6512,19.4948,2.9361,-3.2318
395.8625,0.0375,1.0478,27.9859,21.3940,9.5616,113.6700,-269.2110,-0.7506,-75.0038,1462,1537,1.0000,-0.2437,-0.1834,9.5959,21.2551,1.1381,-3.0973,-0.0308,-0.1105,9.5817,21.5330,-0.4303,-2.7891
395.8810,0.4000,1.0757,27.9347,22.9704,11.5729,108.4510,-266.3102,-8.0042,-70.5647,1464,1535,1.0000,-0.3179,-0.2864,9.9790,22.8123,0.4129,-2.7156,0.1201,-0.2948,9.4764,23.1284,-0.3998,-2.6593
395.8995,0.8279,1.1047,27.8826,24.2872,13.4800,103.0868,-201.6268,-16.5658,-48.1726,1475,1524,1.0000,-0.1599,-0.0206,8.5616,24.6291,0.3442,-2.8377,-0.2295,-0.3260,11.1356,23.9452,2.9284,-2.7280
395.9179,1.2404,1.2938,27.8488,22.9246,14.8967,77.0416,-79.1478,-24.8204,-9.7512,1495,1504,1.0000,-0.9499,0.1111,9.8521,22.4841,2.2603,-1.7767,0.7689,-0.1679,9.2873,23.3651,1.3330,-1.9799
395.9363,1.5594,1.2027,27.8151,21.5315,15.8919,54.0742,23.7084,-31.2165,22.2466,1511,1488,1.0000,0.2472,-0.1523,10.0221,22.5604,0.2374,-1.7385,-0.0499,-0.0698,9.1508,20.5025,0.4552,-1.6898
395.9547,1.8658,1.2203,27.8086,21.6040,16.7487,46.6599,80.3208,-37.3634,41.1715,1520,1479,1.0000,-0.2724,-0.1499,9.2823,22.8123,-0.7092,-1.1202,0.0363,-0.0961,9.2250,20.3956,0.9055,0.6995
395.9731,2.1289,1.1773,27.7931,18.8711,17.0671,17.2308,195.3453,-42.6455,76.0194,1538,1461,1.0000,-0.0114,-0.0781,9.6103,19.8810,-0.5260,-0.8377,0.2757,0.0547,9.8044,17.8613,0.5620,-0.6211
395.9915,2.3434,1.0881,27.7851,14.9589,16.7509,-17.1882,319.1541,-46.9587,112.8425,1556,1443,1.0000,0.2136,0.0799,9.6773,16.2703,-0.2588,-0.3568,0.2973,0.1649,9.2106,13.6475,0.3406,-0.3463
396.0099,2.4484,1.0434,27.7853,8.9437,15.5798,-63.6566,465.0697,-49.0839,154.7614,1577,1422,1.0000,-0.0521,0.1230,9.6247,10.7131,-1.4497,-0.0591,-0.1385,0.1720,9.1771,7.1742,-0.3540,0.2720
396.0283,2.4700,1.0171,27.7858,3.9933,13.8418,-94.5928,556.6569,-49.5415,180.6347,1590,1409,1.0000,-0.1982,0.1781,9.6773,5.5146,-2.7321,0.0554,-0.1026,0.2917,9.3519,2.4719,-0.6670,0.2415
396.0470,2.4077,0.9237,27.7901,0.0200,11.7685,-110.9756,596.6640,-48.3185,191.2252,1595,1404,1.0000,0.1346,0.1374,9.8090,1.3238,-1.6252,0.2081,0.7282,0.1720,9.2920,-1.2838,-0.8655,0.4628
396.0655,2.2705,0.8702,27.7929,-2.7892,9.5849,-118.2711,601.8854,-45.5969,191.3264,1595,1404,1.0000,0.0149,0.0153,9.6342,-1.2411,-1.6405,0.2768,0.0961,0.0236,9.4405,-4.3372,-0.0639,0.2491
396.0839,2.0283,0.8530,27.7935,-6.1212,7.2290,-128.0243,602.1117,-40.7745,188.9785,1594,1405,1.0000,-0.1814,-0.2098,9.5672,-4.6762,-2.2512,0.1470,-0.1026,-0.0841,9.3687,-7.5662,-0.4609,0.2491
396.1023,1.6874,0.8640,27.7914,-10.3273,2.5170,-78.1895,419.3579,-33.9732,36.7211,1518,1481,0.2732,-0.3969,-0.3414,9.5959,-8.4548,-3.1596,0.0172,-0.1600,-0.2900,9.3399,-12.1998,-1.6365,0.1880
396.1207,1.2799,0.8920,27.7791,-14.3922,0.0000,-0.0000,147.2795,-25.8357,2.8856,1501,1498,0.0533,-0.4879,-0.3941,10.1394,-11.9892,-3.3428,-0.6011,-0.3109,-0.0913,9.1364,-16.7952,-1.1403,-0.3234
396.1391,0.8748,0.8267,27.7601,-16.4304,0.0000,-0.0000,100.6671,-17.7429,0.0000,1500,1500,0.0000,-0.0641,-0.2577,9.5480,-14.6991,-2.3962,-1.3263,-0.2558,-0.1057,9.6129,-18.1616,-2.8120,-0.4379
396.1574,0.6341,0.8069,27.7363,-14.3540,0.0000,-0.0000,60.7999,-12.6874,0.0000,1500,1500,0.0000,-0.1982,0.2499,9.4595,-14.9510,-2.4878,-1.7538,-0.2199,0.1553,9.3974,-13.7571,-1.2319,-0.8349
396.1758,0.5051,0.7681,27.7038,-7.5640,-0.4706,-4.7833,59.9146,-10.1071,0.0000,1500,1500,0.0000,-0.0856,0.1494,9.7085,-9.1877,-2.5947,-1.9294,-0.2821,0.2223,9.7038,-5.9403,-0.6288,-1.5982
396.1942,0.4070,0.7907,27.6681,0.8253,0.0000,0.0000,39.0239,-8.1433,0.0000,1500,1500,0.0000,-0.2820,-0.4444,9.6917,-0.5159,-1.2130,-1.4790,-0.4354,-0.1895,9.5746,2.1666,-0.0639,-2.1937
396.2126,0.3533,0.8165,27.6309,5.4017,0.0000,0.0000,33.8801,-7.0699,0.0000,1500,1500,0.0000,-0.3394,-0.6431,9.7372,4.5604,-0.7855,-1.6393,-0.7634,-0.4409,8.9880,6.2429,-1.4532,-2.1402
396.2310,0.4089,0.8001,27.5933,7.7757,0.0000,0.0000,39.2123,-8.1826,0.0000,1500,1500,0.0000,-0.2508,-0.3199,9.1362,8.1253,-2.6634,-1.7919,-0.4066,-0.3164,9.8714,7.4261,-2.2471,-2.1250
396.2493,0.5331,0.7694,27.5550,7.3711,0.0000,0.0000,51.1163,-10.6667,0.0000,1500,1500,0.0000,-0.1694,0.0225,9.7635,7.8887,-2.7474,-2.0133,-0.2438,0.0092,9.9121,6.8536,-1.5067,-2.0944
396.2677,0.7094,0.7700,27.5122,5.4818,0.0000,0.0000,68.0292,-14.1960,0.0000,1500,1500,0.0000,-0.1575,0.4510,9.8856,5.3696,-1.5642,-2.4561,-0.0595,0.3851,9.7206,5.5941,0.9132,-2.3158
396.2861,0.9218,0.7207,27.4636,7.0467,0.0000,0.0000,106.0670,-18.4446,0.0000,1500,1500,0.0000,-0.1072,0.4798,9.2416,6.8963,-2.2894,-2.7690,0.0411,0.6221,10.0462,7.1971,-2.6517,-2.5677
396.3044,1.1942,0.6958,27.4098,9.7070,0.2243,3.8831,126.2351,-23.8964,1.2514,1500,1499,0.0265,-0.1599,0.6114,9.9575,9.0337,-2.1367,-3.0820,-0.1864,0.4210,10.1300,10.3803,-1.5219,-2.8349
396.3228,1.4082,0.6957,27.3585,10.1956,2.1814,26.7973,84.8640,-28.1899,4.0872,1502,1497,0.1080,-0.1431,0.3481,10.3094,11.0337,-0.2588,-2.8606,-0.0882,0.5144,10.1013,9.3574,-0.2624,-2.7509
396.3411,1.6084,0.6560,27.3131,7.9017,3.6710,20.6085,125.7268,-32.2104,11.3557,1505,1494,0.2213,-0.0306,0.4893,9.5433,8.3467,-0.9611,-2.7003,-0.0284,0.4905,10.0175,7.4567,-1.4456,-2.2624
396.3595,1.7267,0.6566,27.2656,2.9627,2.7737,-9.7886,226.8804,-34.5931,24.2566,1512,1487,0.3001,-0.1551,0.5947,10.0987,3.4535,-0.6252,-2.7461,-0.0738,0.5695,10.0845,2.4719,-0.3235,-2.4837
396.3779,1.7367,0.6960,27.2162,-2.7892,0.3304,-5.6611,216.1426,-34.8102,23.9284,1511,1488,0.3071,-0.2317,0.6258,10.4315,-1.1419,0.8099,-2.9065,-0.2798,0.6126,10.0702,-4.4365,0.8292,-2.6135
396.3963,1.6410,0.7530,27.1611,-8.0067,0.0000,-0.0000,188.8328,-32.9138,16.8013,1508,1491,0.2423,-0.3658,0.5540,9.9862,-7.0503,0.4664,-3.3416,-0.3899,0.5120,9.8834,-8.9632,-0.0258,-2.7433
396.4146,1.5160,0.7851,27.1121,-9.9189,0.0000,-0.0000,174.4449,-30.4282,10.5916,1505,1494,0.1653,-0.3610,0.5636,10.0365,-9.4014,-1.0909,-2.9904,-0.3468,0.6485,9.8212,-10.4365,-0.7815,-2.3845
396.4330,1.3596,0.7856,27.0660,-10.4915,0.0000,-0.0000,156.4475,-27.3138,4.9047,1502,1497,0.0854,-0.2006,0.4486,10.1921,-9.9434,-1.4420,-2.6851,-0.1864,0.5336,10.0606,-11.0395,-0.0334,-2.3540
396.4514,1.1113,0.8638,27.0193,-11.7624,-0.0030,-0.0809,128.1083,-22.3588,0.4208,1500,1499,0.0089,-0.3179,0.0823,10.5464,-10.6152,0.5198,-2.6240,-0.2055,0.5527,9.7446,-12.9097,4.1498,-2.4990
396.4697,0.8367,1.0169,26.9683,-13.4724,-2.5778,-47.5100,194.2550,-16.8752,0.0000,1500,1500,0.0000,-0.7393,0.0704,9.8114,-12.6991,0.8481,-2.7232,-0.6652,-0.0602,9.3423,-14.2456,1.9819,-2.7815
396.4881,0.5180,1.0132,26.9169,-14.7739,-6.1405,-82.8812,248.5835,-10.3646,74.7857,1537,1462,1.0000,-0.1335,-0.0685,10.2112,-13.0350,0.1916,-2.9065,-0.2151,-0.2972,9.3399,-16.5128,0.3865,-2.5830
396.5065,0.1248,1.0396,26.8652,-16.3540,-7.6725,-83.5077,212.3892,-2.4980,60.7180,1530,1469,1.0000,-0.1646,-0.3678,10.5249,-17.6457,1.1687,-2.8912,-0.3300,-0.2781,9.6631,-15.0624,2.0735,-2.5524
396.5248,-0.1719,1.0935,26.8162,-11.7434,-8.2831,-33.2718,63.3717,3.4391,16.0245,1508,1491,1.0000,-0.2461,-0.3606,9.9958,-12.1190,2.3595,-2.8301,-0.1337,-0.3571,10.3311,-11.3677,2.1040,-2.3311
396.5432,-0.3851,1.1607,26.7675,-8.1136,-8.2577,1.3849,-40.2498,7.7055,-15.1227,1492,1507,1.0000,-0.3969,-0.3271,9.9790,-8.7984,1.5580,-2.6851,-0.5048,-0.5247,9.7254,-7.4288,1.0200,-2.4532
396.5616,-0.5460,1.2359,26.7204,-4.0563,-7.6275,34.2618,-161.5074,10.9264,-50.6853,1474,1525,1.0000,-0.4998,-0.4755,9.9766,-4.4854,0.9855,-2.5400,-0.6485,-0.3236,9.6919,-3.6273,0.3483,-2.3692
396.5800,-0.5857,1.3132,26.6717,-0.4189,-6.5462,58.8052,-236.7603,11.7208,-72.1533,1463,1536,1.0000,-0.4879,-0.2385,9.7396,-1.4319,1.0618,-2.6087,-0.6365,-0.1991,9.6153,0.5941,0.8063,-2.5982
396.5984,-0.5577,1.4105,26.6259,2.9704,-4.0531,61.3464,-200.7105,11.1598,-17.4927,1491,1508,0.2832,-0.6435,-0.2146,9.5816,2.4612,0.4282,-2.4866,-0.8280,-0.2829,9.8595,3.4796,0.0048,-2.4150
396.6168,-0.4889,1.4258,26.5808,6.0276,-0.2066,5.4439,-59.9461,9.7828,-0.0000,1500,1500,0.0000,-0.3586,-0.2864,9.7611,5.2245,-0.3504,-2.5324,-0.4880,-0.3403,9.9576,6.8307,-0.7586,-2.2700
396.6352,-0.3439,1.4724,26.5381,8.5773,0.0000,0.0000,-32.9738,6.8808,-0.0000,1500,1500,0.0000,-0.5070,-0.1403,9.8521,7.8352,-0.3352,-2.5248,-0.6700,-0.1655,10.2138,9.3193,-0.6899,-2.1097
396.6536,-0.1311,1.5160,26.5006,10.8521,0.0000,0.0000,-12.5759,2.6243,-0.0000,1500,1500,0.0000,-0.4424,0.0033,9.7707,9.9268,0.1458,-2.2347,-0.5335,-0.0674,9.9816,11.7773,0.0735,-1.8807
396.6721,0.1752,1.4975,26.4670,13.0315,0.0000,0.0000,16.7988,-3.5055,0.0000,1500,1500,0.0000,-0.2030,0.2810,9.7276,12.0871,-0.1290,-2.0668,-0.1457,0.0978,9.8164,13.9758,-0.5525,-1.7280
396.6906,0.5005,1.4552,26.4364,14.3940,1.0119,25.2496,-12.6077,-10.0146,0.0000,1500,1500,0.0000,-0.1192,0.3098,9.8162,14.0108,-0.4497,-1.7919,0.0650,0.3085,9.9481,14.7773,-0.8655,-1.6593
396.7090,0.7941,1.4539,26.4055,13.4856,4.8706,69.6212,-109.1336,-15.8898,-15.4109,1492,1507,0.6815,-0.1982,0.3098,10.0580,13.6215,0.3824,-1.7996,-0.1768,0.2056,9.9552,13.3498,0.7376,-1.6746
396.7274,1.0285,1.4760,26.3791,11.2223,6.2838,47.3709,-18.0770,-20.5807,5.2288,1502,1497,1.0000,-0.2963,0.2715,9.8593,11.2932,0.7259,-1.5629,-0.3875,0.2391,9.7661,11.1513,0.5162,-1.4074
396.7457,1.2174,1.5326,26.3387,9.6727,6.7921,27.7201,60.2484,-24.3699,29.0545,1514,1485,1.0000,-0.4855,0.2284,9.6127,9.8429,0.1076,-1.3034,-0.3827,0.3109,9.4357,9.5025,0.3559,-3.1173
396.7642,1.3967,1.5628,26.3348,8.4017,7.0336,13.0562,123.1176,-27.9708,48.4583,1524,1475,1.0000,-0.3777,0.3194,9.8401,8.8963,0.2908,-1.1813,-0.3468,0.4067,9.5554,7.9071,0.3177,0.6766
396.7826,1.5515,1.5461,26.3164,7.0887,7.0418,0.4498,177.2294,-31.0810,65.1647,1532,1467,1.0000,-0.2054,0.3553,9.8761,7.5528,-0.0603,-0.9981,-0.2869,0.4713,9.7254,6.6246,-0.3616,-1.0639
396.8010,1.6831,1.5607,26.2980,5.1154,6.7529,-15.7163,238.9352,-33.7305,83.7671,1541,1458,1.0000,-0.3969,0.4462,9.8473,5.5986,-1.0451,-1.0973,-0.4761,0.3899,9.8212,4.6323,-0.5067,-0.9723
396.8194,1.7233,1.5802,26.2821,3.1765,6.2164,-29.1377,282.2200,-34.5527,96.2979,1548,1451,1.0000,-0.4472,0.1972,9.5097,3.7055,-1.5260,-1.0210,-0.6173,0.2894,9.5961,2.6475,-1.0105,-0.5753
396.8378,1.7025,1.5852,26.2639,-0.0754,4.4931,-43.7872,322.0104,-34.1525,53.2498,1526,1473,0.4966,-0.3729,0.2044,9.6342,0.6291,-1.6252,-1.0210,-0.3228,0.1768,9.5434,-0.7800,-0.4227,-0.8502
396.8562,1.6346,1.5470,26.2471,-2.3311,1.3211,-19.8427,245.2341,-32.8104,20.2566,1510,1489,0.2381,-0.1383,0.1805,9.8306,-1.4014,-1.1290,-0.9675,-0.0379,0.0858,9.7781,-3.2609,0.0582,-0.7585
396.8745,1.5254,1.5279,26.2311,-3.4380,0.0000,-0.0000,175.5250,-30.6423,11.0089,1505,1494,0.1708,-0.1862,0.0704,9.9024,-2.8594,-0.2741,-1.0744,-0.3348,0.0020,9.6416,-4.0166,-0.0410,-0.5295
396.8929,1.3932,1.5109,26.2109,-4.3655,0.0000,-0.0000,160.3155,-28.0127,5.9342,1502,1497,0.1008,-0.2125,0.0225,9.8569,-4.3709,-0.3581,-1.2271,-0.4402,-0.0051,9.6129,-4.3601,-0.4838,-0.7891
396.9113,1.2795,1.4783,26.1895,-3.6670,0.0000,-0.0000,147.2273,-25.7507,2.8737,1501,1498,0.0531,-0.1503,0.0249,9.5265,-4.0426,-0.7245,-1.1507,-0.2654,0.0188,9.5315,-3.2914,-0.4990,-1.0181
396.9297,1.1661,1.4187,26.1645,-2.8502,0.0000,-0.0000,134.1809,-23.4948,0.9638,1500,1499,0.0195,0.0077,-0.0589,9.7037,-3.0197,-0.4344,-1.4179,-0.3612,-0.1584,9.8547,-2.6807,-0.1708,-1.1097
396.9480,1.0541,1.4002,26.1361,-1.4571,0.0000,-0.0000,121.2950,-21.2657,0.0961,1500,1499,0.0022,-0.1982,-0.1858,9.4738,-1.3403,-0.5031,-1.6164,-0.0954,-0.3164,10.0366,-1.5739,-0.6441,-1.2166
396.9664,0.9473,1.3216,26.1071,-0.5602,0.0000,-0.0000,109.0032,-19.1387,0.0000,1500,1500,0.0000,0.0101,-0.2600,9.7013,-0.9434,-1.3657,-1.4942,0.0530,-0.3930,9.6991,-0.1769,-1.3845,-1.3616
396.9848,0.8429,1.2547,26.0945,-0.0220,0.0000,-0.0000,96.9924,-16.8665,0.0000,1500,1500,0.0000,-0.0258,-0.3247,9.8114,0.5910,-1.7474,-1.5858,-0.0140,-0.2733,9.9840,-0.6349,-0.8349,0.6002
397.0032,0.7747,1.2233,26.0846,0.8253,0.0000,0.0000,74.2843,-15.5012,0.0000,1500,1500,0.0000,-0.1120,-0.2361,9.6558,-0.0655,-0.8237,-1.4484,-0.2103,-0.1847,9.7517,1.7162,-0.2548,0.6918
397.0216,0.7488,1.1983,26.0415,2.2910,0.0000,0.0000,71.8055,-14.9840,0.0000,1500,1500,0.0000,-0.1168,-0.1834,9.9168,2.3543,-0.4268,-1.4790,-0.1098,-0.1129,9.9648,2.2277,-0.1403,-3.1402
397.0399,0.7527,1.1709,26.0132,3.0582,0.0000,0.0000,72.1786,-15.0618,0.0000,1500,1500,0.0000,-0.0832,-0.1164,9.9958,3.1253,-0.2359,-1.6164,0.2087,-0.0602,9.8499,2.9910,0.2643,-1.3311
397.0583,0.7400,1.1022,25.9869,3.1269,0.0000,0.0000,70.9590,-14.8074,0.0000,1500,1500,0.0000,0.1993,-0.2074,10.1322,3.3314,0.6038,-1.3797,0.1249,-0.0123,9.8834,2.9223,1.0658,-1.3463
397.0767,0.7602,1.0093,25.9463,2.5773,0.0000,0.0000,72.9003,-15.2124,0.0000,1500,1500,0.0000,0.2831,0.0033,9.4212,2.8123,0.6648,-1.4637,0.1201,-0.0482,9.7446,2.3422,0.3406,-3.0257
397.0950,0.7731,0.9752,25.9246,0.6803,0.0000,-0.0000,74.1339,-15.4699,0.0000,1500,1500,0.0000,-0.0258,0.1350,9.9072,1.2856,-0.3428,-1.3263,0.0459,-0.0650,9.9217,0.0750,0.0964,-1.0028
397.1134,0.7639,0.9574,25.9036,-1.1594,0.0000,-0.0000,73.2466,-15.2847,0.0000,1500,1500,0.0000,-0.0641,0.1925,10.1993,-0.2793,0.0847,-1.3263,-0.0523,0.1481,10.1085,-2.0395,0.4475,-0.9647
397.1318,0.7241,0.9115,25.8834,-3.1479,0.0000,-0.0000,69.4317,-14.4886,0.0000,1500,1500,0.0000,0.1562,0.2212,10.1442,-2.9205,1.0542,-1.2271,0.2230,0.2582,9.6655,-3.3754,1.3254,-1.0181
397.1501,0.6699,0.8652,25.8619,-4.7777,0.0000,-0.0000,64.2388,-13.4050,0.0000,1500,1500,0.0000,0.1897,0.2786,9.8473,-4.2258,1.2679,-1.3645,0.1680,0.3157,9.8283,-5.3296,1.7529,-1.0486
397.1685,0.5673,0.8745,25.8440,-6.4380,0.0000,-0.0000,54.3952,-11.3509,0.0000,1500,1500,0.0000,0.0101,0.1853,9.9072,-5.8823,1.9091,-1.1965,-0.0116,0.2271,9.7517,-6.9937,2.8445,-0.7891
397.1870,0.4355,0.9065,25.8249,-8.6441,0.0000,-0.0000,41.7579,-8.7138,0.0000,1500,1500,0.0000,-0.0832,0.2284,10.0101,-7.8747,2.4740,-1.3263,-0.1529,0.1816,9.7685,-9.4135,2.5315,-0.7815
397.2054,0.2958,0.9089,25.8043,-9.5792,-0.2672,-4.4340,39.0088,-5.9195,0.0000,1500,1500,0.0000,0.0006,0.2356,9.8186,-7.9281,1.9015,-1.2271,-0.2127,0.2056,9.7422,-11.2303,1.8903,-1.0792
397.2238,0.1177,0.8979,25.7799,-12.6403,-3.3397,-50.9481,133.5578,-2.3544,1.3719,1500,1499,0.0356,0.0101,0.3050,9.7276,-12.2182,1.1992,-1.3721,0.0147,0.0906,9.5554,-13.0624,1.4933,-1.3845
397.2422,-0.0642,0.9161,25.7529,-13.6021,-6.1861,-71.1864,164.6944,1.2840,45.4725,1522,1477,1.0000,-0.0952,0.3361,9.7970,-13.0808,1.4893,-1.5935,-0.0212,0.3229,9.7158,-14.1235,1.9284,-1.4456
397.2606,-0.3014,0.9165,25.7229,-13.9304,-7.3478,-63.2572,122.9113,6.0320,31.3992,1515,1484,1.0000,-0.0378,0.0727,9.6127,-13.6075,1.3213,-1.7080,-0.1313,0.1385,9.7182,-14.2532,1.4781,-1.5677
397.2789,-0.5396,0.9515,25.6891,-13.9418,-8.3369,-53.8587,93.0268,10.7965,20.6493,1510,1489,1.0000,-0.2173,0.0344,9.7300,-13.8136,0.9931,-1.8454,-0.2678,-0.0075,9.5315,-14.0700,1.4017,-1.8273
397.2973,-0.7492,0.9897,25.6525,-13.0792,-9.0482,-38.7550,25.4016,14.9920,-0.3836,1499,1500,1.0000,-0.2006,0.0536,9.7156,-13.1571,1.2221,-2.0133,-0.0810,-0.0027,9.6871,-13.0013,2.2032,-1.9799
397.3157,-0.9349,1.0370,25.6108,-12.2052,-9.5218,-25.7722,-33.3497,18.7066,-18.6912,1490,1509,1.0000,-0.2365,0.0536,9.4786,-12.2106,1.6267,-2.4790,0.0219,0.0475,9.4094,-12.1998,1.9895,-2.0334
397.3340,-1.1077,1.0416,25.5656,-11.5105,-9.8201,-16.2334,-80.7157,22.1660,-33.6834,1483,1516,1.0000,-0.0665,0.0225,9.6390,-11.2716,1.3824,-2.6164,-0.0188,-0.0027,9.5674,-11.7494,1.8292,-2.3005
397.3524,-1.2785,1.0662,25.5163,-11.3044,-10.0427,-12.1276,-112.1831,25.5929,-44.2077,1477,1522,1.0000,-0.1694,-0.0158,9.5864,-11.0045,1.4129,-2.9675,-0.0260,0.0164,9.6009,-11.6044,1.5849,-2.3616
397.3707,-1.4445,1.0846,25.4631,-10.7739,-10.1524,-5.9785,-149.0030,28.9289,-56.1853,1471,1528,1.0000,-0.2269,-0.0685,9.6390,-10.6228,0.6343,-3.0210,-0.0762,0.0236,9.3830,-10.9250,0.4475,-2.7891
397.3891,-1.5771,1.0678,25.4094,-10.3273,-10.1787,-1.4302,-177.3552,31.5957,-65.4573,1467,1532,1.0000,-0.1335,0.0201,9.5744,-9.9129,-0.4115,-3.1813,0.0506,-0.0027,9.4860,-10.7418,0.0124,-2.7662
397.4075,-1.6702,0.9920,25.3583,-10.3273,-10.2010,-1.2129,-188.6909,33.4739,-69.5704,1465,1534,1.0000,0.1586,0.1805,9.6845,-9.7602,-0.0069,-3.0439,0.0890,0.1074,9.4908,-10.8945,-0.1021,-2.6898
397.4258,-1.7906,0.9227,25.3052,-12.2548,-10.5090,-16.7830,-157.7096,35.9008,-62.1091,1468,1531,1.0000,0.1370,0.1996,9.7468,-11.4854,-0.1061,-3.1507,0.0794,0.1864,9.5722,-13.0242,-0.1021,-2.8120
397.4442,-1.9651,0.9291,25.2496,-14.3922,-11.0915,-31.6351,-135.0196,39.4112,-57.5111,1471,1528,1.0000,-0.2125,0.1111,9.9694,-13.5770,-0.2054,-3.2423,-0.0643,0.3133,9.9217,-15.2074,0.0048,-2.9341
397.4628,-2.1584,0.9828,25.1932,-16.3044,-11.8734,-42.1846,-126.8721,43.2973,-57.1728,1471,1528,1.0000,-0.4017,0.1661,9.5409,-16.0655,0.1610,-3.4561,-0.2534,0.1601,9.5075,-16.5433,-0.0105,-2.7509
397.4813,-2.3609,1.0302,25.1380,-17.6670,-12.7425,-47.0238,-136.2439,47.3720,-61.8343,1469,1530,1.0000,-0.4376,0.2068,9.7324,-17.1113,-0.2435,-3.4790,-0.0882,0.1313,9.5003,-18.2227,-0.5983,-2.6898
397.4996,-2.6109,1.0031,25.0833,-18.1518,-13.5539,-44.1306,-173.3443,52.3981,-74.7354,1462,1537,1.0000,-0.1216,-0.0110,9.7132,-17.4014,-0.6252,-3.4179,0.1129,-0.1129,9.8044,-18.9021,-0.6899,-2.7127
397.5180,-2.9132,0.9605,25.0266,-18.9609,-14.3649,-44.1244,-208.1454,58.4725,-87.5170,1456,1543,1.0000,-0.0042,-0.2265,9.7970,-18.8060,-0.1901,-3.4026,-0.0284,-0.2637,9.7254,-19.1158,-0.2242,-2.8425
397.5364,-3.2182,0.9579,24.9654,-18.3044,-14.9559,-32.1597,-277.7063,64.6055,-110.0605,1444,1555,1.0000,-0.2245,-0.3510,9.8737,-18.8213,-1.0680,-3.4255,-0.2510,-0.2039,10.4820,-17.7876,-0.1632,-3.3387
397.5549,-3.4910,0.9364,24.8888,-16.4762,-15.1839,-12.3471,-366.1520,70.0951,-137.5701,1431,1568,1.0000,-0.2508,-0.3941,9.7611,-16.4777,-1.0527,-3.5629,0.0794,-0.5127,9.5865,-16.4746,-2.8044,-5.1402
397.5734,-3.7149,0.9385,24.8297,-13.5869,-14.9443,12.9177,-464.6868,74.6112,-167.4179,1416,1583,1.0000,-0.2724,-0.4564,9.6318,-13.2564,-1.5947,-3.4026,0.0554,-0.5414,9.7469,-13.9174,-0.2166,-3.1173
397.5918,-3.9187,0.8692,24.7706,-8.9685,-14.0480,48.6982,-591.1923,78.7272,-204.8974,1397,1602,1.0000,0.1346,-0.7940,9.5768,-9.2029,-0.3886,-3.2881,0.2925,-0.7354,9.5770,-8.7342,0.3941,-3.0639
397.6102,-4.0317,0.9241,24.7175,-3.8006,-12.5109,83.7404,-705.1117,81.0264,-237.9445,1381,1618,1.0000,-0.3801,-0.8658,9.7970,-4.6152,0.2908,-2.9294,-0.1600,-0.7737,9.6009,-2.9861,0.8597,-2.7051
397.6286,-4.0008,1.0525,24.6727,2.6002,-10.2442,123.2391,-815.3157,80.4491,-268.5129,1365,1634,1.0000,-0.7440,-0.7437,9.7420,0.0566,0.1534,-2.6622,-0.6341,-0.8240,9.4836,5.1437,0.5010,-2.1097
397.6469,-3.8247,1.1383,24.6354,7.8406,-7.5315,147.5630,-865.0948,76.9639,-280.7085,1359,1640,1.0000,-0.5669,-0.5162,9.6438,7.0490,0.1534,-2.2576,-0.2989,-0.6683,9.7685,8.6323,0.3712,-1.8120
397.6653,-3.5743,1.0927,24.5931,13.0620,-2.0935,79.3582,-639.8586,71.9933,-215.1571,1392,1607,1.0000,-0.1000,-0.5904,9.6917,12.4841,-1.2054,-1.7309,-0.0810,-0.6228,9.8116,13.6399,-1.2700,-3.1784
397.6837,-3.2566,1.0677,24.5791,17.3253,0.0000,0.0000,-374.7407,65.6708,-137.7628,1431,1568,1.0000,-0.2389,-0.6240,10.0006,16.3925,-1.7397,-0.8912,0.0459,-0.4313,9.6440,18.2582,-1.8578,-0.8273
397.7022,-2.8575,0.9999,24.5711,20.7147,0.0000,0.0000,-328.8148,57.7175,-119.1726,1440,1559,0.9855,0.0125,-0.4971,9.9886,19.5833,-1.7855,-0.3950,-0.3540,-0.2661,9.8260,21.8460,-1.0334,-0.6135
397.7206,-2.4326,0.9876,24.5734,23.4666,4.5979,150.8590,-714.3949,49.2441,-180.6687,1409,1590,0.8042,-0.2389,-0.5234,9.8330,22.8658,-1.7779,0.4829,-0.4641,-0.3284,10.0702,24.0674,-1.1937,-0.3845
397.7390,-2.0824,1.0222,24.5839,19.0773,7.3755,112.3020,-563.0553,42.2615,-178.7862,1410,1589,1.0000,-0.4065,-0.4348,10.1729,20.1711,-0.9458,0.3455,-0.3516,-0.6755,9.8212,17.9834,-0.4914,0.7758
397.7574,-1.7452,0.9342,24.5902,16.4284,8.7334,73.8573,-413.5330,35.5350,-133.5567,1433,1566,1.0000,0.3166,-0.2193,10.5297,19.4230,0.0847,0.5745,-0.0882,-0.1392,9.8834,13.4338,1.1651,0.1193
397.7758,-1.5103,0.7859,24.6028,12.7414,9.3346,32.7005,-267.9694,30.8518,-90.4573,1454,1545,1.0000,0.5249,-0.3079,9.9072,13.0642,-0.4497,0.7042,0.0411,0.0643,10.0199,12.4185,-0.0792,0.6995
397.7942,-1.2189,0.7901,24.6063,10.2147,9.4666,7.1813,-134.1197,25.0362,-50.0716,1474,1525,1.0000,-0.1814,0.2308,10.0460,9.9268,-0.0680,1.2920,-0.4186,0.1672,10.1133,10.5025,-0.5830,-1.0639
397.8126,-0.9506,0.9064,24.6315,9.1307,9.4162,-2.7383,-84.5864,19.6799,-33.5242,1483,1516,1.0000,-0.6195,0.2643,10.0652,11.1558,0.9626,1.4142,-0.4354,0.3277,10.1300,7.1055,0.7987,1.2033
397.8309,-0.6500,0.9687,24.6522,12.5276,9.8830,25.3745,-123.2280,13.0065,-41.0071,1479,1520,1.0000,-0.4879,0.1661,9.5217,11.5452,-0.0603,0.6432,-0.1529,-0.2541,10.3599,13.5101,-1.1326,1.4628
397.8495,-0.3905,0.9216,24.6685,12.0887,10.2138,17.8420,-80.2623,7.8131,-26.3800,1486,1513,1.0000,0.0389,0.0560,9.9814,11.2398,0.0542,0.5974,0.0243,-0.1584,10.4868,12.9376,-0.3845,1.1269
397.8678,-0.2547,0.8866,24.6854,9.6918,10.1355,-4.2666,-14.1803,5.0959,-6.5184,1496,1503,1.0000,0.0508,-0.2840,10.4483,8.4306,0.2603,0.7806,-0.1864,-0.1033,10.1899,10.9529,0.6155,1.1498
397.8863,-0.1829,0.9002,24.6995,4.5200,9.2932,-45.7224,92.1966,3.6596,23.9853,1511,1488,1.0000,-0.1934,-0.1068,10.4195,5.2322,0.6648,0.6890,-0.4473,-0.0027,9.9050,3.8078,-0.0334,0.8598
397.9047,-0.1327,0.9466,24.7090,1.1421,8.0705,-66.4808,146.8273,2.6557,39.7838,1519,1480,1.0000,-0.3083,0.0991,9.6917,1.4306,0.3595,0.5974,-0.4976,0.2510,9.4022,0.8536,0.9055,0.3865
397.9231,-0.0726,1.0235,24.7065,0.6727,6.9608,-60.2517,137.6464,1.4519,37.8150,1518,1481,1.0000,-0.3873,0.2140,10.5704,0.1940,1.2679,0.1852,-0.3755,0.2989,9.8978,1.1513,2.4933,-0.5448
397.9414,0.0192,1.0539,24.7003,3.5582,6.4504,-27.7839,68.5206,-0.3838,19.3777,1509,1490,1.0000,-0.2077,0.1111,9.6558,3.3848,1.2832,-0.4103,0.1368,0.0451,10.0319,3.7315,1.3635,-0.3082
397.9598,0.1458,1.0617,24.6946,6.2337,6.4179,-1.7683,18.2286,-2.9182,6.5631,1503,1496,1.0000,-0.2077,0.0656,9.7611,5.0642,0.9015,-0.3721,0.0171,-0.0147,9.0670,7.4032,-0.6823,-0.2776
397.9782,0.2298,1.0904,24.6838,6.6231,6.4487,1.6737,18.0183,-4.5982,7.3442,1503,1496,1.0000,-0.2532,-0.1595,10.3788,6.8887,0.6038,-0.3721,-0.3707,-0.1655,9.8810,6.3574,1.1345,-0.7356
397.9966,0.3362,1.1597,24.6666,8.3597,6.7354,15.5979,-5.1927,-6.7282,1.9101,1500,1499,1.0000,-0.4304,-0.1667,9.1865,8.5452,0.6419,-0.9675,-0.2367,-0.2685,9.6967,8.1742,0.6155,-0.8120
398.0150,0.4071,1.2267,24.6594,5.7147,6.5823,-8.3254,59.0189,-8.1463,20.5984,1510,1489,1.0000,-0.5094,-0.1020,9.6510,5.9574,-0.4573,-1.2805,-0.2199,-0.0458,9.3519,5.4719,0.4933,0.6918
398.0334,0.5079,1.2238,24.6318,6.8406,6.6210,2.1093,52.3662,-10.1626,19.7438,1509,1490,1.0000,-0.1144,-0.0494,9.7204,7.6215,0.3824,-1.3874,-0.0595,0.0284,10.0127,6.0597,1.5849,-1.5753
398.0517,0.6448,1.2319,24.6026,8.4666,6.8978,15.0749,30.7864,-12.9034,15.0719,1507,1492,1.0000,-0.1168,0.0057,9.7013,7.8963,1.2908,-1.5477,-0.1169,0.0451,9.3854,9.0368,1.7223,-1.6288
398.0701,0.8511,1.2593,24.5741,10.6879,7.4664,30.9462,8.8097,-17.0304,10.9819,1505,1494,1.0000,-0.2987,0.1589,9.6917,10.6902,0.5885,-1.3492,-0.3707,0.0811,9.4405,10.6857,0.1422,-1.8044
398.0885,1.0501,1.2897,24.5393,12.6269,8.2404,42.1301,-0.5023,-21.0122,10.3655,1505,1494,1.0000,-0.3107,-0.0063,9.5983,12.6902,0.0236,-1.7080,-0.3468,0.0547,9.5099,12.5635,0.8979,-2.0486
398.1068,1.2721,1.2789,24.5001,13.6345,9.0495,44.0666,19.4672,-25.4651,18.1834,1509,1490,1.0000,-0.1239,0.0512,9.5696,13.7742,0.3442,-2.0897,-0.2103,-0.0458,9.8260,13.4948,0.5544,-2.1173
398.1252,1.4638,1.2357,24.4610,12.1460,9.5140,25.2861,95.6141,-29.3138,41.4288,1520,1479,1.0000,-0.0689,0.0704,9.5983,12.6368,-0.5565,-2.1355,-0.0044,0.0523,9.6033,11.6552,-0.7739,-1.9799
398.1436,1.6242,1.1727,24.4398,10.7566,9.7004,10.1449,157.6742,-32.5373,60.4174,1530,1469,1.0000,-0.0018,0.0751,9.8928,11.3772,-1.1061,-0.2729,-0.0882,0.0451,9.6320,10.1361,-0.9418,-2.0563
398.1619,1.7692,1.1552,24.3982,9.6612,9.6945,-0.3202,204.5088,-35.4567,74.9908,1537,1462,1.0000,-0.0952,0.1326,9.9048,9.4383,0.1381,-2.3263,-0.1553,0.2247,9.5865,9.8842,0.2948,-2.1173
398.1803,1.9513,1.1907,24.3554,10.0085,9.7416,2.5662,217.1397,-39.1163,80.3573,1540,1459,1.0000,-0.3658,0.2930,9.6749,10.2474,-0.2894,-2.4103,-0.1241,0.2917,9.5458,9.7697,0.1116,-2.2242
398.1987,2.0932,1.1497,24.3117,8.4818,9.5527,-10.2825,270.4836,-41.9772,96.7240,1548,1451,1.0000,-0.0018,0.2571,9.6247,9.8581,-0.5107,-2.4713,-0.0667,0.3037,9.8451,7.1055,0.6765,-2.2242
398.2170,2.2178,1.1349,24.2715,8.3635,9.3743,-9.6972,283.1257,-44.4896,101.5200,1550,1449,1.0000,-0.0785,0.2212,9.8928,9.0108,-0.1061,-2.1049,0.2685,0.2654,9.7062,7.7162,1.4170,-2.2547
398.2356,2.3101,1.0947,24.2310,6.8979,9.0028,-20.0030,323.4316,-46.3594,113.7405,1556,1443,1.0000,0.0101,0.2092,9.7563,7.8505,-0.2054,-2.0210,0.1153,0.2103,9.5219,5.9452,0.6078,-2.3005
398.2541,2.3148,1.2154,24.1868,4.2337,8.2875,-38.7845,378.0607,-46.4761,129.0950,1564,1435,1.0000,-0.7464,0.0464,9.9598,5.3925,-0.3123,-2.1584,-0.4402,0.1433,9.2777,3.0750,0.6765,-2.5219
398.2724,2.3168,1.3072,24.1463,3.2223,7.5277,-41.3281,385.6145,-46.5389,131.2415,1565,1434,1.0000,-0.6531,0.1111,9.8425,5.6902,-0.4573,-2.0973,-0.0667,0.0882,9.2561,0.7544,0.3025,-2.1708
398.2908,2.2548,1.2449,24.1052,0.4360,6.4639,-57.8740,426.1422,-45.3232,141.9814,1570,1429,1.0000,0.0053,0.0632,9.9814,1.7971,-1.1138,-1.9828,0.2470,0.2894,9.1723,-0.9250,-0.3082,-2.2776
398.3094,2.2478,1.1204,24.0671,0.1841,5.1460,-47.3378,394.9858,-45.2045,106.9636,1553,1446,0.8030,0.3573,0.3385,9.8761,1.0032,-1.1901,-1.9904,-0.0331,0.3851,9.7062,-0.6349,0.7987,-2.0792
398.3278,2.1983,1.0895,24.0302,-0.1479,2.7345,-26.9925,330.6916,-44.2359,74.1886,1537,1462,0.6467,-0.0617,0.1613,9.3757,0.4765,0.1839,-2.0210,-0.3875,0.1002,9.5315,-0.7723,-0.9418,-1.8502
398.3464,2.1380,1.1585,23.9884,-0.8311,0.7452,-8.6143,270.8246,-43.0514,58.6880,1529,1470,0.6028,-0.5070,0.1733,9.7348,-0.4930,-0.1901,-2.3339,-0.3923,0.0068,9.4549,-1.1693,-0.0487,-2.0410
398.3648,2.0387,1.1331,23.9459,-0.3388,0.0487,-0.5162,236.0778,-41.0863,45.8350,1522,1477,0.5290,-0.0521,-0.0661,9.7659,0.0566,0.1152,-2.3874,-0.0308,-0.0291,9.6344,-0.7342,0.4017,-2.0257
398.3831,2.0241,1.0546,23.9039,-0.4342,0.0000,-0.0000,232.9183,-40.8157,44.3627,1522,1477,0.5181,0.3381,0.3217,9.5911,-0.7449,1.0389,-2.6011,0.1153,0.1146,9.7972,-0.1235,2.9208,-2.0486
398.4015,2.0211,1.0073,23.8653,1.0734,0.0000,-0.0000,232.5662,-40.7748,44.1050,1522,1477,0.5158,0.0484,0.2427,9.3733,0.1482,0.4206,-2.1965,-0.3252,0.1218,9.7517,1.9987,-0.5906,-1.9341
398.4199,2.0604,1.0717,23.8263,4.3139,0.0000,0.0000,237.0931,-41.5822,47.5345,1523,1476,0.5453,-0.5238,0.1685,9.5361,3.2780,-0.4039,-2.3034,-0.5790,0.1337,10.0271,5.3498,-1.3998,-1.7585
398.4382,2.1574,1.1371,23.7889,7.2834,0.1643,1.8065,243.0484,-43.5430,55.4282,1527,1472,0.6171,-0.5070,0.1925,9.7013,6.1787,-0.0145,-2.1965,-0.5240,0.2271,9.7350,8.3880,-0.7739,-1.7509
398.4566,2.2628,1.1197,23.7528,9.0162,1.5779,17.0591,211.2553,-45.6747,56.7846,1528,1471,0.6926,-0.1910,0.0991,9.7851,8.4765,-0.8237,-2.0210,-0.2079,-0.0171,9.6129,9.5559,-1.1937,-1.6593
398.4750,2.3371,1.0888,23.7200,9.0963,3.6138,28.8221,185.9230,-47.1832,56.2266,1528,1471,0.7432,-0.1623,-0.0470,9.4188,9.4230,-1.7321,-1.7156,-0.0092,0.1242,9.9528,8.7697,-1.0945,-1.5219
398.4933,2.4590,1.0697,23.6919,8.7299,5.1742,28.7093,200.2721,-49.6452,66.3416,1533,1466,0.8201,-0.1120,0.2212,9.7755,8.6520,-0.5336,-1.4103,-0.3109,0.3133,9.7374,8.8078,0.0200,-1.5601
398.5117,2.5842,1.1178,23.6654,7.1727,5.6905,13.1706,259.4323,-52.1753,95.7939,1547,1452,0.9703,-0.3969,0.3936,9.9168,7.4612,0.3977,-1.3721,-0.3564,0.4186,9.4525,6.8842,-0.2319,-1.5295
398.5301,2.7116,1.1624,23.6399,6.6650,5.8976,7.2211,291.2237,-54.7498,108.5452,1554,1445,0.9966,-0.3897,0.4630,9.7635,7.0184,-0.7168,-1.4713,-0.2774,0.5072,9.9265,6.3116,1.0048,-1.3158
398.5484,2.8283,1.1448,23.5999,5.7261,5.8589,-1.5165,329.8219,-57.1129,120.1297,1560,1439,0.9936,-0.1551,0.5205,9.7132,5.5375,-0.6329,-1.4103,-0.0451,0.4809,9.8882,5.9147,-0.4303,-3.0944
398.5713,2.9752,1.1031,23.5691,4.8673,5.6027,-6.5099,361.1080,-60.0808,131.0906,1565,1434,0.9995,-0.0928,0.6186,9.8473,5.5833,-0.4344,-1.4255,-0.1696,0.4426,9.5291,4.1513,-1.0258,-1.2318
398.5902,3.0138,1.1142,23.5476,2.8444,4.5656,-19.7609,403.7099,-60.8824,143.4800,1571,1428,1.0000,-0.3442,0.4343,9.8545,3.9879,-1.3275,-1.1049,-0.1768,0.4569,9.6560,1.7010,-1.0868,-0.9952
398.6087,2.9947,1.1323,23.5202,-0.8960,1.9005,-21.8453,407.5141,-60.5302,144.3660,1572,1427,1.0000,-0.2437,0.5109,10.0173,0.0948,0.8786,-1.5782,-0.2606,0.4474,9.6655,-1.8868,-0.3158,-1.3998
398.6272,2.9317,1.1376,23.4878,-3.8655,0.0183,-0.3904,338.4791,-59.3004,123.9990,1561,1438,0.9966,-0.2724,0.5564,9.9072,-2.9739,-0.9229,-1.7614,-0.2893,0.4354,10.1611,-4.7571,-0.3922,-1.6898
398.6456,2.8373,1.1160,23.4505,-4.9304,0.0000,-0.0000,326.4885,-57.4402,117.8805,1558,1441,0.9812,-0.1958,0.4941,9.9335,-4.3785,-1.3199,-2.0820,0.0985,0.3229,9.7853,-5.4823,-1.0181,-1.8273
398.6640,2.6941,1.0766,23.4133,-5.9304,0.0000,-0.0000,310.0116,-54.6034,106.9133,1553,1446,0.9370,-0.0330,0.3433,10.3310,-5.7755,-0.4344,-2.1813,-0.1265,0.5000,9.4932,-6.0853,-0.3464,-1.7051
398.6824,2.5889,1.0389,23.3726,-5.1785,0.0000,-0.0000,297.9030,-52.5248,97.6771,1548,1451,0.8906,-0.0330,0.4151,9.7946,-4.9968,-0.3810,-2.4942,-0.0451,0.5072,9.8595,-5.3601,-0.3845,-1.8120
398.7008,2.4909,1.0284,23.3250,-4.6403,0.0000,-0.0000,286.6345,-50.5913,88.5199,1544,1455,0.8386,-0.1766,0.3912,9.8306,-4.7526,-0.9535,-2.6316,-0.0882,0.4019,9.9050,-4.5281,-0.2548,-2.4379
398.7192,2.4107,1.0168,23.2777,-2.8808,0.0000,-0.0000,277.4044,-49.0112,80.7957,1540,1459,0.7907,-0.1646,0.3122,10.0197,-3.0655,-0.9916,-2.5858,-0.3540,0.3205,9.8810,-2.6960,-0.1326,-2.4379
398.7376,2.3441,1.0116,23.2257,-0.9609,0.0000,0.0000,269.7381,-47.7022,74.3246,1537,1462,0.7479,-0.2149,0.1925,9.8904,-0.9816,-0.6939,-2.9065,-0.1217,0.1289,9.6751,-0.9403,-0.9952,-2.5524
398.7561,2.2807,0.9675,23.1726,-0.1518,0.0000,0.0000,262.4454,-46.4575,68.1853,1534,1465,0.7050,-0.1431,0.1254,9.9718,-0.4243,-2.8084,-2.8148,-0.1169,0.2391,9.5770,0.1208,-1.3311,-2.6593
398.7745,2.2500,0.9859,23.1181,0.8864,0.0000,0.0000,258.9117,-45.8658,65.2363,1532,1467,0.6836,-0.2293,0.1781,9.9838,0.8047,1.0313,-2.9599,-0.0260,0.2582,9.9026,0.9681,-0.6899,-2.8883
398.7929,2.2724,1.0249,23.0627,1.9475,0.0000,0.0000,261.4890,-46.3365,67.3990,1533,1466,0.6993,-0.3969,0.3289,9.8689,2.1253,-0.6405,-2.9752,-0.2103,0.2822,9.7805,1.7697,-0.5296,-2.9799
398.8113,2.3378,1.0514,23.0051,3.4475,0.0000,0.0000,269.0060,-47.6664,73.7397,1536,1463,0.7437,-0.3538,0.4055,9.8832,3.6215,-0.8313,-3.1660,-0.1002,0.3660,9.7182,3.2735,-0.4914,-3.0410
398.8298,2.4138,1.1066,22.9498,4.7452,0.0000,0.0000,277.7584,-49.2117,81.1495,1540,1459,0.7926,-0.4376,0.3553,10.0652,5.2780,-0.1290,-3.0439,-0.1098,0.3947,9.5530,4.2124,0.2796,-2.9036
398.8483,2.5051,1.1373,22.9086,5.3101,0.0000,0.0000,288.2608,-51.0621,89.9460,1544,1455,0.8466,-0.3442,0.3864,9.8832,6.0871,-0.1672,-3.0591,-0.0978,0.2486,9.4908,4.5330,-0.1479,-1.2624
398.8667,2.5487,1.1104,22.8493,4.9284,0.0000,0.0000,293.2814,-51.9601,94.0708,1547,1452,0.8702,-0.1000,0.2068,9.7755,5.5681,-0.6939,-3.2042,-0.1241,0.4138,9.5722,4.2887,-0.2929,-3.0868
398.8851,2.6070,1.0804,22.7894,3.9895,0.0000,0.0000,299.9846,-53.1512,99.4389,1549,1450,0.8993,-0.0641,0.3672,9.8569,4.7818,-0.6787,-3.3034,-0.1433,0.4689,9.7661,3.1971,0.0887,-3.1555
398.9035,2.6648,1.0686,22.7141,2.6040,0.0000,0.0000,306.6453,-54.3355,104.5698,1552,1447,0.9252,-0.1239,0.4893,9.6869,3.4459,-0.5489,-3.2118,-0.2582,0.4115,9.4596,1.7620,0.2719,-5.1173
398.9219,2.6938,1.0682,22.6360,0.7261,0.0000,-0.0000,309.9750,-54.9412,107.0478,1553,1446,0.9368,-0.2173,0.5205,9.6366,1.4230,-0.8390,-3.4408,-0.5599,0.5479,9.4118,0.0292,-0.6441,-5.1402
398.9405,2.6741,1.0534,22.5702,-0.7243,0.0000,-0.0000,307.7089,-54.5741,105.3897,1552,1447,0.9290,-0.1694,0.4295,9.7563,-0.0274,-1.2283,-3.6087,-0.0978,0.5216,9.6751,-1.4212,-0.2777,-3.3616
398.9589,2.6236,1.0270,22.5030,-1.4533,0.0000,-0.0000,301.9049,-53.5915,100.9862,1550,1449,0.9071,-0.0952,0.3505,9.7659,-1.2640,-0.7397,-3.7309,-0.0834,0.3588,9.6129,-1.6426,-0.4532,-3.4456
398.9774,2.5426,1.0537,22.4341,-1.6136,0.0000,-0.0000,292.5799,-51.9963,93.5692,1546,1453,0.8670,-0.3011,0.2044,9.7324,-0.1724,-1.2054,-3.9446,-0.2055,0.2582,9.4381,-3.0548,0.9971,-3.3845
398.9958,2.4448,1.0471,22.3638,-3.6937,0.0000,-0.0000,281.3297,-50.0654,84.2511,1542,1457,0.8116,-0.2101,0.2978,9.7492,-3.2258,-1.3123,-3.8759,-0.4186,0.3157,9.5267,-4.1616,-0.4914,-3.6059
399.0142,2.2953,1.0435,22.2921,-5.0754,0.0000,-0.0000,264.1215,-47.0975,69.7185,1534,1465,0.7150,-0.2149,0.1613,9.7946,-4.8289,-0.8008,-3.9752,-0.1241,0.2127,9.7110,-5.3219,-0.6823,-3.6135
399.0329,2.1227,1.0333,22.2189,-6.2014,0.0000,-0.0000,244.2564,-43.6662,53.3720,1526,1473,0.5915,-0.1814,0.1374,9.9527,-5.8747,-0.7397,-3.8530,0.1512,0.2032,9.3639,-6.5281,-0.4685,-3.8273
399.0514,1.9517,0.9961,22.1457,-5.8121,0.0000,-0.0000,224.5859,-40.2669,38.5059,1519,1480,0.4638,-0.0306,0.0704,9.6869,-5.4396,-1.1519,-3.9141,-0.0619,0.1816,9.5243,-6.1845,0.3788,-3.8349
399.0698,1.7971,1.0149,22.0726,-5.1708,0.0000,-0.0000,206.7967,-37.1930,26.7705,1513,1486,0.3499,-0.2628,0.0632,9.6438,-5.0579,-0.9611,-3.9675,-0.3731,0.0092,9.9744,-5.2838,0.5697,-3.8349
399.0882,1.6513,1.0472,21.9909,-4.4724,0.0000,-0.0000,190.0112,-34.2921,17.5209,1508,1491,0.2491,-0.3275,0.0153,9.7539,-4.1113,-0.4344,-3.7232,-0.0834,0.0619,9.7422,-4.8334,0.2338,-5.1479
399.1066,1.5009,1.0412,21.9231,-4.3273,-0.0071,-0.0276,172.7897,-31.3001,10.0381,1505,1494,0.1568,-0.1287,-0.0470,9.9958,-4.1724,0.2450,-3.8225,0.0842,0.1409,9.6703,-4.4823,0.2490,-3.3845
399.1252,1.3592,1.0016,21.8724,-4.6098,-0.1006,-0.3722,157.4728,-28.4790,4.9685,1502,1497,0.0852,0.0389,0.0009,9.8377,-4.5235,0.1763,-3.7614,-0.0930,0.2175,9.8523,-4.6960,0.4857,-1.3540
399.1437,1.2332,1.0075,21.8100,-4.5411,-0.2563,-0.7319,144.0136,-25.9719,2.0056,1501,1498,0.0376,-0.1670,0.0440,9.7803,-4.6762,0.2984,-3.5400,-0.1960,-0.0195,9.6751,-4.4059,0.2719,-3.1326
399.1622,1.1066,1.0217,21.7559,-4.6136,-0.4599,-1.1357,130.6040,-23.4502,0.3968,1500,1499,0.0082,-0.2006,0.0225,9.9191,-4.5312,0.2526,-3.0057,-0.1600,0.1170,9.9672,-4.6960,0.6155,-2.7509
399.1806,1.0120,1.0189,21.7062,-3.6174,-0.4501,0.0472,116.3119,-21.5684,0.0046,1500,1499,0.0001,-0.1024,0.0680,9.8210,-3.7449,0.8633,-2.8835,-0.2103,-0.0506,9.6224,-3.4899,0.3406,-2.4379
399.1990,0.9401,1.0425,21.6589,-4.1021,-0.5463,-0.5317,109.7085,-20.1403,0.0000,1500,1500,0.0000,-0.2461,0.1949,10.0676,-3.6991,0.4282,-2.7843,-0.0930,0.2486,9.7326,-4.5052,0.6155,-2.3387
399.2175,0.8715,1.0344,21.6193,-4.4151,-0.7136,-1.0464,103.2960,-17.4386,0.0000,1500,1500,0.0000,-0.0856,0.2188,9.6989,-4.0732,0.2679,-2.3492,-0.3707,0.2367,10.0319,-4.7571,0.8674,-1.9494
399.2360,0.8048,1.0486,21.5864,-5.6174,-1.2412,-4.4066,87.7529,-16.1049,0.0000,1500,1500,0.0000,-0.1623,0.3265,9.9120,-5.3174,0.7412,-1.9599,-0.2079,0.2439,9.8116,-5.9174,1.1498,-1.6746
399.2544,0.7168,1.0802,21.5556,-7.2586,-2.4466,-13.7877,101.8247,-14.3431,0.0000,1500,1500,0.0000,-0.2269,0.3529,9.9191,-6.6839,1.2145,-2.0286,-0.2247,0.3277,9.6464,-7.8334,1.1193,-1.3769
399.2728,0.6094,1.0977,21.5273,-8.9075,-4.3482,-29.4259,129.0618,-12.1949,17.9220,1508,1491,0.4243,-0.1431,0.3984,10.1322,-8.4777,1.3595,-1.8912,-0.1002,0.3971,9.8044,-9.3372,1.6231,-1.2853
399.2912,0.5035,1.0913,21.5008,-9.2701,-5.7735,-32.6802,126.7103,-10.0744,39.8583,1519,1480,0.9838,-0.0378,0.4079,9.8234,-9.2029,1.1839,-1.7156,0.0363,0.4091,9.8403,-9.3372,1.6842,-1.2853
399.3096,0.3933,1.1155,21.4758,-9.3846,-6.3619,-28.9696,107.2406,-7.8699,33.9623,1516,1483,1.0000,-0.2054,0.3744,9.7516,-9.2335,0.9473,-1.5706,-0.1600,0.4857,9.7134,-9.5357,1.2414,-1.2700
399.3280,0.3122,1.1449,21.4531,-9.8121,-6.8794,-28.1292,97.4503,-6.2478,30.4100,1515,1484,1.0000,-0.2389,0.5324,9.8641,-9.3480,0.9168,-1.5324,-0.1912,0.5455,9.7206,-10.2761,1.2261,-1.1173
