timestamp,roll_deg,pitch_deg,yaw_deg,omega_raw,omega_filtered,alpha,tau_ff,tau_pid,tau_total,pwm_left,pwm_right,deadzone_factor,accel1_x,accel1_y,accel1_z,gyro1_x,gyro1_y,gyro1_z,accel2_x,accel2_y,accel2_z,gyro2_x,gyro2_y,gyro2_z
345.1366,-2.8755,0.0671,-76.7898,-3.2003,0.0000,-0.0000,-330.8924,58.7370,-120.6598,1500,1500,0.9889,0.0318,-0.4400,9.7458,-2.1332,0.7131,1.5872,0.0204,-0.5597,9.6290,-4.2675,0.9138,1.5787
345.1558,-2.9604,0.0604,-76.7621,-2.5286,0.0000,-0.0000,-340.6574,60.4637,-125.4702,1500,1500,0.9988,0.0965,-0.6507,9.7314,-2.4690,0.8353,1.5108,-0.0155,-0.5884,9.7846,-2.5881,0.7917,1.4489
345.1754,-3.0466,0.0663,-76.7364,-2.8950,0.0000,-0.0000,-350.5785,62.2185,-129.2712,1500,1500,1.0000,0.0342,-0.6339,9.7674,-2.8431,0.7131,1.4269,-0.0347,-0.6411,9.7128,-2.9469,0.7688,1.2657
345.1940,-3.1292,0.0749,-76.7134,-2.8377,0.0000,-0.0000,-360.0855,63.9021,-132.7750,1500,1500,1.0000,0.0103,-0.6555,9.7219,-2.8813,0.7131,1.1444,0.0659,-0.5693,9.6888,-2.7942,0.5932,1.4184
345.2126,-3.1996,0.0969,-76.6908,-2.4866,0.0000,-0.0000,-368.1772,65.3404,-135.7598,1500,1500,1.0000,-0.0472,-0.6459,9.7458,-2.4919,0.6597,1.3582,-0.0155,-0.5813,9.7343,-2.4813,0.8069,1.1589
345.2311,-3.2770,0.1090,-76.6699,-2.8148,0.0000,-0.0000,-377.0939,66.9228,-139.0477,1500,1500,1.0000,-0.0089,-0.6579,9.6883,-2.8431,0.6673,1.1292,-0.0634,-0.5980,9.6864,-2.7866,0.6543,1.2047
345.2497,-3.3389,0.1499,-76.6496,-2.6278,0.0000,-0.0000,-384.2158,68.1940,-141.6774,1500,1500,1.0000,-0.0663,-0.6124,9.6764,-2.5988,0.6902,1.1826,-0.0945,-0.6938,9.6553,-2.6568,2.7077,1.1894
345.2682,-3.4237,0.1798,-76.6317,-3.2652,0.0000,-0.0000,-393.9751,69.9244,-145.2752,1500,1500,1.0000,-0.0328,-0.7058,9.8416,-2.3469,0.6215,1.0147,0.0060,-0.5645,9.8277,-4.1835,2.7306,1.1207
345.2867,-3.4617,0.1715,-76.6122,-2.0133,0.0000,0.0000,-398.3434,70.7182,-146.8952,1500,1500,1.0000,0.0175,-0.5908,9.8679,-2.1026,0.8353,1.2208,-0.0419,-0.6938,9.8708,-1.9240,-1.1167,0.8230
345.3050,-3.5273,0.1773,-76.5953,-2.1660,0.0000,0.0000,-405.8916,72.0653,-149.6823,1500,1500,1.0000,0.0079,-0.7153,9.8200,-2.1332,0.6368,0.9689,-0.0586,-0.7297,9.8780,-2.1988,0.7382,0.9680
345.3235,-3.5819,0.1864,-76.5805,-1.7271,0.0000,0.0000,-412.1723,73.1926,-152.0046,1500,1500,1.0000,-0.0184,-0.7153,9.9062,-1.8126,0.6215,0.9078,-0.0227,-0.7680,9.8301,-1.6416,0.5321,0.7543
345.3420,-3.6394,0.1921,-76.5689,-1.2538,0.0000,0.0000,-418.7926,74.3796,-154.4517,1500,1500,1.0000,-0.0663,-0.7752,9.8392,-1.3316,0.6063,0.7398,-0.0490,-0.7728,9.7822,-1.1759,-1.1625,0.4566
345.3604,-3.6625,0.2139,-76.5630,-1.0744,0.0000,0.0000,-421.4507,74.8782,-155.4453,1500,1500,1.0000,-0.0903,-0.6435,9.8823,-0.9729,0.4765,0.5032,-0.0538,-0.7513,9.8205,-1.1759,0.5703,0.1512
345.3788,-3.7050,0.2247,-76.5597,-1.1927,0.0000,0.0000,-426.3445,75.7658,-157.2593,1500,1500,1.0000,-0.0567,-0.7297,9.8512,-1.1332,0.3315,0.2208,-0.1592,-0.6435,9.8516,-1.2523,0.2955,0.1741
345.3972,-3.7472,0.2768,-76.5548,-1.1011,0.0000,0.0000,-431.1963,76.6464,-159.0582,1500,1500,1.0000,-0.2531,-0.7393,9.8416,-1.1942,0.3773,0.3963,0.0252,-0.6890,9.8588,-1.0080,0.3871,0.1589
345.4157,-3.7852,0.2759,-76.5528,-1.0629,0.0000,0.0000,-435.5722,77.4448,-160.6826,1500,1500,1.0000,-0.0089,-0.7297,9.8272,-1.0721,0.4231,0.1979,-0.0682,-0.7273,9.9043,-1.0538,0.3260,0.0520
345.4341,-3.8211,0.2938,-76.5514,-1.0400,0.0000,0.0000,-439.6993,78.2003,-162.2159,1500,1500,1.0000,-0.1238,-0.7297,9.8727,-1.0797,0.0337,0.0986,-0.0419,-0.7848,9.8900,-1.0003,0.1886,0.0673
345.4525,-3.8704,0.2989,-76.5550,-1.0210,0.0000,0.0000,-445.3721,79.2249,-164.3166,1500,1500,1.0000,-0.0591,-0.8063,9.8966,-0.9805,0.2017,-0.0998,-0.2334,-0.7728,9.9833,-1.0614,0.0894,-0.2839
345.4710,-3.9093,0.3074,-76.5565,-0.9484,0.0000,0.0000,-449.8499,80.0421,-165.9790,1500,1500,1.0000,-0.0855,-0.7752,9.9541,-0.9729,0.2017,0.0299,-0.0538,-0.7225,9.9354,-0.9240,-0.0556,-0.2076
345.4899,-3.9473,0.3095,-76.5635,-0.6889,0.0000,0.0000,-454.2290,80.8427,-167.6055,1500,1500,1.0000,-0.0735,-0.7967,9.9709,-0.7668,-0.1571,-0.2678,0.0611,-0.7465,9.7702,-0.6110,0.0665,-0.5053
345.5084,-3.9474,0.3102,-76.5713,0.5859,0.0000,0.0000,-454.2345,80.8831,-167.6272,1500,1500,1.0000,-0.0663,-0.7321,10.0882,-0.3545,-0.1418,-0.3747,-0.0849,-0.8638,9.9402,1.5264,0.0283,-0.4976
345.5268,-3.9697,0.3072,-76.5805,-0.6736,0.0000,0.0000,-456.8039,81.3693,-168.5897,1500,1500,1.0000,-0.0591,-0.7297,9.8607,-0.5606,-0.2258,-0.3976,-0.1424,-0.6794,10.0121,-0.7866,-0.1854,-0.6732
345.5452,-3.9716,0.3161,-76.5856,-0.6278,0.0000,0.0000,-457.0180,81.4463,-168.6882,1500,1500,1.0000,-0.1070,-0.6507,10.0427,-0.5835,-0.1647,-0.2678,-0.2334,-0.6483,9.7750,-0.6721,-0.0938,-0.3144
345.5636,-3.9739,0.3356,-76.5880,-0.5935,0.0000,0.0000,-457.2938,81.5339,-168.8092,1500,1500,1.0000,-0.1621,-0.6435,9.8081,-0.5148,-0.1418,-0.0846,-0.0730,-0.5765,9.8492,-0.6721,-0.2007,-0.2228
345.5820,-3.9828,0.3353,-76.5885,-0.8721,0.0000,-0.0000,-458.3181,81.7518,-169.2050,1500,1500,1.0000,-0.0855,-0.6507,9.8296,-0.8660,-0.3708,-0.1915,-0.2382,-0.6028,10.0384,-0.8782,-0.3763,0.1283
345.6004,-3.9704,0.3236,-76.5842,-0.9294,0.0000,-0.0000,-456.8890,81.5431,-168.7005,1500,1500,1.0000,-0.0352,-0.5429,9.8081,-0.8889,-0.4395,0.0910,-0.0514,-0.6890,9.9019,-0.9698,-0.3228,0.3421
345.6188,-3.9620,0.3136,-76.5755,-1.0057,0.0000,-0.0000,-455.9168,81.4138,-168.3636,1500,1500,1.0000,-0.0232,-0.5597,9.8727,-1.0110,-0.3021,0.4650,-0.0778,-0.5046,9.8636,-1.0003,-0.0938,0.4337
345.6372,-3.9442,0.3078,-76.5491,-1.3721,0.0000,-0.0000,-453.8754,81.0984,-167.6343,1500,1500,1.0000,-0.0520,-0.4855,9.8919,-1.1942,-0.3098,0.6864,-0.0035,-0.5190,9.8660,-1.5500,-0.4602,2.4413
345.6556,-3.9323,0.2949,-76.5297,-1.8034,0.0000,-0.0000,-452.4984,80.8984,-167.1488,1500,1500,1.0000,-0.0065,-0.4711,9.9062,-1.7515,-0.2182,0.9154,0.0156,-0.4879,9.8421,-1.8553,-0.2389,1.1818
345.6740,-3.9591,0.2839,-76.5088,-3.1584,0.0000,-0.0000,-455.5854,81.4745,-168.3012,1500,1500,1.0000,-0.0089,-0.5501,9.8655,-2.0721,-0.1571,0.9918,-0.0490,-0.4831,9.8684,-4.2446,-0.2541,1.2963
345.6924,-3.9641,0.2727,-76.4840,-2.5439,0.0000,-0.0000,-456.1628,81.6145,-168.5328,1500,1500,1.0000,-0.0352,-0.4903,9.8966,-2.5225,-0.5693,1.3887,-0.0562,-0.4256,9.8828,-2.5652,-0.5137,1.1818
345.7108,-3.9763,0.2539,-76.4559,-2.8874,0.0000,-0.0000,-457.5664,81.8982,-169.0677,1500,1500,1.0000,0.0199,-0.5022,10.0331,-2.7820,-0.3479,1.4956,-0.0179,-0.4975,10.0504,-2.9927,-0.3763,1.4871
345.7292,-3.9876,0.2383,-76.4219,-3.3645,0.0000,-0.0000,-458.8609,82.1631,-169.5626,1500,1500,1.0000,0.0055,-0.4472,9.7961,-3.1637,-0.4853,1.7322,0.0228,-0.5238,9.9330,-3.5652,-0.2770,1.9298
345.7477,-4.0280,0.2308,-76.3838,-3.2042,0.0000,-0.0000,-463.5129,83.0118,-171.2895,1500,1500,1.0000,-0.0136,-0.5884,9.7027,-3.3316,-0.2869,1.9994,0.0228,-0.6100,9.7798,-3.0767,-0.1320,2.1207
345.7662,-4.0589,0.2325,-76.3430,-2.9561,0.0000,-0.0000,-467.0717,83.6709,-172.6155,1500,1500,1.0000,-0.0376,-0.5860,9.8703,-2.9042,0.0490,2.2666,-0.0059,-0.5525,9.8684,-3.0080,-0.1473,2.0978
345.7846,-4.0976,0.2394,-76.2993,-3.3530,0.0000,-0.0000,-471.5287,84.4865,-174.2713,1500,1500,1.0000,-0.0974,-0.5908,9.8152,-3.2629,-0.4090,2.4192,-0.0562,-0.6076,9.8109,-3.4431,-0.5289,2.2199
345.8032,-4.1458,0.2286,-76.2543,-2.9484,0.0000,-0.0000,-477.0651,85.4901,-176.3233,1500,1500,1.0000,0.0127,-0.6794,9.9302,-3.0568,-0.1953,2.4803,-0.0754,-0.6579,9.6912,-2.8400,-0.0862,2.3268
345.8216,-4.1917,0.2429,-76.2104,-2.8645,0.0000,-0.0000,-482.3554,86.4514,-178.2852,1500,1500,1.0000,-0.0903,-0.6866,9.8535,-2.7210,0.0948,2.3963,0.0108,-0.6220,9.7870,-3.0080,-0.0556,2.3650
345.8400,-4.2265,0.2502,-76.1517,-3.2461,0.0000,-0.0000,-486.3615,87.1899,-179.7762,1500,1500,1.0000,-0.0687,-0.6076,9.7793,-3.1637,-0.1571,2.4192,0.0731,-0.4161,9.8038,-3.3286,-0.0709,4.4566
345.8585,-4.2315,0.2638,-76.1022,-3.4561,0.0000,-0.0000,-486.9381,87.3324,-180.0089,1500,1500,1.0000,-0.0903,-0.4472,9.7506,-3.4232,0.0490,2.5948,0.0563,-0.6076,9.8445,-3.4889,-0.0327,2.8001
345.8769,-4.2760,0.2640,-76.0545,-3.3568,0.0000,-0.0000,-492.0506,88.2636,-181.9060,1500,1500,1.0000,-0.0089,-0.6435,9.7913,-3.4232,0.2780,2.5108,-0.0059,-0.6148,9.8301,-3.2904,0.1810,2.7772
345.8953,-4.3285,0.2726,-75.9937,-3.5706,0.0000,-0.0000,-498.0948,89.3573,-184.1452,1500,1500,1.0000,-0.0615,-0.6722,9.7841,-3.5454,0.0643,2.6559,-0.0323,-0.6555,9.8684,-3.5958,-0.0251,4.4413
345.9138,-4.3874,0.2527,-75.9457,-3.5706,-0.0053,-0.0082,-504.8552,90.5802,-186.6496,1500,1500,1.0000,0.0606,-0.7034,9.7386,-3.6141,-0.0884,2.6406,-0.0490,-0.7273,9.6912,-3.5271,0.0512,2.5024
345.9323,-4.4587,0.2408,-75.8980,-3.2118,-0.0088,-0.0032,-513.0666,92.0493,-189.6833,1500,1500,1.0000,0.0247,-0.8015,9.7650,-3.3622,-0.0121,2.5719,0.0515,-0.7728,9.6960,-3.0614,-0.1015,2.6169
345.9508,-4.5085,0.2236,-75.8502,-2.9217,-0.0046,0.0021,-518.8193,93.0915,-191.8151,1500,1500,1.0000,0.0534,-0.7345,9.6883,-3.0492,0.0261,2.6482,-0.0466,-0.7177,9.6721,-2.7942,-0.1854,2.4795
345.9692,-4.5290,0.2160,-75.8035,-2.7919,-0.0007,0.0005,-521.1679,93.5457,-192.6999,1500,1500,1.0000,-0.0113,-0.6220,9.7243,-2.7668,-0.3098,2.5719,-0.0083,-0.7560,9.6505,-2.8171,-0.2694,2.3955
345.9876,-4.5976,0.1976,-75.7573,-2.3721,0.0000,0.0000,-529.0670,94.9647,-195.6211,1500,1500,1.0000,0.0390,-0.8853,9.7171,-2.4385,-0.3327,2.4879,0.0060,-0.8255,9.6673,-2.3057,-0.2923,2.5024
346.0062,-4.6693,0.2201,-75.7123,-1.7996,0.0000,0.0000,-537.3186,96.4454,-198.6719,1500,1500,1.0000,-0.1381,-0.9643,9.7578,-1.8507,-0.1571,2.4269,0.0060,-0.7656,9.7248,-1.7484,-0.1931,2.4108
346.0247,-4.6872,0.2114,-75.6785,-1.4332,0.0000,0.0000,-539.3740,96.8495,-199.4495,1500,1500,1.0000,-0.0065,-0.7632,9.8512,-1.4461,-0.3098,2.3734,0.0300,-0.8015,9.6912,-1.4202,-0.1244,0.6779
346.0431,-4.7239,0.2116,-75.6346,-0.9675,0.0000,0.0000,-543.6043,97.6318,-201.0251,1500,1500,1.0000,-0.0400,-0.8805,9.6405,-0.9729,-0.1953,2.4498,0.0036,-0.7560,9.6170,-0.9622,-0.2847,2.2352
346.0615,-4.7583,0.2089,-75.5887,-1.4637,0.0000,0.0000,-547.5568,98.3663,-202.4991,1500,1500,1.0000,-0.0256,-0.8662,9.7578,-0.5988,-0.1724,2.5490,0.0108,-0.8973,9.7463,-2.3286,-0.3152,2.3650
346.0799,-4.7816,0.1907,-75.5452,0.0935,0.0000,0.0000,-550.2405,98.8805,-203.5076,1500,1500,1.0000,0.0318,-0.9236,9.7027,0.0348,-0.4166,2.3047,0.1808,-0.8758,9.6386,0.1523,-0.2465,2.4337
346.0984,-4.7920,0.1694,-75.5036,0.7004,0.0000,0.0000,-551.4434,99.1375,-203.9729,1500,1500,1.0000,0.0582,-0.9093,9.6453,0.4852,-0.2945,2.2360,0.0204,-0.8710,9.5596,0.9157,-0.2618,2.2657
346.1167,-4.7962,0.1601,-75.4601,1.0745,0.0000,0.0000,-551.9264,99.2694,-204.1741,1500,1500,1.0000,0.0127,-0.9140,9.6381,0.8821,-0.2258,2.3734,-0.0179,-0.8829,9.6505,1.2668,-0.2160,2.3344
346.1352,-4.8179,0.1559,-75.4175,1.5516,0.0000,0.0000,-554.4144,99.7499,-205.1110,1500,1500,1.0000,-0.0065,-1.0266,9.5064,1.4241,-0.1647,2.2971,0.0060,-0.8374,9.6026,1.6790,-0.2007,2.3268
346.1536,-4.8039,0.1298,-75.3716,1.8187,0.0000,0.0000,-552.8116,99.5194,-204.5470,1500,1500,1.0000,0.0821,-0.8973,9.6022,1.7218,-0.3708,2.4956,-0.0826,-0.8805,9.6386,1.9157,-0.3763,2.4337
346.1720,-4.8149,0.1028,-75.3363,1.9218,0.0000,0.0000,-554.0759,99.7873,-205.0349,1500,1500,1.0000,0.0917,-1.0362,9.7027,1.9584,-0.3327,2.5490,0.1473,-0.8207,9.6242,1.8852,-0.1778,0.6245
346.1905,-4.7931,0.0746,-75.2859,2.1165,0.0000,0.0000,-551.5621,99.3984,-204.1366,1500,1500,1.0000,0.1228,-0.8901,9.6022,2.1416,-0.0197,2.7933,0.1281,-0.8207,9.5667,2.0913,-0.2236,2.6169
346.2089,-4.7658,0.0557,-75.2344,1.7768,0.0000,0.0000,-548.4181,98.8996,-203.0069,1500,1500,1.0000,0.0821,-0.8374,9.6644,1.8287,-0.1342,2.8925,0.0180,-0.8015,9.4853,1.7248,-0.1931,2.5940
346.2273,-4.7410,0.0380,-75.1787,1.7042,0.0000,0.0000,-545.5709,98.4523,-201.9860,1500,1500,1.0000,0.0845,-0.8422,9.7458,1.6607,-0.0426,2.9994,0.0659,-0.8422,9.6410,1.7477,-0.2694,3.0825
346.2456,-4.7101,0.0162,-75.1207,2.5248,0.0000,0.0000,-542.0085,97.8803,-200.7025,1500,1500,1.0000,0.0941,-0.8494,9.6955,1.5615,-0.2029,3.0910,0.0779,-0.8063,9.6960,3.4882,-0.3915,3.2657
346.2642,-4.6906,-0.0048,-75.0588,1.0897,0.0000,0.0000,-539.7724,97.5386,-199.9056,1500,1500,1.0000,0.0917,-0.7991,9.6093,1.1951,-0.2563,3.3505,0.0707,-0.7752,9.7032,0.9844,-0.3457,3.2428
346.2827,-4.6796,-0.0044,-74.9973,0.6775,0.0000,-0.0000,-538.4993,97.3641,-199.4619,1500,1500,1.0000,-0.0113,-0.8087,9.6883,0.7676,-0.4472,3.2208,-0.0419,-0.5837,9.6840,0.5874,-0.3076,3.4795
346.3015,-4.6552,-0.0009,-74.9286,0.4905,0.0000,-0.0000,-535.6896,96.9224,-198.4543,1500,1500,1.0000,-0.0208,-0.7345,9.8105,0.5462,-0.3556,3.6406,0.0228,-0.7608,9.9019,0.4348,-0.3457,3.6474
346.3199,-4.6624,-0.0156,-74.8595,0.2653,0.0000,-0.0000,-536.5232,97.1139,-198.7834,1500,1500,1.0000,0.0606,-0.8494,9.7267,0.2714,-0.3250,3.6940,0.0012,-0.8015,9.8085,0.2592,-0.5518,3.7619
346.3385,-4.6636,-0.0125,-74.7889,0.1775,0.0000,-0.0000,-536.6571,97.1838,-198.8559,1500,1500,1.0000,-0.0256,-0.8135,9.7362,0.1340,-0.4548,3.7933,0.0132,-0.8039,9.7271,0.2210,-0.4831,3.7390
346.3570,-4.6676,-0.0125,-74.7136,0.1394,0.0000,-0.0000,-537.1214,97.3112,-199.0496,1500,1500,1.0000,-0.0136,-0.8302,9.7889,0.1722,-0.4395,4.0757,0.0539,-0.8183,9.7176,0.1065,-0.6129,3.9985
346.3754,-4.6793,-0.0438,-74.6373,0.1661,0.0000,-0.0000,-538.4629,97.5911,-199.5652,1500,1500,1.0000,0.1516,-0.8757,9.8416,0.2409,-0.3937,4.1979,0.0180,-0.7991,9.7008,0.0913,-0.2083,3.9604
346.3939,-4.7042,-0.0758,-74.5602,0.5554,0.0000,0.0000,-541.3340,98.1371,-200.6421,1500,1500,1.0000,0.1276,-0.9691,9.8296,0.5386,-0.6685,4.0299,0.0228,-0.9380,9.8373,0.5722,-0.7885,4.3192
346.4123,-4.7364,-0.0771,-74.4589,0.9409,0.0000,0.0000,-545.0341,98.8275,-202.0233,1500,1500,1.0000,0.0127,-1.0362,9.8224,0.8058,-0.3937,6.1750,-0.0323,-1.0218,9.7894,1.0760,-0.8266,4.0520
346.4308,-4.7591,-0.0754,-74.4043,1.4561,0.0000,0.0000,-547.6491,99.3295,-203.0065,1500,1500,1.0000,-0.0136,-1.0505,9.8895,1.4394,-0.3785,2.2971,-0.0251,-1.1463,9.7894,1.4729,-0.6358,4.2123
346.4492,-4.7562,-0.0535,-74.3267,2.0859,0.0000,0.0000,-547.3179,99.3195,-202.9088,1500,1500,1.0000,-0.1190,-0.9883,9.9038,1.9126,-0.6533,4.2589,-0.0299,-0.9284,9.8109,2.2592,-0.6816,3.9756
346.4676,-4.7410,-0.0486,-74.2490,2.3149,0.0000,0.0000,-545.5676,99.0627,-202.2903,1500,1500,1.0000,-0.0496,-0.9571,9.9541,2.2332,-0.6915,4.1826,-0.1041,-0.8877,9.9498,2.3966,-0.9182,4.1512
346.4860,-4.7018,-0.0281,-74.1687,2.5363,0.0000,0.0000,-541.0525,98.3251,-200.6572,1500,1500,1.0000,-0.1717,-0.8638,9.9637,2.5997,-1.2869,4.3047,-0.0969,-0.8446,9.9426,2.4729,-1.2923,4.1970
346.5044,-4.6509,0.0111,-74.0912,2.6394,0.0000,0.0000,-535.1940,97.3535,-198.5311,1500,1500,1.0000,-0.2602,-0.8063,9.9493,2.5386,-1.2945,4.1368,-0.1352,-0.7393,9.9953,2.7401,-1.0938,4.0825
346.5229,-4.5772,0.0164,-74.0120,2.9103,0.0000,0.0000,-526.7212,95.9268,-195.4454,1500,1500,1.0000,-0.1142,-0.7225,10.0355,2.9203,-1.2792,4.1979,-0.2334,-0.7010,9.9235,2.9004,-1.5137,4.1741
346.5413,-4.5060,0.0020,-73.9297,2.6890,0.0000,0.0000,-518.5275,94.5479,-192.4617,1500,1500,1.0000,-0.0352,-0.7010,10.0044,2.7447,-1.3250,4.3811,-0.0538,-0.6100,9.9809,2.6332,-1.8266,4.3268
346.5597,-4.4140,-0.0012,-73.8455,2.3493,0.0000,0.0000,-507.9399,92.7521,-188.5992,1500,1500,1.0000,-0.0136,-0.5621,10.0451,2.4623,-1.5159,4.6024,-0.0371,-0.5286,10.0216,2.2363,0.7459,4.4108
346.5781,-4.3242,-0.0135,-73.7556,2.1890,0.0000,0.0000,-497.6034,90.9990,-184.8285,1500,1500,1.0000,-0.0160,-0.5334,10.0211,2.0958,-1.0960,4.7704,0.0156,-0.6603,9.9905,2.2821,-1.4144,4.8306
346.5965,-4.2564,-0.0257,-73.6646,1.8378,0.0000,-0.0000,-489.7952,89.6846,-181.9849,1500,1500,1.0000,-0.0615,-0.5980,10.0283,1.8439,-1.5922,4.7933,0.0563,-0.4759,9.9881,1.8317,-1.9640,4.8917
346.6149,-4.1760,-0.0288,-73.5693,1.8302,0.0000,-0.0000,-480.5417,88.1182,-178.6108,1500,1500,1.0000,-0.1142,-0.5142,9.9230,1.7142,-1.8594,5.0452,0.0970,-0.5549,9.9330,1.9462,-1.8724,5.0825
346.6333,-4.1010,-0.0707,-73.4723,1.6546,0.0000,-0.0000,-471.9165,86.6602,-175.4667,1500,1500,1.0000,0.0869,-0.5190,9.9062,1.8592,-1.8212,5.0986,-0.0826,-0.4663,9.9426,1.4500,-1.6129,5.2123
346.6517,-4.0414,-0.1064,-73.3697,1.5401,0.0000,-0.0000,-465.0587,85.5088,-172.9708,1500,1500,1.0000,0.0773,-0.5693,10.0307,1.5081,-1.4930,5.5185,0.2071,-0.5382,9.9211,1.5722,-1.6663,5.4260
346.6702,-3.9761,-0.1329,-73.2645,1.8226,0.0000,-0.0000,-457.5379,84.2415,-170.2314,1500,1500,1.0000,0.0271,-0.5549,10.0642,1.6836,-1.5617,5.6101,0.0683,-0.6172,9.7942,1.9615,-1.9793,5.5482
346.6887,-3.9185,-0.1644,-73.1547,2.7577,0.0000,0.0000,-450.9146,83.1297,-167.8209,1500,1500,1.0000,0.0510,-0.6507,9.8966,2.5310,-1.8212,5.8085,-0.0682,-0.7058,9.8516,2.9844,-1.8037,5.8688
346.7072,-3.8627,-0.1843,-73.0467,3.3378,0.0000,0.0000,-444.4905,82.0518,-165.4833,1500,1500,1.0000,0.0031,-0.6962,9.8128,3.3019,-1.5388,5.7627,0.0348,-0.7752,9.9019,3.3737,-2.0785,5.6779
346.7257,-3.7887,-0.2207,-72.9355,4.1966,0.0000,0.0000,-435.9736,80.6095,-162.3774,1500,1500,1.0000,0.0725,-0.6746,9.8655,3.9050,-1.7373,5.9078,-0.0179,-0.7656,9.6098,4.4882,-2.1702,5.8535
346.7441,-3.7113,-0.2435,-72.8237,5.6775,0.0000,0.0000,-427.0686,79.0990,-159.1287,1500,1500,1.0000,0.0151,-0.7752,9.8751,5.4241,-1.8594,6.1063,-0.0035,-0.8303,9.7319,5.9310,-1.9488,5.6856
346.7626,-3.6259,-0.2409,-72.7143,6.6050,0.2722,2.2943,-423.8449,77.4267,-157.3899,1500,1500,1.0000,-0.1142,-0.8063,9.8559,6.4317,-1.8976,5.8391,0.1760,-0.7393,9.7295,6.7783,-2.0938,5.7619
346.7811,-3.5192,-0.2656,-72.6045,7.7271,1.3493,11.1221,-436.9942,75.3286,-160.0227,1500,1500,1.0000,0.0438,-0.7895,9.8990,7.3248,-1.6380,5.9002,-0.0299,-0.7848,9.8684,8.1294,-1.7732,5.7161
346.7996,-3.3614,-0.2996,-72.4988,8.2577,2.9969,20.9582,-447.1593,72.2056,-161.3074,1500,1500,1.0000,0.0797,-0.5860,9.9302,8.3401,-1.6227,5.6864,-0.0059,-0.6579,9.8469,8.1752,-2.0633,5.4718
346.8180,-3.2372,-0.3132,-72.3980,7.8187,4.3450,20.7116,-432.1548,69.7537,-155.8802,1500,1500,1.0000,-0.0304,-0.6698,9.8105,7.9279,-1.9128,5.4956,0.0108,-0.6100,9.8038,7.7096,-2.1091,5.1360
346.8365,-3.1103,-0.3179,-72.2997,8.4027,5.5353,25.0960,-430.1888,67.2485,-154.0771,1500,1500,1.0000,-0.0304,-0.6674,9.7602,7.4546,-1.5922,5.2971,-0.0442,-0.6675,9.7990,9.3508,-1.4450,5.1360
346.8550,-3.0096,-0.3182,-72.2079,6.1966,5.6776,3.9925,-357.8210,65.2643,-132.8221,1500,1500,1.0000,-0.0376,-0.5908,9.6405,6.5920,-1.3632,5.0223,-0.0993,-0.5621,9.8876,5.8012,-1.3915,4.7237
346.8734,-2.9257,-0.3020,-72.1205,4.7157,5.3587,-8.2029,-313.0440,63.6157,-118.9784,1500,1500,0.9960,-0.0950,-0.5214,9.5926,5.0958,-0.9739,4.8315,0.0587,-0.5741,9.8109,4.3355,-1.2694,4.4718
346.8918,-2.8690,-0.2556,-72.0414,4.6890,5.0309,-6.9142,-310.2261,62.5096,-116.6642,1500,1500,0.9877,-0.2004,-0.6124,9.6189,3.9050,-0.7525,4.4269,-0.2118,-0.6986,9.7176,5.4729,-0.5976,3.9909
346.9103,-2.8679,-0.2053,-71.9723,2.7462,3.8979,-17.0919,-280.7908,62.5168,-108.5056,1500,1500,0.9875,-0.1788,-0.7034,9.5495,2.9813,-0.2563,3.9231,-0.3890,-0.8374,9.6697,2.5111,-0.0098,3.4642
346.9287,-2.9347,-0.1620,-71.9136,1.5630,2.3618,-14.8339,-294.9788,63.8818,-114.1768,1500,1500,0.9969,-0.1525,-0.9093,9.5303,1.5691,-0.0960,3.3124,-0.2765,-0.9883,9.6840,1.5569,-0.0404,2.9604
346.9471,-2.9886,-0.1052,-71.8578,2.1623,1.4399,-6.6664,-324.7027,64.9895,-123.3995,1500,1500,0.9999,-0.1549,-0.9093,9.4729,1.9355,0.5757,3.1063,-0.1496,-0.6986,9.4159,2.3890,0.9596,2.9985
346.9656,-2.9208,-0.0506,-71.7992,1.9600,0.7522,-3.5206,-325.9628,63.6631,-122.5376,1500,1500,0.9954,-0.1884,-0.3586,9.5638,2.1569,1.4231,3.1597,-0.1999,-0.3897,9.6362,1.7630,-1.1702,3.2199
346.9841,-2.8828,0.0281,-71.7383,0.5974,0.1352,-1.0640,-328.6598,62.9310,-122.2673,1500,1500,0.9901,-0.3440,-0.3801,9.6476,1.5539,0.0872,3.2208,-0.2693,-0.3802,9.6553,-0.3591,-0.2618,3.4031
347.0026,-2.8649,0.0934,-71.6730,1.7233,0.0137,-0.0584,-329.4933,62.6012,-121.9424,1500,1500,0.9869,-0.2722,-0.5501,9.6931,1.6378,0.0948,3.5719,-0.1831,-0.6172,9.7271,1.8088,0.3871,3.5024
347.0210,-2.8779,0.1346,-71.6052,2.0325,0.0000,-0.0000,-331.1680,62.8918,-122.8420,1500,1500,0.9893,-0.1046,-0.7177,9.6836,1.9584,0.9803,3.7551,-0.0610,-0.6675,9.5524,2.1065,1.0436,3.7085
347.0396,-2.8615,0.1848,-71.5324,2.6203,0.0000,-0.0000,-329.2787,62.5921,-121.8001,1500,1500,0.9863,-0.1597,-0.6387,9.7314,2.5844,0.9650,3.9689,-0.1376,-0.5884,9.7224,2.6561,0.8222,3.9756
347.0580,-2.8340,0.2120,-71.4588,2.3913,0.0000,-0.0000,-326.1137,62.0703,-119.9590,1500,1500,0.9805,-0.0879,-0.5645,9.6692,2.4852,0.2933,4.0528,0.0012,-0.4424,9.8229,2.2974,1.0894,3.9909
347.0765,-2.8010,0.2388,-71.3828,2.3378,0.0000,-0.0000,-322.3100,61.4373,-117.6099,1500,1500,0.9723,-0.0017,-0.5214,9.5543,2.6149,1.8353,4.2208,0.0994,-0.6220,9.5691,2.0607,1.4634,4.1818
347.0950,-2.7449,0.2829,-71.3063,1.6088,0.0000,-0.0000,-315.8524,60.3424,-113.3112,1500,1500,0.9553,-0.0903,-0.3586,9.7530,1.9737,1.8887,4.2055,-0.0155,-0.4568,9.8636,1.2439,1.2879,4.1970
347.1135,-2.7051,0.3351,-71.2263,0.5935,0.0000,-0.0000,-311.2772,59.5743,-110.0666,1500,1500,0.9412,-0.1501,-0.3370,9.7697,0.8058,1.4765,4.4345,-0.0802,-0.3730,9.9809,0.3813,1.4176,4.3650
347.1318,-2.6838,0.3633,-71.1486,-0.2767,0.0000,-0.0000,-308.8294,59.1757,-108.2754,1500,1500,0.9329,-0.0089,-0.3442,9.7865,0.0195,1.9269,4.4192,-0.1185,-0.2748,9.8492,-0.5729,1.8222,4.2047
347.1504,-2.6763,0.3635,-71.0499,-2.5286,0.0000,-0.0000,-307.9653,59.0522,-107.6417,1500,1500,0.9299,0.1037,-0.2125,9.7889,-2.0110,1.8582,4.4650,-0.1256,-0.1862,9.9618,-3.0461,1.4176,6.3497
347.1691,-2.7051,0.3826,-70.9653,-4.4103,0.0000,-0.0000,-311.2801,59.6554,-110.1066,1500,1500,0.9412,-0.0448,-0.2173,9.9014,-4.2782,0.8200,4.4879,-0.0442,-0.2173,9.8852,-4.5423,1.2268,4.6245
347.1878,-2.7670,0.3834,-70.8810,-5.3721,0.0000,-0.0000,-318.4023,60.9209,-115.1215,1500,1500,0.9624,0.1516,-0.2916,9.8847,-5.0339,3.1253,4.4803,0.0515,-0.2461,9.8277,-5.7103,1.5321,4.7237
347.2066,-2.8532,0.4143,-70.7928,-7.4713,0.0000,-0.0000,-328.3194,62.6730,-121.3709,1500,1500,0.9846,-0.0591,-0.2245,9.6692,-7.0034,1.5910,4.6940,0.0036,-0.2964,9.8780,-7.9393,1.4024,4.8077
347.2253,-2.9890,0.4410,-70.7035,-8.4179,0.0000,-0.0000,-343.9459,65.4188,-129.0026,1500,1500,0.9999,-0.0687,-0.3873,9.6692,-8.4309,1.3162,4.8391,-0.0107,-0.3514,9.8085,-8.4049,1.1047,4.8153
347.2440,-3.1454,0.4656,-70.6132,-8.1507,-0.1633,-2.1549,-355.7453,68.5796,-133.8985,1500,1500,1.0000,-0.0376,-0.5406,9.9349,-8.1484,1.5299,4.9231,-0.0275,-0.5094,9.7702,-8.1530,1.4787,4.8993
347.2628,-3.3141,0.4470,-70.5185,-7.8645,-1.1790,-10.3270,-351.6210,71.9863,-134.4471,1500,1500,1.0000,0.1252,-0.6339,9.7817,-7.8813,1.1711,5.2360,-0.0802,-0.6914,9.7319,-7.8477,0.9673,4.9680
347.2812,-3.4808,0.4403,-70.4227,-7.1774,-2.3445,-13.0967,-362.8222,75.3542,-139.2673,1500,1500,1.0000,0.0749,-0.7321,9.8392,-7.3316,0.9421,5.2437,0.0659,-0.8303,9.7607,-7.0232,1.2268,5.3115
347.2996,-3.6416,0.4389,-70.3298,-6.1164,-3.0264,-8.1914,-395.4562,78.6070,-150.0312,1500,1500,1.0000,0.0582,-0.8279,9.8200,-6.3545,1.0185,5.2284,0.0036,-0.7943,9.7798,-5.8782,1.2726,5.0673
347.3180,-3.7680,0.4521,-70.2370,-5.1011,-3.1723,-1.7655,-428.5125,81.1733,-160.5702,1500,1500,1.0000,-0.0424,-0.7848,9.8895,-5.1026,1.0337,5.1139,-0.0538,-0.7896,9.7894,-5.0996,0.5092,5.0978
347.3365,-3.8999,0.4217,-70.1432,-4.6584,-3.1002,0.8541,-451.2345,83.8501,-168.2707,1500,1500,1.0000,0.1348,-0.8757,9.9373,-4.7210,0.3315,5.1826,-0.0035,-0.8087,9.8469,-4.5958,0.5321,5.0825
347.3549,-4.0490,0.4137,-70.0517,-4.2042,-2.8396,2.9140,-474.3199,86.8716,-176.2453,1500,1500,1.0000,0.0223,-1.0218,9.9014,-4.3851,0.3391,5.0070,-0.0011,-0.7872,9.7631,-4.0232,0.2726,5.0520
347.3734,-4.1366,0.4069,-69.9602,-3.9599,-2.5169,3.3270,-485.5960,88.6659,-180.2998,1500,1500,1.0000,-0.0017,-0.7680,9.8535,-3.9347,0.0872,4.9460,-0.0466,-0.7800,9.8516,-3.9851,0.0589,4.9985
347.3918,-4.2169,0.3931,-69.8696,-3.7271,-2.1551,3.4137,-495.0880,90.3143,-183.7818,1500,1500,1.0000,0.0127,-0.7752,9.9278,-3.7210,0.0185,4.9765,0.0443,-0.8039,9.8301,-3.7332,-0.2923,4.8688
347.4101,-4.2752,0.3711,-69.7833,-3.9981,-1.9676,1.7070,-496.8740,91.5216,-184.8855,1500,1500,1.0000,0.0654,-0.6579,9.8559,-3.7744,-0.0273,4.8773,0.0563,-0.6268,9.8900,-4.2217,0.0207,4.5329
347.4286,-4.3445,0.3312,-69.6962,-4.9179,-2.1777,-2.0707,-493.9709,92.9513,-184.7875,1500,1500,1.0000,0.1420,-0.6411,9.8919,-4.6599,-0.1647,4.7856,0.0707,-0.6387,9.9450,-5.1759,-0.1473,4.6398
347.4470,-4.4087,0.2838,-69.6091,-5.8339,-2.7523,-6.5135,-488.5683,94.2802,-183.9392,1500,1500,1.0000,0.1731,-0.5429,9.8200,-5.5225,-0.2640,4.7780,0.1593,-0.6722,9.8732,-6.1454,-0.2465,4.6321
347.4655,-4.5280,0.2710,-69.5225,-7.0019,-3.7815,-14.2178,-480.1073,96.7111,-182.7856,1500,1500,1.0000,0.0414,-0.7177,9.8416,-6.6904,-0.0350,4.6330,0.1497,-0.5238,9.9642,-7.3133,0.0512,4.7695
347.4840,-4.6420,0.2375,-69.4373,-8.2500,-5.1166,-24.2854,-464.2376,99.0384,-179.5057,1500,1500,1.0000,0.1563,-0.6004,9.8320,-7.9118,0.2780,4.5719,0.1688,-0.6052,9.9690,-8.5881,0.0818,4.6627
347.5024,-4.7961,0.2036,-69.3483,-9.4370,-6.0989,-31.9711,-459.8336,102.1677,-179.8373,1500,1500,1.0000,0.1587,-0.7153,9.9397,-9.1637,0.2322,4.8849,0.0731,-0.6651,9.9618,-9.7103,-0.1473,4.7924
347.5208,-4.9600,0.1636,-69.2583,-10.0515,-6.6918,-32.2077,-478.0125,105.4949,-186.5909,1500,1500,1.0000,0.1803,-0.7369,9.9326,-9.8431,-0.1266,4.8696,0.0970,-0.5932,9.9594,-10.2599,-0.1320,4.8840
347.5392,-5.1562,0.1509,-69.1693,-10.7194,-7.2959,-32.8520,-498.7388,109.4707,-194.3822,1500,1500,1.0000,0.0390,-0.8446,9.7458,-10.6370,-0.2105,4.7017,0.0659,-0.7297,9.9402,-10.8019,-0.4450,4.9375
347.5580,-5.3445,0.1351,-69.0784,-11.2194,-7.8845,-31.3502,-524.7389,113.2908,-203.5723,1500,1500,1.0000,0.0606,-0.7848,9.8272,-11.0187,-0.4166,4.7627,0.0467,-0.7967,10.0336,-11.4202,-0.1549,4.8764
347.5765,-5.5235,0.1192,-68.9872,-11.5820,-8.4391,-29.9050,-549.5033,116.9262,-212.3240,1500,1500,1.0000,0.0773,-0.7488,9.8057,-11.4003,-0.0044,4.8315,-0.0083,-0.8805,9.8708,-11.7637,-0.3457,4.9909
347.5950,-5.7374,0.1153,-68.8934,-11.7118,-8.9300,-26.4616,-584.0336,121.2607,-224.1597,1500,1500,1.0000,-0.0017,-0.9308,9.7985,-11.5683,-0.3556,5.0757,-0.0107,-0.9859,9.8014,-11.8553,-0.6358,4.9604
347.6135,-5.9537,0.1021,-68.7998,-11.3759,-9.2969,-19.8496,-627.9721,125.6464,-238.6554,1500,1500,1.0000,0.0606,-1.0074,9.7602,-11.3240,-0.4624,4.9918,-0.0035,-1.0817,9.7678,-11.4278,-0.1549,5.1054
347.6320,-6.1900,0.1220,-68.7034,-11.1622,-9.5767,-15.1485,-668.7085,130.4343,-252.4555,1500,1500,1.0000,-0.1118,-1.1559,9.7386,-11.1255,-0.5540,5.1521,-0.0203,-1.1607,9.6912,-11.1988,-0.5671,5.2047
347.6505,-6.4083,0.1129,-68.6059,-10.4484,-9.7074,-7.0868,-717.0480,134.8636,-268.2052,1500,1500,1.0000,0.0175,-1.1846,9.8176,-10.4385,-0.5922,5.2284,0.1736,-1.1846,9.7319,-10.4584,-0.5976,5.2505
347.6689,-6.6076,0.0794,-68.5099,-9.8835,-9.7339,-1.4345,-756.2718,138.9166,-281.2144,1500,1500,1.0000,0.1396,-1.1942,9.8919,-9.9118,-0.5617,5.1292,0.0300,-1.1367,9.7056,-9.8553,-0.6511,5.1970
347.6873,-6.7927,0.0797,-68.4163,-9.6316,-9.7185,0.8326,-784.1005,142.6855,-290.8909,1500,1500,1.0000,-0.0136,-1.1702,9.7817,-9.5377,-0.5998,5.0299,-0.0083,-1.1008,9.6003,-9.7255,-0.5595,5.0520
347.7056,-6.9877,0.0827,-68.3266,-9.3377,-9.6614,3.1115,-813.1169,146.6568,-301.0011,1500,1500,1.0000,-0.0304,-1.2684,9.7219,-9.4843,-0.5846,4.9918,0.0204,-1.2876,9.6864,-9.1912,-0.6358,4.6932
347.7241,-7.1672,0.0810,-68.2364,-9.0095,-9.5636,5.3007,-840.0858,150.3188,-310.3834,1500,1500,1.0000,-0.0113,-1.2684,9.8320,-8.9805,-0.5006,4.8467,-0.0083,-1.2301,9.6649,-9.0385,-0.8266,4.8230
347.7425,-7.3561,0.0958,-68.1495,-8.7919,-9.4479,6.2754,-864.6293,154.1691,-319.1807,1500,1500,1.0000,-0.0998,-1.3522,9.7745,-8.7515,-0.7907,4.6330,-0.0538,-1.4647,9.6840,-8.8324,-0.7656,4.6627
347.7609,-7.5299,0.0972,-68.0618,-8.2347,-9.2659,9.8888,-895.0430,157.7206,-329.4723,1500,1500,1.0000,-0.0376,-1.3642,9.7578,-8.3927,-0.7144,4.6253,-0.0419,-1.3714,9.6840,-8.0767,-0.8724,4.7619
347.7793,-7.7093,0.0872,-67.9943,-7.7156,-9.0334,12.6348,-923.6078,161.3865,-339.3035,1500,1500,1.0000,0.0007,-1.4671,9.7434,-7.7820,-0.7907,4.5185,-0.0275,-1.3283,9.7607,-7.6492,-0.8724,2.6016
347.7978,-7.8586,0.0607,-67.9104,-7.4294,-8.7928,13.0437,-941.9712,164.4510,-345.9774,1500,1500,1.0000,0.0893,-1.3689,9.6931,-7.3774,-0.8594,4.5566,0.0300,-1.3905,9.6074,-7.4813,-0.8343,4.3802
347.8163,-8.0010,0.0259,-67.8286,-7.4675,-8.5940,10.7137,-951.6473,167.3779,-350.1502,1500,1500,1.0000,0.1372,-1.3666,9.7721,-7.3927,-0.8670,4.2971,0.0850,-1.3546,9.6577,-7.5423,-0.6892,4.3726
347.8349,-8.1378,0.0043,-67.7320,-7.3263,-8.4038,10.2663,-966.1109,170.1960,-355.6090,1500,1500,1.0000,0.1061,-1.3666,9.6883,-7.2706,-0.5922,6.1368,-0.0826,-1.3809,9.6888,-7.3820,-0.7121,4.1512
347.8533,-8.2787,-0.0072,-67.6568,-7.2538,-8.2313,9.3673,-979.7455,173.0974,-360.8774,1500,1500,1.0000,0.0606,-1.4192,9.6860,-7.1408,-0.4624,4.0376,-0.0706,-1.4121,9.6050,-7.3668,-0.5824,4.0520
347.8717,-8.4288,0.0241,-67.5801,-7.1851,-8.0744,8.5175,-994.5708,176.1824,-366.5710,1500,1500,1.0000,-0.1405,-1.4910,9.6764,-7.1255,-0.4777,4.0986,-0.0395,-1.4575,9.6817,-7.2446,-0.6129,4.1512
347.8902,-8.5544,0.0246,-67.5058,-6.8416,-7.8895,10.0205,-1013.3645,178.7810,-373.1325,1500,1500,1.0000,-0.0041,-1.4408,9.7362,-6.8736,-0.6227,4.0147,0.0252,-1.3690,9.6218,-6.8095,-0.5060,3.9527
347.9086,-8.6690,0.0247,-67.4308,-6.9065,-7.7420,7.9860,-1020.6969,181.1594,-376.3748,1500,1500,1.0000,0.0079,-1.3953,9.6500,-6.8126,-0.2945,3.9918,0.0108,-1.2038,9.7415,-7.0003,-0.6358,4.0749
347.9270,-8.7810,0.0066,-67.3579,-6.7996,-7.6006,7.6799,-1032.7043,183.4863,-380.9003,1500,1500,1.0000,0.0893,-1.4264,9.7697,-6.5835,-0.5922,3.9002,0.0898,-1.4432,9.6769,-7.0156,-0.4068,3.9451
347.9455,-8.8908,0.0030,-67.2882,-7.1240,-7.5291,3.8693,-1034.3767,185.7723,-382.5116,1500,1500,1.0000,0.0414,-1.4049,9.7602,-6.8355,-0.4166,3.7780,-0.0179,-1.4073,9.7128,-7.4126,-0.1702,3.7619
347.9639,-9.0116,0.0044,-67.2193,-6.8263,-7.4237,5.7217,-1053.6227,188.2790,-389.1538,1500,1500,1.0000,0.0055,-1.4887,9.6620,-6.8049,-0.3174,3.6864,0.0276,-1.4480,9.6098,-6.8477,-0.5595,3.7390
347.9823,-9.1117,0.0089,-67.1474,-6.4370,-7.2757,8.0384,-1071.8137,190.3711,-395.2934,1500,1500,1.0000,-0.0136,-1.4551,9.7338,-6.4156,-0.4166,3.8238,-0.0179,-1.4887,9.5787,-6.4584,-0.6282,3.9069
348.0008,-9.2252,0.0180,-67.0686,-5.8416,-7.0606,11.6822,-1095.3738,192.7331,-403.0712,1500,1500,1.0000,-0.0136,-1.5557,9.5351,-5.9576,-0.3250,4.2131,0.0036,-1.5796,9.4973,-5.7255,-0.3457,4.3421
348.0192,-9.3658,0.0360,-67.0065,-5.0744,-6.7627,16.1602,-1124.4594,195.6389,-412.6681,1500,1500,1.0000,-0.0591,-1.7903,9.6500,-5.2248,-0.0655,2.2971,-0.0706,-1.7281,9.5907,-4.9240,-0.3839,4.3497
348.0377,-9.4720,0.0362,-66.9194,-4.1813,-6.3754,20.9345,-1150.4368,197.8577,-421.0512,1500,1500,1.0000,0.0223,-1.7544,9.7913,-4.2553,-0.5006,4.6559,-0.0227,-1.6347,9.6433,-4.1072,-0.3915,4.7314
348.0561,-9.5801,0.0380,-66.8292,-3.4217,-5.9235,24.0766,-1171.9375,200.1164,-428.2007,1500,1500,1.0000,0.0390,-1.8526,9.7841,-3.6523,-0.0884,4.9307,0.1329,-1.7448,9.7152,-3.1912,-0.2694,4.9527
348.0745,-9.6316,0.0258,-66.7320,-2.4141,-4.8506,25.7151,-1182.5801,201.2416,-431.7432,1500,1500,1.0000,0.0893,-1.6922,9.8009,-2.5759,-0.3556,5.3200,-0.0826,-1.5054,9.7535,-2.2523,-0.5976,5.2199
348.0930,-9.6500,-0.0052,-66.6250,-1.9561,-3.3692,19.2267,-1166.0151,201.7067,-427.3376,1500,1500,1.0000,0.0510,-1.5916,9.8775,-1.9958,-0.7602,5.5643,0.0826,-1.5461,9.7128,-1.9164,-3.0785,5.4718
348.1115,-9.6498,-0.0146,-66.5180,-1.7767,-2.0354,11.6534,-1144.1832,201.7996,-421.2711,1500,1500,1.0000,0.0294,-1.5174,9.8583,-1.8431,-1.0350,5.7322,0.0060,-1.5485,9.6242,-1.7103,-1.2694,5.6474
348.1299,-9.6527,-0.0446,-66.4083,-1.7614,-1.0820,5.8177,-1127.7065,201.9535,-416.7345,1500,1500,1.0000,0.1324,-1.5126,9.7171,-1.6370,-1.1495,5.9307,0.1593,-1.4887,9.9019,-1.8858,-1.0556,5.7619
348.1484,-9.6667,-0.0560,-66.3033,-1.9866,-0.5348,2.3791,-1119.4167,202.3304,-414.6019,1500,1500,1.0000,0.1683,-1.5533,9.7530,-1.8965,1.1635,5.9002,0.0755,-1.4144,9.7415,-2.0767,-0.5595,5.7314
348.1668,-9.6619,-0.0901,-66.1904,-2.5095,-0.2977,0.8287,-1114.3994,202.3311,-413.1974,1500,1500,1.0000,0.2114,-1.4120,9.7075,-2.4003,-0.5006,6.1368,0.1186,-1.4001,9.7176,-2.6187,-0.6053,6.1131
348.1852,-9.6678,-0.1349,-66.0786,-2.9637,-0.2093,0.2821,-1113.5067,202.5462,-413.0550,1500,1500,1.0000,0.3000,-1.4264,9.7410,-2.8202,-0.1876,6.0834,0.1090,-1.4097,9.6601,-3.1072,-0.1931,6.1436
348.2040,-9.6635,-0.1781,-65.9613,-3.0591,-0.1579,0.1453,-1112.6172,202.5567,-412.8112,1500,1500,1.0000,0.3072,-1.3498,9.6117,-2.9958,-0.1113,6.3658,0.1138,-1.5198,9.6553,-3.1225,-0.0022,6.3039
348.2243,-9.6891,-0.1908,-65.8369,-3.5935,-0.1836,-0.0803,-1114.9114,203.1650,-413.7577,1500,1500,1.0000,0.1659,-1.4671,9.8200,-3.4003,-0.2411,6.2284,0.1808,-1.3259,9.7607,-3.7866,0.0131,6.1894
348.2431,-9.7099,-0.1746,-65.7179,-3.8721,-0.2480,-0.2554,-1116.8033,203.6783,-414.5441,1500,1500,1.0000,0.0342,-1.4360,9.8464,-3.9423,-0.0502,6.3734,0.0252,-1.4168,9.7487,-3.8019,-0.3534,6.3955
348.2616,-9.7335,-0.1554,-65.5971,-4.1660,-0.3627,-0.5543,-1118.6549,204.2467,-415.3467,1500,1500,1.0000,-0.0065,-1.4025,9.6620,-3.9729,-0.4395,6.5414,-0.0490,-1.3474,9.8062,-4.3591,-0.5824,6.5405
348.2801,-9.7562,-0.1373,-65.4703,-4.7347,-0.6052,-1.4961,-1118.5533,204.7979,-415.5939,1500,1500,1.0000,-0.0280,-1.3618,9.7386,-4.5606,-0.6151,6.7627,-0.0371,-1.4480,9.6817,-4.9087,-1.0404,6.9146
348.2985,-9.8270,-0.1062,-65.3431,-5.1927,-0.9903,-2.8982,-1122.6703,206.3127,-417.5040,1500,1500,1.0000,0.0007,-1.5461,9.6764,-5.0721,1.1559,7.1368,0.0419,-1.4935,9.7319,-5.3133,-0.6663,6.9451
348.3171,-9.9010,-0.0922,-65.2062,-5.1355,-1.3633,-3.0699,-1130.6950,207.8914,-420.5403,1500,1500,1.0000,0.0055,-1.5725,9.6620,-5.2782,-0.6151,7.2589,-0.0993,-1.5437,9.6577,-4.9927,-0.7732,7.4413
348.3356,-9.9739,-0.0714,-65.0664,-4.6355,-1.5341,-1.4275,-1143.8195,209.4493,-424.9941,1500,1500,1.0000,-0.0520,-1.6227,9.6644,-4.7362,-0.8365,7.5185,0.0419,-1.7089,9.4638,-4.5347,-1.0785,7.4795
348.3542,-10.0636,-0.0533,-64.9230,-3.6469,-1.3320,1.4999,-1162.5823,211.3445,-431.1953,1500,1500,1.0000,-0.0280,-1.7999,9.6500,-3.8126,-0.8289,7.6940,-0.2023,-1.7401,9.5428,-3.4813,-0.9411,7.6703
348.3726,-10.1314,-0.0433,-64.7771,-2.6126,-0.8577,2.7210,-1173.9076,212.8021,-435.0952,1500,1500,1.0000,0.0007,-1.8119,9.6740,-2.7744,-0.9434,7.8238,-0.0035,-1.6323,9.5284,-2.4507,-0.9640,7.8917
348.3910,-10.2099,-0.0463,-64.6280,-1.7996,-0.3643,1.7456,-1180.1337,214.4735,-437.6742,1500,1500,1.0000,0.0534,-1.9531,9.7051,-2.0034,-0.9434,7.9918,0.0036,-1.7736,9.5835,-1.5958,-1.2160,8.0902
348.4094,-10.2637,-0.0429,-64.4745,-1.5897,-0.0872,0.4315,-1182.5448,215.6523,-438.9387,1500,1500,1.0000,0.0151,-1.8717,9.7290,-0.9576,-1.0884,8.2513,0.0084,-1.6658,9.6026,-2.2217,-1.3534,8.2123
348.4279,-10.2751,-0.0385,-64.3174,0.4905,0.0000,0.0000,-1182.6200,215.9840,-439.1256,1500,1500,1.0000,0.0055,-1.8478,9.6716,0.2256,-1.2716,8.4421,-0.0203,-1.8215,9.5524,0.7554,-1.3534,8.3650
348.4463,-10.2659,-0.0394,-64.1576,1.7348,0.0000,0.0000,-1181.5608,215.9026,-438.7883,1500,1500,1.0000,0.0007,-1.8645,9.7003,1.4012,-1.6304,8.5719,0.0108,-1.9196,9.5141,2.0684,-1.6816,8.4489
348.4647,-10.2512,-0.0084,-63.9802,3.3951,0.0000,0.0000,-1179.8639,215.7104,-438.2171,1500,1500,1.0000,-0.1190,-1.9866,9.7099,2.8974,-1.5082,8.6864,0.0204,-1.8981,9.4470,3.8928,-1.4068,10.3573
348.4832,-10.2035,-0.0076,-63.8204,5.0325,0.0000,0.0000,-1174.3752,214.8591,-436.2546,1500,1500,1.0000,-0.0017,-1.9699,9.7027,4.8363,-1.3556,8.6940,0.0252,-1.9053,9.4949,5.2287,-1.6892,8.3650
348.5016,-10.1310,0.0049,-63.6634,6.0630,0.0000,0.0000,-1166.0212,213.5094,-433.2406,1500,1500,1.0000,-0.0591,-1.9052,9.5662,5.9126,-1.5693,8.6330,-0.0107,-1.9148,9.5045,6.2134,-1.4755,8.1283
348.5200,-10.0525,-0.0006,-63.5106,7.0363,0.0000,0.0000,-1156.9807,212.0397,-429.9744,1500,1500,1.0000,0.0294,-1.9555,9.5806,6.8287,-1.3556,8.3658,-0.0849,-1.7855,9.5428,7.2439,-1.4984,7.9909
348.5384,-9.9658,0.0094,-63.3666,7.8989,0.0000,0.0000,-1146.9969,210.4052,-426.3617,1500,1500,1.0000,-0.0615,-1.9603,9.4992,7.6607,-1.3937,7.9918,-0.1041,-1.8933,9.5907,8.1371,-1.6969,7.3268
348.5568,-9.8658,0.0059,-63.2287,8.5058,0.2085,2.9318,-1143.9350,208.5054,-424.5545,1500,1500,1.0000,-0.0113,-1.9795,9.7171,8.2256,-1.5235,7.5337,-0.1161,-1.9077,9.6314,8.7859,-1.6892,7.1054
348.5753,-9.7416,-0.0297,-63.0978,9.1813,1.7445,18.7858,-1175.2862,206.1174,-432.1388,1500,1500,1.0000,0.1372,-1.9029,9.6931,8.9890,-1.3785,7.0910,-0.0586,-1.8765,9.5260,9.3737,-1.7350,6.7008
348.5938,-9.6115,-0.0240,-62.9734,9.9218,4.1460,36.6544,-1211.7774,203.6131,-441.1043,1500,1500,1.0000,-0.0974,-1.9268,9.7314,9.5386,-1.7296,6.7322,-0.1376,-1.8358,9.7463,10.3050,-2.2694,6.2199
348.6123,-9.4723,-0.0330,-62.8405,10.4981,5.9484,43.3127,-1214.9184,200.9225,-440.6384,1500,1500,1.0000,-0.0376,-1.9148,9.7578,10.1798,-2.1495,8.1292,-0.1137,-1.8670,9.5476,10.8165,-2.1625,5.7085
348.6308,-9.3462,-0.0687,-62.7332,10.8378,6.6856,39.6812,-1189.9480,198.4952,-432.4330,1500,1500,1.0000,0.0797,-1.9795,9.7482,9.4928,-1.9128,5.6711,-0.0706,-1.9795,9.4949,12.1829,-2.1854,5.4184
348.6492,-9.1963,-0.0897,-62.6325,13.1355,7.6531,52.5331,-1209.6978,195.5882,-436.5095,1500,1500,1.0000,0.0223,-2.0106,9.5710,12.7371,-1.8289,5.3811,-0.0634,-1.8239,9.4231,13.5340,-1.9717,5.0520
348.6676,-9.0277,-0.1027,-62.5398,14.8035,8.7256,58.2162,-1206.6558,192.3068,-434.0171,1500,1500,1.0000,-0.0136,-2.0441,9.5854,14.3248,-1.6991,5.0757,0.0611,-1.9340,9.5787,15.2821,-1.9106,4.5100
348.6860,-8.8334,-0.1224,-62.4538,14.7882,9.6350,49.4644,-1159.0775,188.5085,-418.7959,1500,1500,1.0000,0.0630,-1.9029,9.6620,13.4394,-1.2487,4.8085,-0.0371,-1.8789,9.5356,16.1371,-1.3152,4.2352
348.7044,-8.5735,-0.1257,-62.3713,16.5172,10.6673,56.1342,-1148.3686,183.3968,-413.2416,1500,1500,1.0000,-0.0089,-1.6898,9.5662,16.2409,-1.1647,4.6482,-0.0227,-1.7784,9.5572,16.7935,-1.2236,4.0215
348.7228,-8.2981,-0.1164,-62.2952,18.3607,11.8213,62.6174,-1135.3401,177.9726,-406.8815,1500,1500,1.0000,-0.0831,-1.7568,9.6860,19.2332,-1.1418,4.1063,-0.1113,-1.7736,9.7224,17.4882,-1.4831,3.7924
348.7413,-8.0275,-0.1317,-62.2224,18.1279,12.7673,51.0570,-1070.8938,172.6407,-386.1706,1500,1500,1.0000,0.0031,-1.7568,9.9014,17.8058,-1.4395,3.9460,-0.0514,-1.6754,9.4710,18.4500,-1.7198,3.4947
348.7598,-7.7196,-0.1614,-62.1553,18.7729,13.6682,48.7983,-1028.9433,166.5596,-371.3839,1500,1500,1.0000,0.0654,-1.5581,9.7650,18.6226,-1.6762,3.7322,0.0060,-1.6156,9.6146,18.9233,-1.5442,3.1207
348.7782,-7.3892,-0.1829,-62.0948,18.1432,14.3394,36.4437,-955.3309,160.0258,-347.5056,1500,1500,1.0000,0.0390,-1.3450,9.7697,18.1493,-1.4014,3.4269,0.0396,-1.2038,9.7655,18.1371,-1.5060,2.7695
348.7967,-7.1073,-0.2078,-62.0231,16.2081,14.6197,15.1686,-861.6071,154.4585,-318.4792,1500,1500,1.0000,0.0630,-1.3378,9.6764,17.1493,-1.2640,2.9078,-0.0251,-1.2277,9.8277,15.2668,-1.6740,4.4795
348.8151,-6.8333,-0.2252,-61.9717,16.8035,14.9473,17.7900,-837.6152,149.0464,-309.0554,1500,1500,1.0000,0.0390,-1.3594,9.5734,16.7752,-1.2640,2.8773,0.0204,-1.2349,9.6242,16.8317,-1.1931,2.3955
348.8336,-6.5550,-0.2548,-61.9474,15.4218,15.0185,3.8588,-765.4620,143.5462,-286.1025,1500,1500,1.0000,0.1132,-1.1870,9.6476,15.8210,-0.8212,0.3734,0.0300,-1.0697,9.8971,15.0226,-0.9564,2.0215
348.8520,-6.3116,-0.2783,-61.9111,14.0401,14.8717,-7.9614,-703.4053,138.7415,-266.3242,1500,1500,1.0000,0.0797,-1.1870,9.6812,14.0119,-0.8976,2.0681,0.1066,-1.0314,9.7750,14.0684,-1.2083,1.6321
348.8704,-6.0701,-0.2946,-61.8794,13.5401,14.6720,-10.8645,-667.2441,133.9714,-253.8141,1500,1500,1.0000,0.0630,-1.1152,9.7793,13.6455,-0.8899,1.8238,-0.0083,-1.1654,9.9043,13.4348,-0.9259,1.4260
348.8888,-5.8744,-0.3035,-61.8552,12.4027,14.3316,-18.5129,-622.6945,130.1165,-239.4127,1500,1500,1.0000,0.0318,-1.1774,9.6692,12.4852,-0.7525,1.3276,0.0180,-1.2301,9.7702,12.3203,-0.9106,1.1131
348.9072,-5.7190,-0.3111,-61.8432,11.2768,13.8734,-24.8250,-586.6310,127.0659,-227.7896,1500,1500,1.0000,0.0390,-1.2540,9.7674,11.3477,-0.6151,0.8544,0.0994,-1.1200,9.6817,11.2058,-0.6053,0.2963
348.9257,-5.5637,-0.3065,-61.8382,10.4027,13.3528,-28.2370,-558.9249,124.0145,-218.5062,1500,1500,1.0000,0.0199,-1.1367,9.6381,10.3706,-0.1876,0.5337,0.1593,-0.9763,9.6697,10.4348,-0.0709,-0.0396
348.9442,-5.4015,-0.3020,-61.8377,9.6584,12.7986,-29.9565,-535.3064,120.8248,-210.2982,1500,1500,1.0000,0.0247,-1.0314,9.8009,9.8974,-0.1113,0.1292,-0.0514,-1.0433,9.8085,9.4195,-0.0938,-0.1083
348.9626,-5.2649,-0.2814,-61.8426,9.2844,12.2715,-28.5901,-523.5291,118.1470,-205.6616,1500,1500,1.0000,-0.0496,-1.0840,9.7290,9.4852,0.1253,-0.1991,0.0180,-0.9308,9.6194,9.0836,-0.1778,-0.3755
348.9812,-5.1509,-0.2359,-61.8502,8.4218,11.6940,-31.0319,-503.3727,115.9179,-198.9033,1500,1500,1.0000,-0.1597,-1.0601,9.4202,8.5157,-0.0121,-0.3441,-0.1376,-1.0338,9.8205,8.3279,0.0131,-0.5053
348.9997,-5.0525,-0.2029,-61.8615,9.5745,11.3761,-17.1993,-531.8816,113.9996,-205.9267,1500,1500,1.0000,-0.0950,-1.2301,9.5926,9.1951,0.2780,-0.6189,-0.2358,-0.9859,9.6553,9.9539,0.1352,-0.6198
349.0181,-4.9139,-0.1684,-61.8777,9.0439,11.0263,-18.9577,-510.8663,111.2767,-198.6809,1500,1500,1.0000,-0.0496,-0.9883,9.6907,9.1798,0.8276,-0.6724,-0.1328,-0.9835,9.9354,8.9081,1.0436,-0.9480
349.0365,-4.8071,-0.1146,-61.8817,8.6928,10.6762,-19.0163,-498.4037,109.1884,-194.1472,1500,1500,1.0000,-0.1788,-1.0864,9.7506,8.4012,0.8963,-0.8403,-0.3220,-1.0577,9.7678,8.9844,0.0436,0.5100
349.0550,-4.6786,-0.0813,-61.9025,9.9142,10.5619,-6.2012,-520.5227,106.6652,-199.0789,1500,1500,1.0000,-0.1118,-1.0984,9.9948,9.9279,0.2398,-1.1991,-0.0682,-1.1678,9.9618,9.9004,0.5856,-1.0167
349.0736,-4.5869,-0.0498,-61.9285,8.0134,10.1797,-20.5815,-468.5562,104.8774,-183.6344,1500,1500,1.0000,-0.0950,-1.0266,9.3843,8.2943,0.5452,-1.2983,-0.1448,-0.9045,9.7056,7.7325,0.4024,-1.4518
349.0920,-4.4473,-0.0279,-61.9595,9.4600,10.0717,-5.8650,-494.8757,102.1302,-189.6303,1500,1500,1.0000,-0.0352,-0.9739,10.1073,9.0271,0.6826,-1.5884,-0.0514,-1.0002,9.6146,9.8928,0.9749,-1.6808
349.1104,-4.2603,0.0016,-61.9952,9.2882,9.9542,-6.3615,-471.9304,98.4337,-181.3573,1500,1500,1.0000,-0.0304,-0.6962,9.8607,9.5768,1.4612,-1.7563,-0.1424,-0.7034,9.9881,8.9997,1.1276,-1.9404
349.1289,-4.1257,0.0153,-62.0323,7.9829,9.6585,-16.0079,-428.6562,95.7825,-167.9150,1500,1500,1.0000,-0.0687,-0.8063,10.0140,7.7065,0.1711,-1.9548,-0.1999,-0.7656,9.8038,8.2592,-0.0251,-2.0778
349.1473,-3.9469,0.0633,-62.0737,10.0248,9.7134,2.9819,-462.7729,92.2464,-175.6996,1500,1500,1.0000,-0.1381,-0.7369,9.8703,8.7523,1.0108,-2.0311,-0.0419,-0.6028,9.8397,11.2974,1.4329,-2.3373
349.1657,-3.7595,0.0932,-62.1154,8.0935,9.4705,-13.2224,-394.5296,88.5345,-154.7355,1500,1500,1.0000,-0.0927,-0.5022,9.8847,8.4394,1.2093,-2.0464,-0.1209,-0.4065,10.0001,7.7477,0.4100,-2.4289
349.1841,-3.5857,0.1162,-62.1577,7.3684,9.1551,-17.1613,-363.1925,85.0957,-144.2418,1500,1500,1.0000,-0.0711,-0.4615,9.7721,7.0271,0.5757,-2.2831,-0.1185,-0.4616,9.7678,7.7096,0.9138,-2.2686
349.2032,-3.3954,0.1461,-62.2029,8.2844,9.0245,-6.8174,-371.0783,81.3227,-144.5633,1500,1500,1.0000,-0.0472,-0.4831,10.0355,8.3096,1.3849,-2.2525,-0.0849,-0.4855,9.9809,8.2592,1.3947,-2.3297
349.2222,-3.1995,0.1516,-62.2498,8.3416,8.9221,-5.4145,-352.5799,77.4375,-137.4411,1500,1500,1.0000,0.0055,-0.4089,9.7362,9.4775,1.0337,-2.3136,-0.0873,-0.4376,10.0025,7.2058,0.4711,-2.6045
349.2416,-3.0472,0.1581,-62.2966,7.7081,8.7400,-9.3830,-323.6274,74.4225,-127.8269,1500,1500,1.0000,0.0175,-0.5382,9.8703,7.3477,0.6521,-2.3365,0.0707,-0.4831,9.6721,8.0684,1.3566,-2.3984
349.2612,-2.8800,0.1480,-62.3424,8.3836,8.6865,-2.7181,-323.5778,71.1066,-126.1551,1500,1500,1.0000,0.1109,-0.5166,9.9230,8.2943,1.6139,-2.2144,-0.0802,-0.5310,10.0575,8.4729,0.6543,-2.3373
349.2809,-2.7170,0.1764,-62.3890,8.0783,8.5953,-4.6453,-299.2651,67.8729,-117.7307,1500,1500,1.0000,-0.0831,-0.4639,9.6093,7.9203,0.5299,-2.2678,-0.1233,-0.4328,9.7152,8.2363,1.2192,-2.4213
349.3001,-2.5457,0.1816,-62.4347,9.3226,8.7044,5.6741,-309.2773,64.4732,-118.8342,1500,1500,1.0000,0.1013,-0.4855,9.5567,9.1493,1.8429,-2.2449,-0.0275,-0.5238,9.3058,9.4958,1.9902,-2.3526
349.3189,-2.3877,0.1482,-62.4759,9.1508,8.7713,3.5616,-285.0085,61.3365,-110.4706,1500,1500,1.0000,0.1444,-0.5310,10.3132,9.4394,0.9727,-2.0922,-0.0155,-0.2844,10.3616,8.8623,-0.5442,-2.2839
349.3381,-2.2315,0.1359,-62.5158,8.0859,8.6685,-5.3483,-241.3716,58.2344,-96.7013,1500,1500,1.0000,-0.0687,-0.4232,10.1672,8.3630,-0.8060,-2.0159,0.1928,-0.2940,10.0791,7.8088,-1.1549,-2.2305
349.3579,-2.0300,0.1506,-62.5554,8.4676,8.6384,-1.5285,-229.1949,54.2264,-91.2878,1500,1500,1.0000,0.0845,-0.2341,10.0523,8.1722,2.3009,-1.9090,0.0850,-0.3778,10.1892,8.7630,1.7840,-1.9862
349.3775,-1.8363,0.1463,-62.5901,7.7653,8.5074,-6.6782,-192.0666,50.3694,-78.9633,1500,1500,1.0000,0.0318,-0.1647,9.5950,8.3019,0.6750,-1.7258,-0.1687,-0.1096,10.3784,7.2287,0.2650,-1.8030
349.3968,-1.6396,0.1407,-62.6214,6.6661,8.2312,-14.2684,-147.5700,46.4514,-64.5453,1500,1500,1.0000,0.0773,-0.0138,10.0331,6.5004,0.9269,-1.5884,0.1210,-0.0426,9.9187,6.8317,0.9673,-1.6198
349.4155,-1.4894,0.1269,-62.6491,5.5706,7.8321,-21.3373,-109.9367,43.4638,-52.5142,1500,1500,1.0000,0.0773,-0.0713,9.5591,6.1187,0.5070,-1.4281,0.1569,0.0149,9.9354,5.0226,0.5474,-1.5282
349.4345,-1.3484,0.1294,-62.6725,2.9752,7.1036,-38.3405,-44.7391,40.6567,-32.8553,1500,1500,1.0000,0.1180,0.1226,9.6357,3.0882,1.0643,-1.2449,0.1736,0.1561,9.9235,2.8623,2.7153,-1.1465
349.4541,-1.2388,0.1106,-62.6923,2.1661,6.3630,-37.9240,-33.3226,38.4763,-28.5685,1500,1500,1.0000,0.0558,0.0628,10.0762,2.5004,0.2017,-0.9548,0.0396,0.1418,10.1557,1.8317,-0.3457,-1.1083
349.4736,-1.1738,0.1272,-62.7056,0.3684,5.0025,-42.1617,-13.6410,37.1885,-16.6278,1500,1500,0.7419,-0.1405,0.0365,9.7745,0.6684,-0.4930,-0.7411,-0.0754,0.1921,9.8301,0.0684,-0.6053,-0.6579
349.4928,-1.1191,0.1042,-62.7166,0.1852,2.7360,-24.1125,-59.3325,36.1064,-0.3543,1500,1500,0.0102,0.0462,0.0293,9.8799,0.2180,-0.3937,-0.6037,0.0563,-0.1000,9.7678,0.1523,-0.3915,-0.5587
349.5115,-1.1197,0.0891,-62.7250,-0.8148,0.7502,-8.5934,-104.0935,36.1291,-0.4870,1500,1500,0.0103,0.0342,-0.1240,9.5782,-0.5454,-0.1647,-0.5350,0.1521,-0.0809,9.9666,-1.0843,-0.1396,-0.3679
349.5305,-1.1569,0.0634,-62.7253,-1.2538,0.0070,-0.0920,-132.8604,36.8851,-0.9738,1500,1500,0.0175,0.0438,-0.2556,9.8631,-1.2553,-0.6380,-0.0617,0.0156,-0.1503,9.7583,-1.2523,-0.7121,0.0138
349.5500,-1.1838,0.0349,-62.7230,-1.5744,0.0000,-0.0000,-136.2160,37.4340,-1.3519,1500,1500,0.0238,0.0749,-0.1814,9.8200,-1.3774,-0.6304,0.0299,0.0491,-0.2126,9.6242,-1.7713,-0.2770,0.1894
349.5696,-1.2319,0.0046,-62.6958,-1.5286,0.0000,-0.0000,-141.7527,38.4087,-2.1916,1500,1500,0.0372,0.1324,-0.2772,9.7075,-1.8278,0.1482,2.2666,0.0994,-0.3083,9.6218,-1.2294,-0.0709,0.3879
349.5888,-1.2677,0.0049,-62.6882,-1.5133,0.0000,-0.0000,-145.8770,39.1382,-2.9580,1500,1500,0.0490,-0.0136,-0.2365,9.7123,-1.3622,-0.1342,0.4574,0.0898,-0.3873,9.8421,-1.6645,-0.1015,0.3268
349.6076,-1.3121,0.0116,-62.6731,-2.6087,0.0000,-0.0000,-150.9847,40.0391,-4.0780,1500,1500,0.0655,-0.0400,-0.2006,9.8703,-2.4080,-0.0426,0.8009,0.0108,-0.1192,9.7702,-2.8095,-0.1778,0.8001
349.6266,-1.3478,0.0003,-62.6556,-3.6622,0.0000,-0.0000,-155.0924,40.7665,-5.1183,1500,1500,0.0802,0.0366,-0.0737,9.7602,-3.3927,-0.1189,0.9307,-0.0131,-0.0521,9.8397,-3.9316,-0.2312,0.9069
349.6462,-1.4154,0.0152,-62.6352,-4.6545,0.0000,-0.0000,-162.8735,42.1331,-7.4349,1500,1500,0.1115,-0.0974,-0.1311,9.8128,-4.4614,-0.3021,0.9612,-0.0299,-0.0091,9.8038,-4.8477,-0.4831,1.1054
349.6658,-1.4970,0.0249,-62.6112,-5.4179,0.0000,-0.0000,-172.2633,43.7800,-10.8402,1500,1500,0.1546,-0.0783,-0.1359,9.7841,-5.3087,-0.4472,1.1444,-0.0371,-0.1240,9.8421,-5.5271,-0.3763,1.2963
349.6850,-1.5915,0.0284,-62.5842,-6.2003,0.0000,-0.0000,-183.1360,45.6857,-15.6159,1500,1500,0.2107,-0.0567,-0.1455,9.7458,-5.8584,-0.3479,1.3505,0.0132,-0.1814,9.6697,-6.5423,-0.5900,1.4337
349.7038,-1.7036,0.0055,-62.5552,-6.9408,0.0000,-0.0000,-196.0375,47.9451,-22.4159,1500,1500,0.2842,0.0534,-0.1886,9.6740,-6.6065,-0.5769,1.4040,-0.0395,-0.2102,9.7200,-7.2752,-0.6129,1.6627
349.7228,-1.8243,-0.0298,-62.5242,-7.4637,-0.2743,-2.8683,-201.6645,50.3771,-30.1797,1500,1500,0.3696,0.1348,-0.1958,9.6357,-7.1561,-0.4930,1.6253,0.0826,-0.1910,9.7415,-7.7713,-0.1091,1.6092
349.7423,-1.9683,-0.0483,-62.4877,-8.1545,-1.5028,-12.6896,-189.9417,53.2754,-38.0113,1500,1500,0.4762,0.0678,-0.2437,9.7530,-7.8736,-0.4090,1.7780,0.0994,-0.2437,9.6074,-8.4355,-0.0862,1.9375
349.7620,-2.1179,-0.0526,-62.4473,-8.6469,-3.3348,-23.1135,-177.1382,56.2890,-45.7133,1500,1500,0.5880,0.0271,-0.2437,9.6596,-8.3622,-0.0350,2.0452,0.0372,-0.3035,9.6003,-8.9316,-0.1091,2.0444
349.7814,-2.2951,-0.0515,-62.4052,-9.1240,-5.1243,-30.5580,-176.0912,59.8564,-62.9223,1500,1500,0.7941,0.0031,-0.3634,9.7267,-8.8965,-0.0502,2.1139,0.0300,-0.3107,9.6960,-9.3515,-0.1320,2.2276
349.8002,-2.4514,-0.0479,-62.3642,-9.5324,-6.1159,-32.1108,-189.6044,63.0068,-84.5926,1500,1500,1.0000,-0.0089,-0.2892,9.7506,-9.2629,-0.0960,2.0986,0.0156,-0.2892,9.6553,-9.8019,-0.1091,2.2657
349.8192,-2.6107,-0.0346,-62.3139,-9.7652,-6.6633,-28.8433,-217.3426,66.2183,-93.9651,1500,1500,1.0000,-0.0591,-0.2939,9.6979,-9.7057,-0.1953,2.5261,-0.0442,-0.5382,9.7535,-9.8248,-0.2236,2.7772
349.8387,-2.7792,-0.0288,-62.2622,-9.0477,-7.0210,-18.3059,-267.0844,69.6168,-109.5920,1500,1500,1.0000,-0.0113,-0.4113,9.6907,-8.1179,-0.0502,2.5566,-0.0299,-0.4352,9.7200,-9.9774,-0.0251,2.7390
349.8584,-3.0028,-0.0262,-62.2081,-9.5515,-7.4005,-19.2756,-290.0181,74.1181,-118.2641,1500,1500,1.0000,-0.0089,-0.6243,9.7003,-9.6217,-0.2334,2.7704,-0.0323,-0.5406,9.4758,-9.4813,-0.1091,2.6856
349.8780,-3.1974,-0.0110,-62.1526,-8.6660,-7.5904,-9.6722,-340.0696,78.0420,-134.2405,1500,1500,1.0000,-0.0663,-0.6100,9.6572,-8.7591,-0.1876,2.8162,-0.0802,-0.6603,9.4781,-8.5729,-0.2618,2.8077
349.8970,-3.3506,0.0089,-62.0972,-7.5897,-7.5903,0.0056,-385.5734,81.1399,-148.5305,1500,1500,1.0000,-0.0663,-0.5789,9.7243,-7.8278,0.0643,2.8773,-0.0873,-0.8398,9.4614,-7.3515,0.0894,2.9985
349.9158,-3.5136,0.0443,-62.0454,-6.5668,-7.4367,8.1328,-427.7355,84.4347,-161.9833,1500,1500,1.0000,-0.1286,-0.7369,9.6453,-6.7286,0.1101,2.8544,-0.0155,-0.8063,9.6649,-6.4049,0.3642,2.6474
349.9353,-3.6539,0.0551,-61.9905,-4.6049,-7.0120,21.8432,-483.3731,87.2783,-178.9836,1500,1500,1.0000,-0.0113,-0.8279,9.8823,-5.4461,0.0032,2.8925,-0.0371,-0.7680,9.6338,-3.7637,0.7230,2.7848
349.9549,-3.7350,0.1031,-61.9380,-4.1851,-6.5879,21.6663,-492.1903,88.9365,-182.2816,1500,1500,1.0000,-0.2650,-0.6196,9.7290,-3.8126,-1.3403,2.6940,0.2574,-0.6579,9.7511,-4.5576,0.2573,2.6016
349.9742,-3.8245,0.1000,-61.8904,-3.1660,-6.0746,26.4750,-516.3416,90.7652,-189.9582,1500,1500,1.0000,0.2497,-0.7465,9.6141,-3.9652,2.7131,2.6177,0.1736,-0.7393,9.4135,-2.3668,2.9596,2.6779
349.9931,-3.9181,0.1371,-61.8400,-4.7385,-5.8441,10.5771,-481.3280,92.6766,-181.1101,1500,1500,1.0000,-0.1525,-0.6627,9.6093,-4.6675,0.9498,2.7780,-0.0323,-0.6651,10.0695,-4.8095,-0.6282,2.5940
350.0119,-4.0108,0.1203,-61.7882,-4.0744,-5.3374,13.6431,-500.8320,94.5717,-187.5188,1500,1500,1.0000,0.0773,-0.7177,9.4130,-4.0110,-0.7220,2.7856,0.1377,-0.6124,9.6625,-4.1377,1.1123,2.7390
350.0313,-4.0793,0.1323,-61.7348,-4.2843,-4.8548,9.1607,-495.7959,95.9808,-186.8132,1500,1500,1.0000,0.0462,-0.6363,9.9757,-4.0721,1.7818,2.8544,-0.0251,-0.5382,9.9450,-4.4965,0.5092,2.8230
350.0510,-4.1393,0.1350,-61.6755,-5.6507,-4.9496,-1.6996,-471.4301,97.2234,-180.6121,1500,1500,1.0000,-0.0879,-0.4879,9.9086,-5.4232,-0.8136,2.9154,-0.0203,-0.2604,9.8660,-5.8782,-0.8114,3.0215
350.0704,-4.1827,0.1179,-61.6129,-5.9446,-5.1369,-3.6038,-470.9361,98.1325,-180.9283,1500,1500,1.0000,0.0845,-0.3945,9.8128,-5.7057,-0.1189,3.2437,-0.0802,-0.2987,9.7942,-6.1835,0.3413,3.2047
350.0893,-4.2444,0.0746,-61.5458,-8.0820,-5.8846,-20.2922,-429.9808,99.4100,-170.0996,1500,1500,1.0000,0.1468,-0.3107,9.8799,-7.3469,-0.4548,3.4116,-0.0179,-0.2700,10.0575,-8.8171,-0.8648,3.6016
350.1082,-4.3552,0.0605,-61.4787,-10.5897,-6.6058,-37.2924,-393.7712,101.6695,-161.0907,1500,1500,1.0000,0.0510,-0.3251,9.7650,-10.1255,-0.5846,3.4498,0.1114,-0.2748,10.0264,-11.0538,0.1123,3.6321
350.1277,-4.4973,0.0535,-61.4055,-11.4103,-7.3265,-36.9146,-411.2058,104.5553,-167.4153,1500,1500,1.0000,0.0438,-0.3945,9.8128,-10.9576,0.0337,3.6101,-0.0347,-0.3730,10.0025,-11.8629,-0.1167,3.9069
350.1473,-4.6746,0.0604,-61.3306,-12.0477,-8.0346,-36.1697,-433.7591,108.1487,-175.5269,1500,1500,1.0000,-0.0663,-0.5094,9.7314,-12.0645,-0.1495,3.6635,0.0180,-0.5382,9.6194,-12.0309,-1.1244,3.9069
350.1667,-4.8675,0.0540,-61.2528,-11.9790,-8.6263,-30.3614,-472.6807,112.0542,-188.3777,1500,1500,1.0000,0.1252,-0.6220,9.7793,-11.7668,0.8582,3.9994,0.0707,-0.6148,9.8349,-12.1912,0.9596,4.1436
350.1857,-5.0729,0.0555,-61.1756,-11.2309,-9.0170,-20.6090,-524.4082,116.2133,-204.9409,1500,1500,1.0000,0.0558,-0.7991,9.8152,-11.5454,0.5070,4.0605,0.1353,-0.8327,9.7319,-10.9164,0.4863,4.1818
350.2044,-5.2575,0.0514,-61.0969,-9.6164,-9.1069,-4.8010,-591.1899,119.9594,-225.5129,1500,1500,1.0000,0.0606,-0.8901,9.8655,-9.8126,0.3773,4.1979,0.0970,-1.1702,9.7750,-9.4202,0.0360,4.2734
350.2238,-5.4758,0.0229,-61.0129,-8.3683,-8.9961,5.7208,-646.6078,124.3786,-243.2395,1500,1500,1.0000,0.1492,-1.1726,9.9996,-8.6141,-0.1266,4.3887,0.1497,-1.2205,9.6577,-8.1225,-0.0327,4.2734
350.2434,-5.7040,-0.0177,-60.9437,-5.8606,-8.5258,23.9831,-725.4725,129.0006,-267.6326,1500,1500,1.0000,0.2042,-1.4551,9.8895,-6.3698,0.0719,4.3811,0.3340,-1.2325,9.6050,-5.3515,-0.0785,2.5787
350.2629,-5.8416,-0.0596,-60.8547,-3.4026,-7.7573,39.3592,-785.5877,131.8101,-285.8696,1500,1500,1.0000,0.2018,-1.3163,9.9876,-3.7973,-0.2563,4.5490,0.2000,-1.3235,9.8421,-3.0080,-0.4526,4.5253
350.2820,-5.9307,-0.0982,-60.7643,-2.0553,-6.9020,44.8598,-811.6865,133.6518,-294.0981,1500,1500,1.0000,0.1539,-1.2421,9.9110,-2.3927,-0.7831,4.6559,0.1257,-1.1798,9.8445,-1.7179,-0.9564,4.6856
350.3008,-5.9728,-0.1419,-60.6747,-0.9713,-6.0124,47.3035,-823.5759,134.5545,-297.8785,1500,1500,1.0000,0.2186,-1.1463,9.9685,-1.0721,-0.5540,4.7398,0.1281,-1.1056,9.7918,-0.8706,-0.5289,4.7161
350.3204,-5.9609,-0.1655,-60.5785,-0.0897,-4.0685,35.9475,-789.4975,134.3755,-288.2471,1500,1500,1.0000,0.1109,-0.9739,9.9110,-0.1942,-0.6227,4.9002,0.1257,-0.9835,9.7798,0.0149,-0.8114,4.8001
350.3400,-5.9657,-0.1965,-60.4762,-0.1049,-1.9046,16.7352,-734.7153,134.5306,-272.9856,1500,1500,1.0000,0.1085,-1.0314,9.7410,0.0119,-1.2258,5.1521,0.1521,-0.8638,9.6721,-0.2217,-1.1167,5.0902
350.3592,-5.9222,-0.2170,-60.3795,-0.0057,-0.5344,4.9213,-695.6857,133.7201,-261.6520,1500,1500,1.0000,0.0678,-0.8446,9.9996,-0.0645,-1.1724,4.9841,0.1497,-0.7465,10.0456,0.0531,-1.2083,4.9375
350.3780,-5.8977,-0.2256,-60.2823,-0.8339,-0.0827,0.5784,-680.3642,133.2901,-257.1470,1500,1500,1.0000,0.0318,-0.8326,9.7793,-0.4156,-0.9968,5.0452,0.1593,-0.7608,9.9019,-1.2523,-1.0480,5.1436
350.3973,-5.8754,-0.2598,-60.1825,-2.0820,-0.0109,0.0327,-676.2188,132.9016,-255.7920,1500,1500,1.0000,0.1228,-0.7369,9.8512,-1.7820,-1.2869,5.0452,0.1473,-0.7201,10.0480,-2.3820,-1.3610,5.1131
350.4169,-5.8917,-0.2883,-60.0765,-2.8339,-0.0040,0.0027,-678.0134,133.2873,-256.4874,1500,1500,1.0000,0.0366,-0.8374,9.8344,-2.6599,-1.2105,5.3124,0.0419,-0.8518,9.8469,-3.0080,-3.1244,5.1207
350.4364,-5.9207,-0.2787,-59.9746,-3.7423,-0.0277,-0.0457,-681.2138,133.9269,-257.7033,1500,1500,1.0000,0.0294,-0.8135,9.7578,-3.4919,-1.2029,5.1673,-0.0275,-0.7728,9.8445,-3.9927,0.7688,5.2886
350.4556,-5.9670,-0.2777,-59.8743,-4.2881,-0.1145,-0.3013,-685.8032,134.9120,-259.4809,1500,1500,1.0000,-0.0017,-0.8590,9.8488,-4.1255,-1.0579,5.1597,0.0396,-0.7752,9.8421,-4.4507,-1.0480,5.1512
350.4744,-6.0240,-0.2456,-59.7727,-4.8492,-0.3269,-1.1134,-690.0199,136.1114,-261.2613,1500,1500,1.0000,-0.1501,-0.8710,9.8392,-4.7439,-1.0426,5.2131,-0.0993,-0.8303,10.0240,-4.9545,-1.2465,5.4795
350.4935,-6.1167,-0.2304,-59.6675,-5.5591,-0.7709,-3.1217,-694.9103,138.0274,-263.5886,1500,1500,1.0000,-0.0759,-0.9787,9.9565,-5.2095,-1.0502,5.3124,0.0324,-1.3905,9.8229,-5.9087,-1.2083,5.5024
350.5133,-6.2052,-0.1354,-59.5612,-3.9866,-0.8048,-0.1979,-713.5189,139.8598,-269.7152,1500,1500,1.0000,-0.4063,-1.1104,9.9876,-4.2095,-0.5235,5.2131,-0.0610,-1.0026,9.4662,-3.7637,-1.1167,5.4184
350.5329,-6.3062,-0.1332,-59.4528,-4.3950,-0.9508,-0.9500,-722.9790,141.9430,-273.4057,1500,1500,1.0000,-0.0950,-1.1319,9.7793,-4.3164,-1.7602,5.4574,-0.1496,-0.9787,9.7631,-4.4736,-2.0175,5.2505
350.5520,-6.4381,-0.1518,-59.3457,-3.9866,-0.9596,-0.0565,-740.7334,144.6453,-279.7280,1500,1500,1.0000,-0.0520,-1.3306,9.7985,-4.1408,-1.8136,5.2284,0.1593,-1.3690,9.5835,-3.8324,-3.1244,5.5024
350.5708,-6.5761,-0.1595,-59.2392,-2.6889,-0.6183,1.6718,-761.5956,147.4712,-286.9824,1500,1500,1.0000,0.0486,-1.4910,9.6692,-2.7744,-0.8289,5.6864,-0.0514,-1.4815,9.6769,-2.6034,-0.7961,5.5329
350.5899,-6.6953,-0.1326,-59.1336,-2.2423,-0.3042,1.0276,-773.4588,149.9219,-291.5294,1500,1500,1.0000,-0.0998,-1.4647,9.7386,-2.1103,-0.6915,5.5490,-0.2094,-1.5318,9.6194,-2.3744,-0.8037,5.3192
350.6096,-6.8223,-0.0843,-59.0260,-2.1774,-0.1166,0.3639,-786.1577,152.5288,-296.3885,1500,1500,1.0000,-0.2219,-1.4934,9.6429,-2.3851,-0.9815,5.4345,-0.1280,-1.6108,9.5883,-1.9698,-1.1015,5.3115
350.6292,-6.9486,-0.0859,-58.9241,-1.2614,-0.0006,0.0034,-799.6590,155.1246,-301.4668,1500,1500,1.0000,0.0294,-1.5964,9.6548,-1.4156,-0.5922,5.2437,-0.2023,-1.6227,9.6553,-1.1072,-0.5671,5.0138
350.6484,-7.0351,-0.0273,-58.8267,-1.2347,0.0000,0.0000,-809.6042,156.9247,-305.1515,1500,1500,1.0000,-0.2531,-1.4791,9.7697,-1.2095,-0.5922,5.0986,-0.3004,-1.2373,9.7702,-1.2599,-0.7961,4.9146
350.6672,-7.1198,-0.0322,-58.7404,-0.7729,0.0000,0.0000,-819.3607,158.6911,-308.7665,1500,1500,1.0000,0.0055,-1.5102,9.6309,-0.8202,-1.0426,4.7017,-0.1663,-1.4097,9.6601,-0.7255,-0.6282,4.2886
350.6864,-7.1858,-0.0286,-58.6548,-0.9675,0.0000,0.0000,-826.9565,160.0827,-311.5892,1500,1500,1.0000,0.0007,-1.4168,9.6405,-0.8813,-0.3632,4.4192,-0.2118,-1.4025,9.6170,-1.0538,-0.6129,4.4642
350.7062,-7.2920,-0.0117,-58.5785,-1.3988,0.0000,0.0000,-839.1854,162.2804,-316.1121,1500,1500,1.0000,-0.0759,-1.5557,9.6213,-1.2477,-0.5922,3.9383,-0.2214,-1.5126,9.6625,-1.5500,-0.6511,3.6398
350.7258,-7.3660,-0.0080,-58.5102,-1.4866,0.0000,0.0000,-847.6953,163.8326,-319.2710,1500,1500,1.0000,0.0031,-1.4264,9.6213,-1.3087,-0.3250,3.6101,-0.0466,-1.4767,9.6194,-1.6645,-0.1625,3.3039
350.7442,-7.4438,0.0091,-58.4548,-1.9942,0.0000,0.0000,-856.6527,165.4634,-322.5944,1500,1500,1.0000,-0.0328,-1.4480,9.6907,-1.8660,0.0261,3.1979,-0.1663,-1.3881,9.6888,-2.1225,0.1963,2.8535
350.7627,-7.5344,0.0570,-58.4082,-2.3645,0.0000,-0.0000,-867.0804,167.3505,-326.4577,1500,1500,1.0000,-0.1501,-1.4815,9.6596,-2.2629,0.4002,2.7627,-0.2190,-1.4815,9.7200,-2.4660,0.6161,2.4260
350.7811,-7.5936,0.1068,-58.3670,-2.1622,0.0000,-0.0000,-873.8931,168.6101,-328.9951,1500,1500,1.0000,-0.1812,-1.3737,9.7219,-2.2553,0.4994,2.4192,-0.2669,-1.4743,9.6457,-2.0690,0.2421,2.1589
350.7994,-7.6576,0.1450,-58.3255,-2.3950,0.0000,-0.0000,-881.2638,169.9673,-331.7375,1500,1500,1.0000,-0.1693,-1.3881,9.6764,-2.3393,-0.0350,2.2284,-0.2071,-1.2516,9.7942,-2.4507,0.0360,2.3573
350.8179,-7.6765,0.1523,-58.2850,-2.5706,0.0000,-0.0000,-883.4399,170.4221,-332.5742,1500,1500,1.0000,-0.0280,-1.1870,9.7961,-2.4996,0.1101,2.3734,-0.1137,-1.0362,9.7463,-2.6416,-0.0327,2.0291
350.8363,-7.7010,0.2073,-58.2276,-2.6126,0.0000,-0.0000,-886.2621,170.9895,-333.6481,1500,1500,1.0000,-0.2172,-1.2157,9.8535,-2.8507,0.2017,2.2208,-0.2789,-1.1152,9.4853,-2.3744,0.5245,4.4031
350.8546,-7.7367,0.2420,-58.2006,-2.6584,0.0000,-0.0000,-890.3668,171.7800,-335.1927,1500,1500,1.0000,-0.1477,-1.2564,9.7075,-2.5530,0.4002,2.2589,-0.1161,-1.0529,9.7104,-2.7637,0.3566,0.6169
350.8731,-7.8104,0.2607,-58.1599,-2.5706,0.0000,-0.0000,-898.8511,173.3322,-338.3444,1500,1500,1.0000,-0.0496,-1.4408,9.7003,-2.7515,0.9727,2.3124,-0.1663,-1.3761,9.6170,-2.3897,0.0894,2.3039
350.8915,-7.8514,0.2863,-58.1176,-2.4675,0.0000,-0.0000,-903.5693,174.2304,-340.1146,1500,1500,1.0000,-0.0974,-1.3115,9.7027,-2.3164,0.2322,2.3734,-0.2286,-1.3450,9.7128,-2.6187,0.6543,2.3726
