timestamp,roll_deg,pitch_deg,yaw_deg,omega_raw,omega_filtered,alpha,tau_ff,tau_pid,tau_total,pwm_left,pwm_right,deadzone_factor,accel1_x,accel1_y,accel1_z,gyro1_x,gyro1_y,gyro1_z,accel2_x,accel2_y,accel2_z,gyro2_x,gyro2_y,gyro2_z
902.7015,1.1168,1.5704,51.7354,-1.6655,0.0000,-0.0000,128.5099,-6.8562,39.4108,1521,1478,1.0000,-0.2548,0.1895,10.0805,-1.3740,1.1205,-0.5609,-0.3486,0.2194,9.6356,-1.9569,1.4818,-0.1713
902.7214,1.1038,1.6083,51.7350,-1.1006,0.0000,-0.0000,127.0082,-6.7928,38.9587,1521,1478,1.0000,-0.3266,0.2302,9.8076,-0.8091,1.0670,-0.0723,-0.2935,0.2481,9.6308,-1.3921,1.3978,-0.0415
902.7400,1.0960,1.6428,51.7334,-0.7838,0.0000,-0.0000,126.1214,-6.7599,38.6939,1521,1478,1.0000,-0.3098,0.2206,9.8172,-0.5648,1.2502,-0.0494,-0.3103,0.2888,9.6715,-1.0027,1.6268,-0.1942
902.7595,1.0686,1.6690,51.7319,-1.6044,0.0000,-0.0000,122.9681,-6.6143,37.7382,1520,1479,1.0000,-0.2643,0.2087,9.6974,-0.4122,1.4334,-0.2708,-0.1067,0.1404,9.7146,-2.7966,1.6421,0.0348
902.7782,1.0802,1.7057,51.7284,-0.2952,0.0000,0.0000,124.2990,-6.6911,38.1492,1520,1479,1.0000,-0.2595,0.2589,9.7214,-0.0305,3.0976,-0.4082,-0.2288,0.3510,9.6117,-0.5600,1.4970,-0.1255
902.7967,1.0943,1.7078,51.7237,-0.3983,0.0000,0.0000,125.9210,-6.7824,38.6491,1521,1478,1.0000,-0.2093,0.2805,9.6041,-0.2137,0.7846,-0.3929,-0.3510,0.2601,9.6356,-0.5829,1.1764,-0.2323
902.8153,1.1206,1.7140,51.7167,-0.2952,0.0000,0.0000,128.9486,-6.9435,39.5774,1521,1478,1.0000,-0.2188,0.3284,9.6352,-0.1526,0.8991,-0.6677,-0.3510,0.4157,9.6428,-0.4379,1.2909,-0.2629
902.8337,1.1880,1.7775,51.7106,0.1170,0.0000,0.0000,136.7007,-7.3394,41.9459,1523,1476,1.0000,-0.4966,0.4840,9.4724,0.2214,0.7998,-0.5151,-0.4395,0.3032,9.6284,0.0125,0.9627,-0.4003
902.8521,1.2269,1.7861,51.7021,0.4223,0.0000,0.0000,141.1821,-7.5737,43.3178,1523,1476,1.0000,-0.2811,0.3380,9.4365,0.5878,0.4640,-0.6525,-0.3940,0.3008,9.5063,0.2568,0.6650,-0.4079
902.8706,1.2594,1.7846,51.6898,0.4910,0.0000,0.0000,144.9172,-7.7713,44.4625,1524,1475,1.0000,-0.2404,0.3140,9.6208,0.7787,0.5632,-0.7899,-0.1738,0.3989,9.3986,0.2034,0.6879,-0.6674
902.8891,1.3084,1.7680,51.6727,0.4261,0.0000,0.0000,150.5585,-8.0638,46.1883,1525,1474,1.0000,-0.1686,0.3978,9.5083,0.7023,0.5479,-0.9502,-0.1666,0.3798,9.2502,0.1499,0.6802,-1.0568
902.9075,1.3496,1.7609,51.6560,0.3154,0.0000,0.0000,155.3027,-8.3123,47.6409,1526,1473,1.0000,-0.2141,0.3810,9.5275,0.6718,0.4334,-1.0723,-0.3725,0.4085,9.2645,-0.0409,0.5886,-0.8965
902.9259,1.3873,1.8028,51.6362,-0.0128,0.0000,-0.0000,159.6363,-8.5408,48.9686,1526,1473,1.0000,-0.4583,0.3954,9.4173,0.1909,0.1815,-1.1410,-0.4994,0.3918,9.3076,-0.2165,0.2069,-1.1407
902.9443,1.4250,1.8233,51.5969,-0.0815,0.0000,-0.0000,163.9718,-8.7699,50.2970,1527,1472,1.0000,-0.4319,0.4098,9.4077,0.1527,-0.4444,-1.1639,-0.3988,0.3965,9.3387,-0.3157,-0.7091,-3.0873
902.9627,1.4423,1.7756,51.5554,-0.0510,0.0000,-0.0000,165.9596,-8.8827,50.9101,1528,1471,1.0000,-0.1710,0.3284,9.5969,0.3359,-1.0322,-1.2861,-0.1020,0.3678,9.2597,-0.4379,-1.0221,-3.1407
902.9811,1.4650,1.7316,51.5114,-0.0204,0.0000,-0.0000,168.5778,-9.0271,51.7153,1528,1471,1.0000,-0.1901,0.3475,9.4197,0.2977,-1.3070,-1.5838,-0.1810,0.3654,9.3148,-0.3386,-1.1289,-3.1560
902.9996,1.4550,1.7357,51.4819,-0.1540,0.0000,-0.0000,167.4218,-8.9844,51.3703,1528,1471,1.0000,-0.3864,0.2135,9.5394,0.1832,-1.1391,-1.7059,-0.3869,0.3654,9.3292,-0.4913,-0.8618,-1.4308
903.0184,1.4687,1.7445,51.4499,-0.3601,0.0000,-0.0000,169.0082,-9.0776,51.8611,1528,1471,1.0000,-0.4319,0.3380,9.5179,0.0229,-1.3605,-1.7975,-0.2983,0.3415,9.4896,-0.7432,-1.1747,-1.6140
903.0372,1.4833,1.7194,51.4223,0.0635,0.0000,0.0000,170.6865,-9.1756,52.3800,1528,1471,1.0000,-0.2667,0.3068,9.4987,0.2825,-1.2002,-1.4769,-0.1905,0.3032,9.6213,-0.1554,-0.9610,-1.4384
903.0557,1.5033,1.6680,51.3919,0.3765,0.0000,0.0000,172.9829,-9.3044,53.0874,1529,1470,1.0000,-0.1111,0.3164,9.7118,0.6260,-0.9406,-1.8357,-0.0684,0.2936,9.8272,0.1270,-0.4495,-1.4766
903.0742,1.5436,1.5987,51.3598,1.2200,0.0000,0.0000,177.6171,-9.5494,54.5075,1529,1470,1.0000,-0.0249,0.3380,9.6496,0.9237,-1.6047,-1.7670,-0.2456,0.4109,10.8758,1.5163,-0.0526,-1.7285
903.0926,1.6606,1.6424,51.3298,0.7925,0.0000,0.0000,191.0889,-10.2333,58.6215,1532,1467,1.0000,-0.3840,0.7593,9.8219,0.9542,3.0670,-1.9807,-0.5832,0.1547,8.7378,0.6308,-0.9992,-1.6522
903.1110,1.6948,1.6145,51.3007,1.5902,0.0000,0.0000,195.0238,-10.4452,59.8293,1532,1467,1.0000,-0.2979,0.3188,10.0757,2.5802,-1.5208,-1.6219,-0.3462,0.3918,9.1831,0.6003,-1.8312,-1.4613
903.1294,1.7101,1.5970,51.2677,2.0864,0.0000,0.0000,196.7862,-10.5496,60.3749,1533,1466,1.0000,-0.3505,0.1871,9.7597,2.3512,-2.0551,-1.8662,-0.2001,0.1499,9.9995,1.8217,-1.6556,-1.5453
903.1478,1.7450,1.5810,51.2385,1.8383,0.0000,0.0000,200.7925,-10.7655,61.6047,1533,1466,1.0000,-0.3218,0.2973,9.6424,1.4504,-1.5666,-1.7899,-0.0253,0.2385,9.8415,2.2263,-1.3808,-1.3010
903.1663,1.7829,1.5404,51.2102,1.4643,0.0000,0.0000,205.1596,-10.9996,62.9445,1534,1465,1.0000,-0.1662,0.3499,9.7525,1.2748,-1.5360,-1.5609,-0.1427,0.3678,9.9301,1.6537,-0.4877,-1.4537
903.1848,1.8356,1.5158,51.1836,1.7620,0.0000,0.0000,211.2216,-11.3183,64.8012,1535,1464,1.0000,-0.2164,0.3906,9.5227,2.0458,-1.0169,-1.5303,-0.2456,0.3582,9.8487,1.4782,-0.7854,-1.3468
903.2033,1.8714,1.4873,51.1392,1.4681,0.0000,0.0000,215.3399,-11.5410,66.0657,1536,1463,1.0000,-0.2619,0.3667,9.9943,1.7863,-2.7269,-1.6448,-0.2935,0.3343,9.8008,1.1499,-0.4190,-3.1255
903.2217,1.8809,1.4591,51.1111,1.3612,0.0000,0.0000,216.4394,-11.6142,66.4101,1536,1463,1.0000,-0.1231,0.2566,10.0590,1.5191,-0.2994,-1.4540,-0.2719,0.3008,9.9708,1.2034,0.2375,-1.5529
903.2401,1.8966,1.4596,51.1050,1.3765,0.0000,0.0000,218.2451,-11.7227,66.9700,1536,1463,1.0000,-0.2835,0.2757,9.7884,1.4581,-0.3834,-1.2174,0.0249,0.3463,9.7865,1.2950,-0.2282,0.6990
903.2585,1.9132,1.4535,51.0819,1.0101,0.0000,-0.0000,220.1542,-11.8364,67.5614,1537,1462,1.0000,-0.2763,0.3284,10.1763,1.3741,-0.6582,-1.2861,-0.2193,0.3056,9.6907,0.6461,-0.4266,-1.1713
903.2769,1.9252,1.4444,51.0587,0.9109,0.0000,-0.0000,221.5309,-11.9238,67.9906,1537,1462,1.0000,-0.2069,0.3164,10.2122,1.4275,-0.0551,-1.2784,-0.2624,0.3391,9.7625,0.3942,0.1382,-1.2323
903.2953,1.9560,1.4517,51.0359,2.2124,0.0000,0.0000,225.0751,-12.1189,69.0805,1537,1462,1.0000,-0.2955,0.2973,10.0470,1.5726,-0.0475,-1.3471,-0.3557,0.3439,9.9732,2.8522,-0.2434,-1.0797
903.3138,1.9543,1.4194,51.0123,1.3689,0.0000,0.0000,224.8803,-12.1288,69.0309,1537,1462,1.0000,-0.1255,0.2111,9.9321,1.4581,-0.7345,-1.3242,-0.2672,0.3822,9.8679,1.2797,0.0848,-1.1026
903.3322,1.9992,1.4014,50.9881,1.4032,0.0000,0.0000,230.0485,-12.4048,70.6160,1538,1461,1.0000,-0.1446,0.4361,10.0374,1.5344,-0.0246,-1.4464,-0.1762,0.3606,9.8200,1.2721,0.3749,-1.2247
903.3507,2.0314,1.4201,50.9657,1.5368,0.0000,0.0000,233.7532,-12.6086,71.7552,1539,1460,1.0000,-0.2979,0.3667,9.9967,1.8092,0.3876,-1.3166,-0.2073,0.3750,9.8391,1.2644,0.3749,-1.1178
903.3693,2.0676,1.4564,50.9463,1.5101,0.0000,0.0000,237.9144,-12.8354,73.0338,1540,1459,1.0000,-0.2643,0.3906,9.9776,1.8779,0.9067,-1.1563,-0.2312,0.3750,9.8056,1.1423,2.7795,-1.0720
903.3877,2.0868,1.5220,50.9227,1.9452,0.0000,0.0000,240.1280,-12.9659,73.7188,1540,1459,1.0000,-0.3721,0.2805,10.0302,2.3665,3.0976,-1.2784,-0.3366,0.3343,10.0235,1.5240,1.0390,-1.4003
903.4061,2.1206,1.5292,50.9003,2.3383,0.0000,0.0000,244.0150,-13.1797,74.9141,1541,1458,1.0000,-0.2093,0.3236,10.0087,2.4199,0.9220,-1.4693,-0.3390,0.2720,9.7386,2.2568,1.0161,-0.9575
903.4247,2.1670,1.5208,50.8787,2.9605,0.0000,0.0000,249.3588,-13.4661,76.5535,1542,1457,1.0000,-0.1255,0.3188,9.9393,2.7634,0.9525,-1.2326,-0.2504,0.9711,9.8224,3.1576,1.2527,-1.1331
903.4431,2.2045,1.5011,50.8567,3.7238,0.0000,0.0000,253.6763,-13.7020,77.8804,1542,1457,1.0000,-0.0728,0.2230,9.7118,3.7100,0.8991,-1.3471,0.0201,0.4468,9.8966,3.7377,1.3367,-0.9881
903.4615,2.2730,1.4881,50.8391,3.9414,0.0000,0.0000,261.5602,-14.1152,80.2945,1544,1455,1.0000,-0.0896,0.3523,9.6065,4.0153,0.9296,-1.0189,-0.0134,0.4205,9.9828,3.8675,1.5657,-0.9804
903.4799,2.3421,1.5053,50.8195,3.9872,0.0000,0.0000,269.5053,-14.5322,82.7276,1545,1454,1.0000,-0.2236,0.3667,9.7836,4.2138,0.9831,-1.1334,-0.1163,0.4037,9.8655,3.7606,1.6421,-1.0644
903.4985,2.4197,1.5374,50.8009,3.6933,0.0000,0.0000,278.4372,-14.9988,85.4618,1547,1452,1.0000,-0.3026,0.4337,9.5682,3.8779,0.9525,-0.9807,-0.2073,0.4013,9.9229,3.5087,1.2985,-1.1713
903.5170,2.4853,1.5727,50.7817,3.4414,0.0000,0.0000,285.9792,-15.3973,87.7728,1548,1451,1.0000,-0.3386,0.4098,9.5011,3.7558,0.5556,-1.1716,-0.1810,0.3965,10.0067,3.1270,1.3596,-0.9575
903.5354,2.5374,1.5867,50.7632,3.0177,0.0000,0.0000,291.9770,-15.7197,89.6134,1549,1450,1.0000,-0.2524,0.3930,9.4413,3.3206,0.4640,-1.0036,-0.2312,0.4109,10.1264,2.7148,1.2680,-1.0797
903.5538,2.5845,1.6081,50.7488,2.7429,0.0000,-0.0000,297.4034,-16.0144,91.2801,1550,1449,1.0000,-0.3074,0.4146,9.7214,3.0840,0.5632,-0.7059,-0.0828,0.3175,9.8535,2.4018,0.9627,-0.9499
903.5722,2.6320,1.6233,50.7364,1.0254,0.0000,-0.0000,302.8607,-16.3110,92.9565,1551,1448,1.0000,-0.1997,0.5199,9.1587,2.6489,1.3800,-0.7670,-0.1714,0.4564,9.5303,-0.5982,1.7260,-0.7896
903.5907,2.6639,1.6059,50.7237,1.3002,0.0000,-0.0000,306.5338,-16.5196,94.0893,1551,1448,1.0000,-0.1039,0.4816,9.7453,1.6565,0.9678,-0.7288,-0.2815,0.4325,9.4273,0.9438,1.0619,-0.7667
903.6092,2.6811,1.6290,50.7117,-0.1655,0.0000,-0.0000,308.5132,-16.6444,94.7059,1552,1447,1.0000,-0.2691,0.5391,9.5466,0.0229,0.0060,-0.8968,-0.5281,0.3295,10.2366,-0.3539,2.8176,-0.4995
903.6276,2.6731,1.6350,50.6983,-0.4403,0.0000,-0.0000,307.5953,-16.6257,94.4395,1551,1448,1.0000,-0.2356,0.4361,9.3120,-0.2366,0.3876,-0.8586,-0.3222,0.4061,10.2557,-0.6440,1.0390,-0.5987
903.6460,2.6470,1.6401,50.6880,-1.0357,0.0000,-0.0000,304.5931,-16.5035,93.5378,1551,1448,1.0000,-0.2428,0.4218,9.8363,-0.6946,0.6166,-0.6983,-0.1115,0.4133,9.3459,-1.3768,0.8863,-0.4079
903.6644,2.6064,1.6339,50.6740,-1.0777,0.0000,-0.0000,299.9146,-16.2978,92.1250,1550,1449,1.0000,-0.1853,0.3523,9.8603,-0.6946,0.7540,-0.7594,-0.3725,0.3989,9.7218,-1.4608,0.6497,-0.7667
903.6827,2.6059,1.6071,50.6621,-0.5891,0.0000,-0.0000,299.8632,-16.3213,92.1223,1550,1449,1.0000,-0.1039,0.4864,9.5969,-0.5725,0.3876,-0.9120,-0.5018,0.4540,9.8559,-0.6058,0.5428,-0.3239
903.7011,2.6110,1.6387,50.6540,-0.3563,0.0000,-0.0000,300.4528,-16.3766,92.3151,1550,1449,1.0000,-0.4080,0.5032,9.8890,-0.1374,0.1586,-0.5303,-0.4970,0.4061,9.4800,-0.5753,0.1764,-0.3545
903.7196,2.6085,1.6785,50.6455,0.1055,0.0000,-0.0000,300.1597,-16.3882,92.2388,1550,1449,1.0000,-0.4750,0.4313,10.0662,0.4886,-0.0398,-0.5761,0.0345,0.3367,9.2214,-0.2776,0.4283,-0.2629
903.7379,2.6262,1.6638,50.6311,0.4032,0.0000,-0.0000,302.1983,-16.5154,92.8732,1551,1448,1.0000,-0.2117,0.4888,9.8004,0.7787,-0.0856,-0.8052,-0.2288,0.4085,9.0850,0.0278,0.2527,-0.7896
903.7563,2.6352,1.6542,50.6162,0.7315,0.0000,0.0000,303.2298,-16.5929,93.2008,1551,1448,1.0000,-0.2500,0.4122,9.4030,0.8016,-0.3605,-0.7823,-0.3629,0.3941,9.7793,0.6614,-0.1747,-0.8048
903.7748,2.6694,1.6764,50.6036,1.1590,0.0000,0.0000,307.1749,-16.8150,94.4164,1551,1448,1.0000,-0.3960,0.4960,9.5179,1.1909,-0.2994,-0.7059,-0.3438,0.5689,9.6883,1.1270,-0.2053,-0.6598
903.7932,2.6837,1.6959,50.5878,1.6628,0.0000,0.0000,308.8198,-16.9233,94.9312,1552,1447,1.0000,-0.4415,0.3691,9.7669,2.1832,-0.8719,-0.7823,-0.2241,0.3510,9.3292,1.1423,-0.5411,-0.8125
903.8117,2.7331,1.6818,50.5680,2.7544,0.0000,0.0000,314.4985,-17.2319,96.6755,1553,1446,1.0000,-0.2739,0.4433,9.4987,2.7100,-0.8490,-1.1716,-0.2576,0.3894,9.5830,2.7988,-0.4801,-0.8048
903.8301,2.7472,1.6703,50.5480,3.8460,0.0000,0.0000,316.1254,-17.3399,97.1851,1553,1446,1.0000,-0.2739,0.2015,9.5897,3.7634,-0.6582,-0.9349,-0.2025,0.3391,9.5734,3.9285,-0.3808,-1.0339
903.8486,2.8251,1.6149,50.5269,4.5750,0.0000,0.0000,325.0867,-17.8121,99.9303,1554,1445,1.0000,-0.0872,0.4313,9.5849,4.6336,-0.9635,-1.1563,-0.2648,0.3726,9.5782,4.5163,-0.4801,-0.9575
903.8672,2.8897,1.6212,50.4926,4.7582,0.0000,0.0000,332.5232,-18.2093,102.2112,1556,1443,1.0000,-0.3266,0.3930,9.5945,3.8703,-0.4444,-1.0952,-0.3126,0.4253,9.7745,5.6461,-0.3503,-3.1484
903.8857,2.9823,1.6196,50.4708,5.8536,0.0000,0.0000,343.1744,-18.7667,105.4722,1558,1441,1.0000,-0.2835,0.4122,9.6424,6.0611,-0.2841,-1.1258,-0.1977,0.4085,9.5351,5.6461,-0.1747,-1.1789
903.9042,3.0758,1.5864,50.4443,5.1093,3.2180,18.0816,301.8584,-19.3304,94.1856,1551,1448,1.0000,-0.1638,0.4960,9.7381,5.5420,-0.6429,-1.4464,-0.2312,0.4540,9.6859,4.6766,-0.4495,-1.3010
903.9226,3.1653,1.5551,50.4145,4.3689,3.3906,9.3854,337.2108,-19.8726,104.3553,1557,1442,1.0000,-0.1350,0.5510,9.4891,4.5878,-0.4292,-1.6906,-0.3845,0.4684,9.5686,4.1499,-0.0679,-1.4690
903.9410,3.2053,1.5588,50.3852,2.4452,3.2488,-7.7111,391.0476,-20.1325,119.5595,1565,1434,1.0000,-0.3026,0.4864,9.8243,3.8321,-0.3452,-1.6219,-0.3198,0.4875,9.4201,1.0583,-0.2434,-1.4384
903.9594,3.2268,1.5388,50.3554,2.3803,3.1185,-7.0648,391.6643,-20.2875,119.8097,1565,1434,1.0000,-0.2164,0.4313,9.8483,3.0153,-0.5131,-1.5685,-0.2001,0.5306,9.4034,1.7453,-0.6709,-1.5148
903.9778,3.2328,1.5301,50.3226,1.4796,0.0000,-0.0000,372.0021,-20.3537,114.3374,1562,1437,1.0000,-0.2667,0.4337,9.7142,2.2214,-0.7192,-1.7746,-0.0684,0.4325,9.6045,0.7377,-0.3503,-1.6140
903.9961,3.2024,1.5156,50.2890,0.5902,0.0000,-0.0000,368.5055,-20.2125,113.2878,1562,1437,1.0000,-0.2045,0.3523,9.6567,0.9084,-0.1391,-1.7594,-0.0996,0.3032,9.7649,0.2721,-0.3885,-1.7590
904.0146,3.1599,1.4723,50.2573,-0.5891,0.0000,-0.0000,363.6182,-20.0021,111.8141,1561,1438,1.0000,-0.1374,0.3882,9.8986,0.1527,-1.1925,-1.5838,-0.3438,0.4013,9.5494,-1.3310,-0.7778,-1.6598
904.0333,3.0810,1.4249,50.2215,-1.8029,0.0000,-0.0000,354.5317,-19.5828,109.0603,1559,1440,1.0000,-0.0919,0.3236,9.7788,-1.3282,-0.8566,-1.8052,-0.1498,0.3343,9.6332,-2.2776,-0.6327,-1.8201
904.0517,3.0026,1.3984,50.1814,-1.5472,0.0000,-0.0000,345.5100,-19.1659,106.3258,1558,1441,1.0000,-0.1518,0.3188,9.7765,-2.1297,-0.7192,-2.1945,-0.3773,0.1499,9.4848,-0.9646,-0.1671,-1.8812
904.0702,2.9202,1.4064,50.1417,-3.5166,0.0000,-0.0000,336.0292,-18.7255,103.4510,1556,1443,1.0000,-0.2859,0.4241,9.7573,-3.0229,-0.3070,-2.1563,-0.4228,0.3439,9.8224,-4.0104,-0.1747,-2.0186
904.0886,2.7957,1.4302,50.1020,-3.5815,0.0000,-0.0000,321.7056,-18.0440,99.0996,1554,1445,1.0000,-0.4080,0.2206,9.7836,-3.2366,-0.7116,-2.1945,-0.3126,0.2912,9.8032,-3.9264,-0.8236,-1.7590
904.1070,2.6987,1.4317,50.0593,-3.4136,0.0000,-0.0000,310.5365,-17.5178,95.7091,1552,1447,1.0000,-0.3386,0.3284,10.0111,-3.2748,-1.1544,-2.3166,-0.3294,0.2816,9.6380,-3.5524,-0.8236,-2.0491
904.1254,2.6120,1.4219,50.0178,-2.7151,0.0000,-0.0000,300.5598,-17.0497,92.6816,1550,1449,1.0000,-0.2452,0.3092,10.0949,-2.8473,-0.7650,-2.3853,-0.3366,0.2601,9.5614,-2.5829,-0.2434,-1.8201
904.1438,2.5235,1.4067,49.9753,-1.8945,0.0000,-0.0000,290.3778,-16.5706,89.5911,1549,1450,1.0000,-0.3338,0.1967,9.8579,-1.6259,-2.6505,-2.2021,-0.3150,0.2337,9.5255,-2.1631,-0.7854,-2.0644
904.1622,2.4589,1.4102,49.9340,-1.5777,0.0000,-0.0000,282.9464,-16.2271,87.3385,1548,1451,1.0000,-0.3314,0.2709,9.9991,-1.2748,-1.0780,-2.3319,-0.3126,0.2385,9.6644,-1.8806,-0.5793,-1.8812
904.1806,2.3882,1.4197,49.8915,-1.2113,0.0000,0.0000,274.8105,-15.8479,84.8709,1546,1453,1.0000,-0.3098,0.1943,9.7812,-0.9923,-0.5742,-2.3319,-0.3581,0.2481,9.8774,-1.4302,-0.1213,-2.0797
904.1990,2.3414,1.3818,49.8459,-0.4441,0.0000,0.0000,269.4295,-15.6048,83.2427,1545,1454,1.0000,-0.2045,0.2326,9.8650,-0.3740,-2.7345,-2.4082,-0.2312,0.3367,9.7003,-0.5142,-0.1366,-2.2781
904.2174,2.3252,1.3929,49.8044,-0.2189,0.0000,0.0000,267.5617,-15.5355,82.6850,1545,1454,1.0000,-0.3002,0.3475,9.8483,-0.0687,-0.4597,-2.4693,-0.2743,0.3750,9.8176,-0.3692,0.1459,-1.8812
904.2358,2.2827,1.4220,49.7631,0.0406,0.0000,0.0000,262.6714,-15.3161,81.2061,1544,1455,1.0000,-0.3625,0.1991,9.8866,0.0764,-0.1467,-2.4082,-0.3629,0.3678,9.9517,0.0049,0.3902,-1.8965
904.2542,2.3042,1.4692,49.7260,0.4147,0.0000,0.0000,265.1419,-15.4616,81.9705,1545,1454,1.0000,-0.4367,0.4601,9.8531,0.7252,0.1357,-2.1945,-0.3486,0.3630,9.7075,0.1041,0.4741,-1.8583
904.2726,2.3298,1.4894,49.6919,0.3994,0.0000,0.0000,268.0918,-15.6310,82.8812,1545,1454,1.0000,-0.2955,0.4816,9.8028,0.7176,0.3724,-2.0647,-0.3605,0.3846,9.7098,0.0812,0.6497,-1.6674
904.2910,2.3099,1.4941,49.6580,-0.5624,0.0000,-0.0000,265.8062,-15.5409,82.1962,1545,1454,1.0000,-0.2715,0.3523,9.8555,-0.0076,-0.0169,-1.8815,-0.0996,0.4348,9.7194,-1.1173,0.1306,-1.7590
904.3097,2.2920,1.5084,49.6246,-1.9327,0.0000,-0.0000,263.7386,-15.4614,81.5775,1544,1455,1.0000,-0.3122,0.4792,9.8890,-1.3587,-0.1238,-1.8891,-0.3318,0.5306,9.8224,-2.5066,0.2985,-1.7209
904.3282,2.2176,1.5316,49.5955,-3.7151,0.0000,-0.0000,255.1776,-15.0595,78.9795,1543,1456,1.0000,-0.3409,0.3523,9.6376,-3.1374,0.0060,-1.8052,-0.5329,0.5785,9.8990,-4.2928,0.2756,-1.2629
904.3466,2.1312,1.5246,49.5678,-5.2151,0.0000,-0.0000,245.2413,-14.5886,75.9619,1541,1458,1.0000,-0.1925,0.4265,9.8626,-4.7328,0.1892,-1.7899,-0.5425,0.3582,9.9828,-5.6974,0.4741,-1.1865
904.3650,2.0163,1.5360,49.5402,-6.5395,0.0000,-0.0000,232.0197,-13.9539,71.9424,1539,1460,1.0000,-0.2835,0.3978,10.0709,-6.0763,0.3266,-1.7975,-0.3486,0.3989,9.5279,-7.0027,0.4360,-1.1560
904.3835,1.8893,1.5780,49.5155,-6.9021,-3.1448,-35.8145,320.5444,-13.2485,96.3767,1553,1446,1.0000,-0.4367,0.3691,10.2649,-6.9923,0.5708,-1.5838,-0.1810,0.3463,9.4896,-6.8119,0.3673,-1.0491
904.4019,1.7315,1.6097,49.4961,-8.7685,-3.9884,-45.8341,331.2491,-12.3667,98.9331,1554,1445,1.0000,-0.4176,0.3380,9.9560,-8.0000,0.1815,-1.2937,-0.1115,0.4325,9.3771,-9.5371,0.0237,-0.7514
904.4203,1.5479,1.6394,49.4752,-9.5701,-4.8256,-45.5423,309.2781,-11.3355,92.2656,1550,1449,1.0000,-0.4008,0.2613,9.9345,-8.9923,0.1052,-1.2861,-0.2456,0.2720,9.4273,-10.1478,0.3596,-0.9270
904.4387,1.3418,1.6789,49.4586,-10.0853,-5.6146,-42.8291,277.7434,-10.1739,82.8551,1545,1454,1.0000,-0.4583,0.1680,10.0111,-9.3206,0.1815,-0.9731,0.0513,0.2266,9.1233,-10.8501,0.3902,-0.7285
904.4571,1.1376,1.7192,49.4417,-9.5853,-6.2102,-32.3609,186.7502,-9.0214,56.8008,1531,1468,1.0000,-0.4750,0.0961,9.8650,-8.9236,-0.2307,-0.9426,-0.0780,0.1787,9.2741,-10.2470,0.5123,-0.7667
904.4755,0.9564,1.6887,49.4257,-8.9785,-6.6254,-22.5992,145.9459,-7.9981,44.8639,1524,1475,1.0000,-0.1518,0.1177,9.5370,-8.9160,-0.3376,-1.0952,-0.2863,0.1092,9.6548,-9.0409,0.2146,-0.5224
904.4939,0.8096,1.7141,49.4123,-7.8754,-6.8129,-10.1813,102.0648,-7.1694,32.1628,1517,1482,1.0000,-0.4343,0.1536,9.5442,-7.5725,-0.8261,-0.9426,-0.1091,0.0039,9.8942,-8.1783,0.1459,-0.4384
904.5123,0.6917,1.7461,49.4015,-6.9556,-6.8343,-1.1625,69.1154,-6.5043,22.6045,1512,1487,1.0000,-0.4152,0.1871,9.9081,-6.6717,1.1052,-0.7670,0.0178,0.1499,9.4369,-7.2394,-0.3350,-0.4079
904.5307,0.6194,1.7151,49.3920,-5.7571,-6.6727,8.7623,38.3698,-6.0988,13.7930,1507,1492,1.0000,-0.2859,0.2709,9.5993,-5.5572,-2.7345,-0.7746,0.0010,0.2146,9.4920,-5.9569,-0.0602,-0.2705
904.5492,0.5581,1.7220,49.3830,-5.1464,-6.4438,12.4149,23.7213,-5.7548,9.5194,1505,1494,1.0000,-0.3242,0.2518,9.4341,-4.9313,-0.4292,-0.7517,-0.2815,0.2457,9.7529,-5.3615,0.2451,-0.2858
904.5676,0.5053,1.7168,49.3754,-5.0548,-6.2354,11.3213,21.2862,-5.4591,8.6897,1504,1495,1.0000,-0.2691,0.2733,9.5299,-4.6641,-0.2460,-0.6296,-0.1139,0.2409,9.9636,-5.4455,0.2222,-0.2858
904.5860,0.4169,1.7046,49.3699,-6.0815,-6.2123,1.2547,36.9643,-4.9590,12.8295,1507,1492,1.0000,-0.2691,0.1943,9.8698,-5.4045,-0.4063,-0.5990,-0.2432,0.0063,9.6452,-6.7585,-0.2740,0.0196
904.6044,0.3125,1.6510,49.3660,-7.0701,-6.3410,-6.9988,46.7597,-4.3670,15.2762,1508,1491,1.0000,-0.0536,0.1847,9.8435,-6.5190,-0.4368,-0.4082,-0.1786,0.2385,9.7458,-7.6211,0.1840,-0.0568
904.6227,0.1866,1.6410,49.3608,-8.6197,-6.6828,-18.6090,62.5536,-3.6513,19.3407,1510,1489,1.0000,-0.2619,0.1967,9.6496,-8.1221,-0.5895,-0.5074,-0.2672,0.2002,9.6572,-9.1173,-0.0526,-0.0949
904.6411,0.0387,1.6369,49.3530,-9.9899,-7.1789,-26.9542,68.4049,-2.8090,20.5579,1511,1488,1.0000,-0.2524,0.1943,9.8842,-9.3435,-0.1085,-0.7059,-0.2073,0.2026,9.5470,-10.6363,0.4741,-0.1713
904.6596,-0.1181,1.6157,49.3471,-10.5472,-7.6841,-27.4188,54.4850,0.6741,14.9188,1508,1491,1.0000,-0.1111,0.1799,9.9369,-10.1603,0.6014,-0.5914,-0.1379,0.1691,9.6524,-10.9340,1.1382,-0.0797
904.6779,-0.2823,1.5948,49.3444,-10.0548,-8.0397,-19.3500,19.3687,1.6132,4.6166,1502,1497,1.0000,-0.1039,0.0746,9.7334,-10.0152,0.7006,-0.3013,0.0058,0.0781,9.3986,-10.0944,1.1611,-0.0110
904.6963,-0.4637,1.5600,49.3373,-9.3869,-8.2418,-11.0112,-21.6491,2.6519,-7.3877,1495,1504,1.0000,-0.0441,-0.0954,9.7286,-9.2595,0.4869,-0.5151,-0.1738,0.1284,9.5638,-9.5142,1.0848,-0.1713
904.7147,-0.6162,1.5905,49.3305,-8.7685,-8.3208,-4.2820,-58.5786,3.5274,-18.1657,1490,1509,1.0000,-0.3386,-0.0379,9.7405,-8.5648,0.7540,-0.5456,-0.2025,-0.0177,9.6715,-8.9722,0.9245,-0.1331
904.7331,-0.7464,1.5577,49.3192,-7.6388,-8.2185,5.5638,-101.9136,4.2769,-30.6742,1483,1516,1.0000,-0.0800,-0.0571,9.6089,-7.5954,0.2502,-0.8357,-0.2193,0.0230,9.6069,-7.6821,0.6421,-0.3468
904.7515,-0.8477,1.5443,49.3073,-6.2571,-7.9243,15.9857,-143.5826,4.8626,-42.6344,1476,1523,1.0000,-0.1303,-0.0571,9.5227,-6.3282,0.6014,-0.7594,-0.1044,-0.1541,9.5087,-6.1860,1.1535,-0.5071
904.7700,-0.9024,1.5552,49.2880,-4.3792,-7.3925,28.8496,-186.9307,5.1837,-54.9324,1469,1530,1.0000,-0.1327,-0.0188,9.6615,-4.5038,3.0594,-1.0952,0.0465,-0.0919,9.4297,-4.2547,0.9932,-1.0033
904.7884,-0.9265,1.5384,49.2717,-2.0395,-6.5896,43.6234,-232.2456,5.3300,-67.6938,1462,1537,1.0000,-0.1327,-0.0858,9.4652,-2.1832,0.5479,-0.9502,-0.1379,-0.0536,9.4704,-1.8959,0.6726,-0.8354
904.8069,-0.9149,1.5577,49.2560,0.4757,-5.5298,57.3615,-270.4755,5.2730,-78.3696,1456,1543,1.0000,-0.3002,-0.1385,9.4772,0.3206,0.4258,-0.8281,-0.1786,-0.0991,9.4656,0.6308,0.6726,-0.8583
904.8253,-0.8488,1.5857,49.2385,2.1131,-4.3833,62.1817,-276.7553,4.9049,-79.9439,1456,1543,1.0000,-0.3529,-0.0284,9.5682,2.1909,0.3647,-1.0113,-0.3964,-0.0129,9.3411,2.0354,0.4589,-0.9575
904.8437,-0.7530,1.5670,49.2183,3.1131,-3.2589,61.1770,-262.8384,4.3664,-75.7779,1458,1541,1.0000,-0.1949,0.0339,9.5634,3.4657,-0.3147,-1.2861,-0.1498,0.0685,9.4393,2.7606,0.0237,-1.0110
904.8621,-0.6527,1.5622,49.2110,3.2467,0.0000,0.0000,-62.5844,3.8009,-19.4241,1489,1510,1.0000,-0.2212,0.0554,9.4748,3.4886,0.0670,-1.3853,-0.3510,0.1428,9.5207,3.0049,0.2833,0.6074
904.8806,-0.5243,1.5340,49.1849,3.4070,0.0000,0.0000,-50.2766,3.0745,-15.6147,1491,1508,1.0000,-0.1135,0.1847,9.4365,3.6260,0.0060,-1.5990,-0.1786,0.2888,9.7218,3.1881,0.4665,-1.3926
904.8990,-0.4005,1.4909,49.1596,3.6475,0.0000,0.0000,-38.3999,2.3726,-11.9383,1493,1506,1.0000,-0.0584,0.1680,9.4054,3.9848,-0.2612,-1.5456,0.1087,0.1236,9.7912,3.3102,0.4360,-1.3316
904.9176,-0.2981,1.5461,49.1195,2.3345,0.0000,0.0000,-28.5887,1.7923,-8.9010,1495,1504,1.0000,-0.4654,0.1991,9.5562,2.9466,0.3724,-1.5074,-0.2672,0.1739,9.4680,1.7224,0.5123,-3.1178
904.9361,-0.2055,1.5731,49.0955,1.4032,0.0000,0.0000,-19.7041,1.2663,-6.1503,1496,1503,1.0000,-0.3529,0.2494,9.4868,1.9542,0.1128,-1.4922,-0.4204,0.1643,9.7841,0.8522,0.4894,-1.2705
904.9545,-0.1241,1.5791,49.0679,-0.1464,0.0000,-0.0000,-11.8978,0.8035,-0.5450,1499,1500,0.1460,-0.3026,0.3356,9.2569,0.5420,-0.3681,-1.6830,-0.2719,0.2553,9.8343,-0.8348,-0.1213,-1.5377
904.9730,-0.1418,1.5544,49.0391,-2.7647,0.0000,-0.0000,-13.5988,0.9060,-1.6119,1499,1500,0.3783,-0.1710,0.1344,9.6974,-2.2366,-0.3986,-1.7670,0.0058,-0.0009,9.5614,-3.2928,0.1230,-1.4308
904.9914,-0.1886,1.5166,49.0102,-4.3601,0.0000,-0.0000,-18.0869,1.1747,-5.4487,1497,1502,0.9641,-0.0991,0.1321,9.6903,-3.8626,-0.2383,-1.8281,-0.2049,0.0973,9.6883,-4.8577,-0.0144,-1.3774
905.0099,-0.2803,1.5292,48.9791,-5.1540,0.0000,-0.0000,-26.8783,1.7001,-8.3760,1495,1504,1.0000,-0.3242,-0.0140,9.5251,-4.8473,-0.2383,-1.8891,-0.3725,0.0302,9.8224,-5.4608,-0.1213,-1.4461
905.0283,-0.3873,1.5486,48.9497,-5.9670,0.0000,-0.0000,-37.1359,2.3137,-11.5549,1493,1506,1.0000,-0.3984,-0.0331,9.6951,-5.7557,-0.8490,-1.9197,-0.3749,0.0278,9.5279,-6.1783,-0.2740,-1.2552
905.0467,-0.4955,1.5347,48.9200,-6.1998,0.0000,-0.0000,-47.5132,2.9355,-14.7714,1491,1508,1.0000,-0.2571,-0.0355,9.9129,-5.8015,-0.6276,-1.8281,-0.2456,-0.1182,9.6644,-6.5982,-0.6098,-1.4003
905.0651,-0.5847,1.4933,48.8939,-5.9670,-3.3325,-25.2070,4.4256,3.4501,-0.4859,1499,1500,1.0000,-0.1710,0.0147,9.6735,-5.4961,-1.2154,-1.7517,-0.1355,-0.0775,9.6165,-6.4379,-1.1289,-1.1255
905.0836,-0.7260,1.4541,48.8640,-6.5739,-3.8187,-26.3762,-7.5818,4.2627,-4.2543,1497,1502,1.0000,-0.1949,-0.1888,9.7094,-6.2671,-1.5666,-1.8052,-0.2288,-0.1900,9.5494,-6.8806,-1.2816,-1.4003
905.1021,-0.8764,1.4413,48.8415,-6.5395,-4.2268,-22.0189,-37.4331,5.1286,-13.0456,1492,1507,1.0000,-0.3026,-0.2582,9.7908,-6.1374,-1.5360,-1.2632,-0.3605,-0.2044,9.7912,-6.9417,-1.0908,-1.1026
905.1206,-1.0588,1.4419,48.8186,-8.3067,-4.8388,-33.1710,-26.2988,6.1786,-10.4530,1494,1505,1.0000,-0.3960,-0.2845,9.7525,-7.9007,-1.7345,-1.4693,-0.3246,-0.1757,9.5997,-8.7127,-1.6556,-0.9499
905.1390,-1.1967,1.4075,48.7975,-6.1426,-5.0344,-10.6216,-107.1176,6.9770,-33.4814,1481,1518,1.0000,-0.2236,-0.2965,9.8579,-5.9160,-1.8185,-1.4540,-0.2049,-0.3121,9.7003,-6.3692,-1.2663,-0.7972
905.1574,-1.3194,1.3794,48.7780,-5.4975,-5.1038,-3.7621,-140.9871,7.6894,-43.3211,1476,1523,1.0000,-0.2164,-0.3061,9.9728,-5.4274,-1.2765,-1.4082,-0.1546,-0.2978,9.7601,-5.5676,-1.0144,-0.6598
905.1759,-1.4190,1.3439,48.7628,-4.5204,-5.0163,4.7378,-176.9240,8.2711,-53.6742,1470,1529,1.0000,-0.1997,-0.3061,9.9800,-4.4885,-1.4750,-1.0418,-0.2624,-0.2068,9.8822,-4.5524,-1.4190,-0.5987
905.1944,-1.5075,1.3314,48.7479,-3.7456,-4.8257,10.3253,-203.2070,8.7910,-61.2934,1466,1533,1.0000,-0.2907,-0.3420,10.0111,-3.5954,-1.6200,-0.8815,-0.3557,-0.1948,9.9014,-3.8959,-0.9610,-0.7361
905.2129,-1.5842,1.3661,48.7345,-3.4136,-4.6139,11.4354,-215.2278,9.2439,-64.8857,1464,1535,1.0000,-0.4918,-0.3252,10.0805,-3.3664,-1.1085,-0.8968,-0.3964,-0.4534,9.9205,-3.4608,-0.8999,-0.5529
905.2313,-1.6691,1.3211,48.7260,-3.2227,-4.4052,11.3455,-224.7382,9.7445,-67.7989,1462,1537,1.0000,-0.1997,-0.4019,9.9512,-2.9618,-1.2002,-0.6143,-0.2528,-0.1733,9.9972,-3.4837,-2.9686,-0.3316
905.2497,-1.7169,1.2959,48.7186,-2.7494,-4.1569,13.5112,-236.4746,10.0341,-71.2299,1460,1539,1.0000,-0.1542,-0.2821,10.1811,-2.7557,-0.7574,-0.5609,-0.3845,-0.3026,10.2868,-2.7432,-0.1976,-0.2552
905.2682,-1.7487,1.3300,48.7130,-2.1388,-3.8541,16.3456,-248.2969,10.2328,-74.6395,1458,1541,1.0000,-0.3960,-0.2726,10.3080,-1.8244,0.1281,-0.4235,-0.3677,-0.2547,9.8080,-2.4531,-0.0450,-0.1789
905.2866,-1.7426,1.3647,48.7096,-1.7533,-3.5390,17.0969,-249.7580,10.2154,-75.0400,1458,1541,1.0000,-0.4128,-0.1289,10.2481,-1.4885,-0.0551,-0.3013,-0.3031,-0.0512,9.9708,-2.0180,-0.0297,-0.1560
905.3050,-1.7591,1.3382,48.7088,-1.1273,-3.1773,19.6767,-259.0906,10.3273,-77.7090,1457,1542,1.0000,-0.1063,-0.2845,9.9919,-1.2137,-0.0780,-0.2403,-0.0541,-0.2283,9.7769,-1.0409,0.2680,0.1723
905.3234,-1.7343,1.3217,48.7078,-0.8029,0.0000,0.0000,-199.5599,10.2029,-60.9782,1466,1533,1.0000,-0.1111,-0.1193,10.1212,-0.6259,0.3953,-0.1563,-0.1522,-0.2044,9.6979,-0.9798,0.6421,-0.0110
905.3419,-1.7361,1.3674,48.7089,-0.3105,0.0000,0.0000,-199.7726,10.2308,-61.0517,1466,1533,1.0000,-0.4104,-0.2917,10.0805,0.2977,0.4945,-0.0571,-0.1977,-0.1661,9.7889,-0.9188,0.5199,0.2104
905.3603,-1.7116,1.3937,48.7111,-0.3220,0.0000,0.0000,-196.9536,10.1082,-60.2011,1466,1533,1.0000,-0.3290,-0.1624,10.0039,0.0077,0.3418,0.0727,-0.2648,-0.0392,9.7266,-0.6516,0.4818,0.1112
905.3787,-1.6860,1.3852,48.7126,-0.0433,0.0000,0.0000,-194.0024,9.9789,-59.3101,1467,1532,1.0000,-0.1303,-0.1696,9.8028,0.3130,0.4945,-0.0723,-0.1115,-0.2355,9.8679,-0.3997,1.1306,0.2181
905.3970,-1.6714,1.3882,48.7144,0.1704,0.0000,0.0000,-192.3249,9.9125,-58.8072,1467,1532,1.0000,-0.1374,-0.2367,9.8124,0.4352,1.2197,0.0345,-0.0301,-0.2188,9.9373,-0.0944,1.4894,0.2181
905.4154,-1.6622,1.4104,48.7183,0.2925,0.0000,0.0000,-191.2647,9.8766,-58.4924,1467,1532,1.0000,-0.2308,-0.2702,9.9010,0.7634,1.3342,0.0803,-0.3007,-0.3624,9.7362,-0.1783,1.2527,0.4242
905.4339,-1.6507,1.4956,48.7218,0.2124,0.0000,0.0000,-189.9461,9.8278,-58.0988,1468,1531,1.0000,-0.5181,-0.2558,10.0087,0.5497,1.3800,0.1490,-0.4970,-0.2427,9.6787,-0.1249,1.6192,0.2944
905.4523,-1.6530,1.5340,48.7283,-0.1807,0.0000,0.0000,-190.2096,9.8574,-58.1874,1467,1532,1.0000,-0.2907,-0.2821,9.9321,0.1069,1.6624,0.4468,-0.3294,-0.2475,9.6620,-0.4684,1.7413,0.3555
905.4707,-1.6604,1.5297,48.7334,-1.1998,0.0000,-0.0000,-191.0594,9.9161,-58.4547,1467,1532,1.0000,-0.1398,-0.2127,9.6783,-2.0229,1.1815,0.2330,-0.2097,-0.3074,9.6596,-0.3768,1.1306,0.3478
905.4892,-1.6723,1.5649,48.7413,-0.3907,0.0000,0.0000,-192.4253,10.0005,-58.8793,1467,1532,1.0000,-0.3362,-0.3085,9.8626,-0.1068,0.7693,0.3399,-0.2049,-0.2762,9.7170,-0.6745,1.3749,0.5921
905.5076,-1.6892,1.5955,48.7531,-0.4746,0.0000,0.0000,-194.3798,10.1142,-59.4835,1467,1532,1.0000,-0.2763,-0.3324,10.0231,-0.1755,1.5708,0.5918,-0.2743,-0.3241,9.6955,-0.7737,1.6573,0.7982
905.5260,-1.7201,1.6229,48.7671,-1.3907,0.0000,-0.0000,-197.9258,10.3070,-60.5728,1466,1533,1.0000,-0.3146,-0.3181,9.8195,-2.0229,1.0441,0.7216,-0.2935,-0.3097,9.4968,-0.7585,0.9398,0.8745
905.5444,-1.7446,1.6385,48.7602,-1.1388,0.0000,-0.0000,-200.7477,10.4643,-61.4415,1466,1533,1.0000,-0.2643,-0.3061,9.7286,-0.6870,0.7235,0.6147,-0.3893,-0.2810,9.6763,-1.5905,1.1764,-1.2094
905.5628,-1.7741,1.6497,48.7741,-1.4937,0.0000,-0.0000,-204.1450,10.6503,-62.4858,1465,1534,1.0000,-0.2141,-0.3061,9.7070,-1.1908,1.0823,0.6376,-0.2959,-0.2858,9.6811,-1.7966,1.5276,0.9509
905.5812,-1.8126,1.6539,48.7874,-1.5662,0.0000,-0.0000,-208.5730,10.8878,-63.8443,1464,1535,1.0000,-0.2045,-0.3420,9.4987,-1.2671,0.9067,0.6376,-0.2169,-0.1709,9.5830,-1.8653,1.1535,0.8898
905.5996,-1.8402,1.6631,48.8045,-1.1197,0.0000,-0.0000,-211.7562,11.0638,-64.8237,1464,1535,1.0000,-0.2021,-0.3372,9.6136,-0.9465,1.0365,0.9200,-0.2863,-0.3744,9.4824,-1.2928,1.6344,1.0425
905.6180,-1.8649,1.7066,48.8208,-0.8792,0.0000,0.0000,-214.5882,11.2228,-65.6961,1463,1536,1.0000,-0.3601,-0.3468,9.5729,-0.7023,1.2502,0.8132,-0.3533,-0.3672,9.4608,-1.0562,1.4436,1.0654
905.6364,-1.8698,1.7658,48.8395,-0.5586,0.0000,0.0000,-215.1554,11.2696,-65.8783,1463,1536,1.0000,-0.4822,-0.2869,9.5227,-0.2900,0.8762,0.8895,-0.3917,-0.2954,9.4608,-0.8272,0.7795,1.1646
905.6547,-1.8649,1.7849,48.8557,-0.1120,0.0000,0.0000,-214.5963,11.2605,-65.7172,1463,1536,1.0000,-0.3673,-0.2821,9.5634,-0.0381,0.0289,0.8132,-0.3342,-0.3026,9.4776,-0.1860,0.2680,0.9280
905.6732,-1.8526,1.7721,48.8711,0.4490,0.0000,0.0000,-213.1752,11.2087,-65.2934,1464,1535,1.0000,-0.2380,-0.2989,9.6879,0.6489,-0.0398,0.8132,-0.2743,-0.2379,9.3938,0.2492,0.0772,0.8516
905.6916,-1.8372,1.7352,48.8882,0.6208,0.0000,0.0000,-211.4063,11.1394,-64.7635,1464,1535,1.0000,-0.1518,-0.2941,9.4724,0.5191,-0.4139,0.8666,-0.4228,-0.1733,9.6021,0.7224,-0.3579,0.9432
905.7100,-1.8167,1.7476,48.9059,0.1093,0.0000,0.0000,-209.0491,11.0408,-64.0542,1464,1535,1.0000,-0.3984,-0.2199,9.3838,0.1680,-0.9101,0.6605,-0.3079,-0.2523,9.5686,0.0507,-0.5640,1.1265
905.7284,-1.7849,1.7582,48.9193,0.1551,0.0000,0.0000,-205.3876,10.8773,-62.9472,1465,1534,1.0000,-0.4032,-0.1696,9.4891,0.3817,-0.9024,0.6071,-0.3557,-0.2355,9.5542,-0.0715,-0.7244,0.6913
905.7468,-1.7488,1.7173,48.9328,0.5215,0.0000,0.0000,-201.2331,10.6890,-61.6898,1466,1533,1.0000,-0.2811,-0.1792,9.4173,0.7329,-1.2689,0.6071,-0.3342,-0.0201,9.5686,0.3102,-2.9534,0.6379
905.7652,-1.6931,1.7101,48.9446,0.4910,0.0000,0.0000,-194.8294,10.3887,-59.7466,1467,1532,1.0000,-0.2739,-0.0786,9.4748,0.7100,-1.5589,0.4086,-0.1810,-0.1350,9.5638,0.2721,0.9016,0.6990
905.7837,-1.6205,1.7235,48.9544,0.6819,0.0000,0.0000,-186.4740,9.9910,-57.2082,1468,1531,1.0000,-0.4535,-0.0092,9.4580,0.7329,-1.6811,0.1338,-0.2624,-0.1302,9.5949,0.6308,-0.9839,0.6303
905.8021,-1.5818,1.7247,48.9583,0.5673,0.0000,0.0000,-182.0183,9.7861,-55.8582,1469,1530,1.0000,-0.4080,-0.1433,9.6184,1.0458,-1.4673,0.0574,-0.5329,-0.0392,9.6715,0.0889,-1.2892,0.1799
905.8204,-1.5511,1.7231,48.9607,0.7315,0.0000,0.0000,-178.4889,9.6268,-54.7903,1469,1530,1.0000,-0.4128,-0.1912,9.7741,0.9924,-1.6734,0.1109,-0.5425,-0.0727,9.6715,0.4705,-1.3656,0.0196
905.8388,-1.5043,1.6691,48.9585,0.7506,0.0000,0.0000,-173.0939,9.3746,-53.1536,1470,1529,1.0000,-0.1781,-0.1098,9.8531,0.9084,-1.8185,-0.3548,-0.2672,-0.1685,9.5638,0.5927,-1.3579,-0.0873
905.8573,-1.4722,1.6533,48.9502,0.6742,0.0000,0.0000,-169.4077,9.2068,-52.0375,1471,1528,1.0000,-0.2356,-0.1672,9.8483,0.6336,-1.5589,-0.5532,-0.3605,-0.1110,9.6835,0.7148,0.8482,-0.4384
905.8757,-1.4199,1.6194,48.9410,1.0101,0.0000,0.0000,-163.3894,8.9228,-50.2104,1472,1527,1.0000,-0.2308,-0.0930,9.7765,1.1603,-1.3681,-0.6219,-0.3318,-0.0871,9.6644,0.8598,-1.1518,-0.5453
905.8942,-1.3802,1.6337,48.9271,1.2277,0.0000,0.0000,-158.8175,8.7102,-48.8240,1473,1526,1.0000,-0.4295,-0.1624,9.8291,1.5115,-1.1773,-0.8586,-0.2480,-0.1158,9.6955,0.9438,-0.7091,-0.7438
905.9127,-1.3314,1.6468,48.9086,1.5750,0.0000,0.0000,-153.2031,8.4454,-47.1196,1474,1525,1.0000,-0.3912,-0.1385,9.9608,1.9390,-0.4292,-1.1487,-0.3055,-0.3217,9.6524,1.2110,-0.5259,-0.9652
905.9310,-1.2732,1.6147,48.8908,2.0521,0.0000,0.0000,-146.5034,8.1262,-45.0841,1475,1524,1.0000,-0.1757,-0.1289,9.9345,2.2443,-0.6887,-1.1487,-0.2288,-0.1996,9.8032,1.8598,-0.2816,-0.8888
905.9495,-1.2328,1.6147,48.8674,2.3956,0.0000,0.0000,-141.8613,7.9086,-43.6755,1475,1524,1.0000,-0.3122,-0.2319,9.8531,2.4275,-0.6505,-1.3090,-0.4012,-0.3193,9.7027,2.3637,-0.1671,-1.2400
905.9680,-1.1903,1.6196,48.8236,2.4452,0.0000,0.0000,-136.9654,7.6780,-42.1893,1476,1523,1.0000,-0.3074,-0.2199,9.9680,2.7710,-0.0780,-1.4540,-0.2360,-0.2355,9.6045,2.1194,0.1230,-3.1942
905.9864,-1.1580,1.5640,48.7957,2.3994,0.0000,0.0000,-133.2446,7.5053,-41.0611,1477,1522,1.0000,-0.0417,-0.2558,9.8028,2.8245,-0.4063,-1.4311,-0.2552,-0.1685,9.6715,1.9744,-0.1824,-1.5682
906.0049,-1.1196,1.5596,48.7660,2.3765,0.0000,0.0000,-128.8366,7.2981,-39.7233,1478,1521,1.0000,-0.2571,-0.2199,9.8004,2.4657,-0.4063,-1.7059,-0.2456,-0.2283,9.8248,2.2873,0.2298,-1.5071
906.0233,-1.1239,1.5443,48.7377,2.2658,0.0000,0.0000,-129.3292,7.3338,-39.8791,1478,1521,1.0000,-0.1710,-0.4066,9.8938,2.6336,-0.1009,-1.6677,-0.1474,-0.3193,9.8391,1.8980,0.7642,-1.2552
906.0417,-1.1168,1.5212,48.7068,1.9948,0.0000,0.0000,-128.5077,7.3042,-39.6343,1478,1521,1.0000,-0.1398,-0.3276,9.8195,2.4504,-0.0780,-1.7899,-0.1810,-0.2571,9.8655,1.5392,0.5199,-1.4842
906.0601,-1.1234,1.4836,48.6787,1.9948,0.0000,0.0000,-129.2738,7.3534,-39.8734,1478,1521,1.0000,-0.0465,-0.3947,9.8650,3.7176,-0.1925,-1.5532,-0.3557,-0.2260,9.8870,0.2721,1.0237,-1.3621
906.0785,-1.0846,1.4616,48.6472,0.1513,0.0000,-0.0000,-124.8070,7.1430,-38.5175,1478,1521,1.0000,-0.0297,-0.0140,9.8674,1.1756,1.8762,-1.7441,-0.1139,-0.3313,9.7027,-0.8730,1.0085,-1.7209
906.0969,-1.1499,1.4547,48.6173,0.6666,0.0000,-0.0000,-132.3135,7.5263,-40.8110,1477,1522,1.0000,-0.2045,-0.5694,10.2050,1.5878,0.1205,-1.6143,-0.4084,-0.3313,9.6883,-0.2547,0.3444,-1.4232
906.1153,-1.1908,1.4652,48.5910,0.3956,0.0000,-0.0000,-137.0267,7.7717,-42.2533,1476,1523,1.0000,-0.2476,-0.4210,9.8746,0.6413,0.4334,-1.4616,-0.3174,-0.4342,9.4704,0.1499,0.8024,-1.2476
906.1337,-1.2652,1.4577,48.5654,0.1895,0.0000,-0.0000,-145.5903,8.2086,-44.8696,1475,1524,1.0000,-0.0943,-0.5575,9.6232,0.1451,0.0518,-1.3548,-0.1283,-0.3552,9.8583,0.2339,2.8329,-1.1407
906.1521,-1.3202,1.4743,48.5442,-0.0357,0.0000,-0.0000,-151.9176,8.5352,-46.8045,1474,1525,1.0000,-0.2524,-0.4617,9.6615,0.1069,0.5327,-1.2708,-0.2217,-0.4055,9.8487,-0.1783,1.1917,-0.8354
906.1704,-1.3621,1.4714,48.5245,0.1704,0.0000,-0.0000,-156.7351,8.7874,-48.2795,1473,1526,1.0000,-0.2236,-0.4258,9.6304,0.5268,-0.7879,-1.1105,-0.1881,-0.4678,9.9062,-0.1860,1.1611,-0.8965
906.1889,-1.4223,1.4622,48.5061,-0.1617,0.0000,-0.0000,-163.6667,9.1450,-50.3992,1472,1527,1.0000,-0.0919,-0.4952,9.7358,0.1374,1.0594,-1.0723,-0.3845,-0.4534,9.8631,-0.4608,1.5810,-0.6980
906.2073,-1.4719,1.4522,48.4916,-0.0166,0.0000,-0.0000,-169.3745,9.4425,-52.1461,1471,1528,1.0000,-0.0896,-0.4713,9.7980,0.1222,1.1739,-0.8510,-0.1427,-0.4510,9.7266,-0.1554,1.5199,-0.5071
906.2257,-1.5236,1.4715,48.4777,-0.0166,0.0000,-0.0000,-175.3206,9.7522,-53.9659,1470,1529,1.0000,-0.2021,-0.4785,9.5538,0.1298,1.4105,-0.7517,-0.1451,-0.4414,9.8104,-0.1631,1.7184,-0.5300
906.2441,-1.5829,1.4609,48.4661,-0.1082,0.0000,-0.0000,-182.1405,10.1059,-56.0523,1469,1530,1.0000,-0.0943,-0.5168,9.6113,0.3054,1.0823,-0.5761,-0.1355,-0.5276,9.8176,-0.5218,1.4283,-0.4613
906.2626,-1.6277,1.4497,48.4596,-0.0853,0.0000,-0.0000,-187.2942,10.3775,-57.6311,1468,1531,1.0000,-0.0824,-0.4641,9.6352,0.0916,1.1434,-0.3853,-0.2360,-0.4319,9.7410,-0.2623,1.4894,-0.1102
906.2809,-1.6418,1.4772,48.4607,-0.4250,0.0000,-0.0000,-188.9198,10.4744,-58.1347,1468,1531,1.0000,-0.3026,-0.3013,9.6974,-0.1832,0.7922,-0.0952,-0.1498,-0.5037,9.5542,-0.6669,0.9245,0.2868
906.2993,-1.6597,1.5161,48.4587,-0.1807,0.0000,-0.0000,-190.9814,10.5931,-58.7714,1467,1532,1.0000,-0.2907,-0.3492,9.8076,0.2214,0.5861,-0.2403,-0.3821,-0.3959,9.4920,-0.5829,2.8100,0.1799
906.3177,-1.7148,1.5004,48.4588,-1.4670,0.0000,-0.0000,-197.3181,10.9242,-60.7112,1466,1533,1.0000,-0.1255,-0.4162,9.6974,-0.0992,0.6090,0.1414,-0.1498,-0.3720,9.6572,-2.8348,0.7795,-0.0110
906.3362,-1.7449,1.4713,48.4603,-0.3716,0.0000,-0.0000,-200.7904,11.1136,-61.7781,1466,1533,1.0000,-0.0680,-0.3923,9.5825,-0.0763,0.3800,0.0116,-0.2456,-0.4702,9.5662,-0.6669,0.7718,0.2639
906.3546,-1.7360,1.4906,48.4650,0.3994,0.0000,0.0000,-199.7553,11.0797,-61.4713,1466,1533,1.0000,-0.1901,-0.2845,9.6376,-0.1526,0.6243,0.3170,-0.3390,-0.2667,9.6021,0.9515,2.8634,0.2868
906.3730,-1.7636,1.4958,48.4741,-0.6846,0.0000,-0.0000,-202.9346,11.2548,-62.4491,1465,1534,1.0000,-0.2308,-0.3635,9.5993,-0.1908,0.4258,0.4315,-0.2145,-0.3672,9.7889,-1.1783,0.5886,0.6532
906.3914,-1.7866,1.4918,48.4824,-1.4479,0.0000,-0.0000,-205.5824,11.4038,-63.2650,1465,1534,1.0000,-0.2260,-0.2869,9.7741,-1.0534,0.0289,0.3399,-0.2959,-0.3074,9.3986,-1.8424,0.1688,0.5768
906.4098,-1.8054,1.5001,48.4902,-1.8296,0.0000,-0.0000,-207.7447,11.5290,-63.9330,1464,1535,1.0000,-0.2452,-0.2390,9.7645,-1.5267,0.3266,0.1872,-0.3773,-0.1924,9.5423,-2.1325,0.7260,0.6837
906.4282,-1.8241,1.4842,48.4972,-1.7609,0.0000,-0.0000,-209.8985,11.6539,-64.5985,1464,1535,1.0000,-0.1710,-0.2438,9.6352,-1.4274,-0.0475,0.2330,-0.2528,-0.2331,9.5327,-2.0944,0.2069,0.5081
906.4466,-1.8512,1.4964,48.5056,-1.9250,0.0000,-0.0000,-213.0147,11.8268,-65.5575,1463,1536,1.0000,-0.3074,-0.2702,9.6256,-1.7404,-0.1925,0.4162,-0.1067,-0.2882,9.6380,-2.1096,0.2451,0.4852
906.4651,-1.8762,1.4996,48.5140,-2.0243,0.0000,-0.0000,-215.8885,11.9879,-66.4427,1463,1536,1.0000,-0.2452,-0.2534,9.4844,-1.7557,0.0823,0.2254,-0.1786,-0.2643,9.5710,-2.2928,0.3444,0.6990
906.4834,-1.9159,1.5236,48.5216,-3.2075,0.0000,-0.0000,-220.4613,12.2336,-67.8460,1462,1537,1.0000,-0.4008,-0.2414,9.8052,-1.6794,-0.1773,0.2559,-0.2528,-0.2355,9.3938,-4.7356,-0.5564,0.5158
906.5018,-1.9336,1.5310,48.5294,-2.1846,0.0000,-0.0000,-222.5016,12.3540,-68.4774,1462,1537,1.0000,-0.3266,-0.2223,9.5801,-1.6412,-0.4902,0.4162,-0.3126,-0.2212,9.5111,-2.7279,-0.4343,0.3326
906.5202,-1.9568,1.5052,48.5360,-2.3105,0.0000,-0.0000,-225.1655,12.5055,-69.2991,1461,1538,1.0000,-0.1614,-0.2414,9.7501,-2.3358,-0.4139,0.2330,-0.3773,-0.1733,9.5590,-2.2852,-0.1671,0.4242
906.5386,-1.9691,1.4560,48.5409,-2.3525,0.0000,-0.0000,-226.5799,12.5953,-69.7400,1461,1538,1.0000,-0.1015,-0.1864,9.6184,-2.3740,-0.9330,0.0422,-0.1020,-0.2547,9.8439,-2.3310,-0.8389,0.3707
906.5570,-1.9846,1.4562,48.5433,-2.4250,0.0000,-0.0000,-228.3652,12.7035,-70.2940,1461,1538,1.0000,-0.3409,-0.1983,9.5969,-2.3129,-1.2383,-0.1410,-0.1187,-0.1853,9.6189,-2.5371,-0.9305,0.2715
906.5754,-1.9887,1.4366,48.5459,-1.8563,0.0000,-0.0000,-228.8412,12.7470,-70.4490,1461,1538,1.0000,-0.2332,-0.2031,9.8722,-1.6565,-0.9024,0.0574,-0.3246,-0.1805,9.6189,-2.0562,-0.8618,0.0806
906.5938,-2.0144,1.4307,48.5508,-1.9861,0.0000,-0.0000,-231.7915,12.9133,-71.3583,1460,1539,1.0000,-0.2859,-0.2917,9.6448,-1.1832,-1.1544,0.1261,-0.3749,-0.2116,9.7075,-2.7890,-0.5488,0.3402
906.6123,-2.0216,1.3877,48.5512,-1.3563,0.0000,0.0000,-232.6269,12.9749,-71.6230,1460,1539,1.0000,-0.1853,-0.2558,9.5370,-1.4198,-2.7498,-0.1334,-0.4850,-0.2164,9.8894,-1.2928,-0.6175,0.0119
906.6307,-2.0012,1.3383,48.5484,0.0254,0.0000,0.0000,-230.2756,12.8784,-70.9164,1460,1539,1.0000,-0.0680,-0.2390,9.3599,-0.1374,-0.7727,-0.3777,-0.1881,-0.3265,9.8631,0.1881,-0.7473,-0.0110
906.6491,-1.9755,1.3087,48.5460,0.3269,0.0000,0.0000,-227.3156,12.7516,-70.0242,1461,1538,1.0000,-0.1949,-0.2438,9.5849,0.2290,-1.3681,-0.4769,-0.2983,-0.2834,9.9924,0.4247,-1.1671,0.1265
906.6675,-1.9254,1.3048,48.5383,1.1704,0.0000,0.0000,-221.5596,12.4857,-68.2795,1462,1537,1.0000,-0.2691,-0.2079,9.8004,1.3206,-0.9788,-0.4922,-0.2360,-0.1182,9.5710,1.0202,-0.4190,-0.4537
906.6860,-1.8780,1.2903,48.5295,1.3841,0.0000,0.0000,-216.1063,12.2343,-66.6269,1463,1536,1.0000,-0.3218,-0.2319,9.7453,1.7023,-1.0322,-0.6448,-0.2193,-0.0464,9.5758,1.0660,-2.9610,-0.4766
906.7045,-1.8042,1.3126,48.5188,2.4757,0.0000,0.0000,-207.6131,11.8317,-64.0475,1464,1535,1.0000,-0.4176,-0.1912,9.9129,2.0000,-1.2689,-0.6067,-0.2025,-0.1350,9.5518,2.9515,-0.6251,-0.6903
906.7230,-1.7425,1.3493,48.5064,1.1780,0.0000,0.0000,-200.5034,11.4969,-61.8894,1465,1534,1.0000,-0.4654,-0.1265,9.9177,1.7863,-0.5284,-0.8281,-0.1810,-0.1637,9.6596,0.5698,-0.8465,-0.6369
906.7414,-1.6799,1.3741,48.4949,1.0673,0.0000,0.0000,-193.3002,11.1569,-59.7025,1467,1532,1.0000,-0.3673,-0.1026,9.9800,1.6565,-1.0093,-0.7441,-0.3103,-0.1254,9.5351,0.4782,0.9016,-0.6140
906.7599,-1.6218,1.3655,48.4804,1.0254,0.0000,0.0000,-186.6203,10.8423,-57.6748,1468,1531,1.0000,-0.2691,-0.1098,9.9177,1.3665,-1.0627,-1.0723,-0.3414,-0.0679,9.5686,0.6843,-0.5488,-0.6064
906.7784,-1.5628,1.3412,48.4655,0.4910,0.0000,0.0000,-179.8284,10.5214,-55.6127,1469,1530,1.0000,-0.1805,-0.0451,9.8698,0.7481,-0.7574,-0.9884,-0.1642,-0.0991,9.4393,0.2339,-0.5335,-0.7819
906.7969,-1.5246,1.3424,48.4508,-0.0777,0.0000,-0.0000,-175.4375,10.3192,-54.2821,1470,1529,1.0000,-0.2763,-0.0858,9.7070,0.5115,-0.5208,-1.0418,-0.3486,-0.0057,9.7266,-0.6669,-0.4953,-0.6522
906.8155,-1.4986,1.3460,48.4324,0.3689,0.0000,0.0000,-172.4419,10.1858,-53.3766,1470,1529,1.0000,-0.3074,-0.1720,9.9297,-0.2519,-0.6124,-1.1334,-0.2863,-0.0488,9.6500,0.9896,-0.6633,-0.9194
906.8339,-1.5002,1.3103,48.4144,-1.0433,0.0000,-0.0000,-172.6286,10.2100,-53.4410,1470,1529,1.0000,-0.1279,-0.1816,10.0207,-0.5419,-0.8337,-1.0647,-0.3246,-0.0631,9.7793,-1.5447,-0.6022,-0.9652
906.8523,-1.5075,1.3030,48.3976,-1.7380,0.0000,-0.0000,-173.4730,10.2669,-53.7059,1470,1529,1.0000,-0.2571,-0.1457,10.0278,-1.5343,-0.8872,-1.0952,-0.2073,-0.0895,9.7218,-1.9417,-0.4419,-0.8048
906.8708,-1.5334,1.3279,48.3789,-2.3029,0.0000,-0.0000,-176.4519,10.4298,-54.6214,1469,1530,1.0000,-0.3984,-0.1840,10.0111,-1.9160,-0.6124,-1.1945,-0.3581,-0.2236,9.4608,-2.6898,-0.5259,-0.8888
906.8892,-1.5598,1.3329,48.3600,-2.3258,0.0000,-0.0000,-179.4859,10.5957,-55.5539,1469,1530,1.0000,-0.2883,-0.1960,10.1164,-1.8549,-0.4673,-1.2250,-0.2576,-0.0224,9.7434,-2.7966,-0.1060,-0.8506
906.9076,-1.5935,1.3384,48.3406,-2.0204,0.0000,-0.0000,-183.3578,10.8035,-56.7419,1468,1531,1.0000,-0.2691,-0.2534,9.8818,-1.6641,-0.4292,-1.1258,-0.1977,-0.1924,9.7865,-2.3768,0.2527,-0.9804
906.9261,-1.6296,1.3545,48.3200,-2.3640,0.0000,-0.0000,-187.5162,11.0257,-58.0174,1468,1531,1.0000,-0.2571,-0.2390,9.8219,-1.9923,0.3495,-1.2708,-0.2001,-0.2020,9.8104,-2.7356,0.8787,-0.9194
906.9446,-1.6659,1.3471,48.3001,-2.2113,0.0000,-0.0000,-191.6926,11.2493,-59.2986,1467,1532,1.0000,-0.1350,-0.2630,9.9991,-1.9618,0.5021,-1.1716,-0.2121,-0.2355,9.9301,-2.4608,1.0924,-0.9346
906.9630,-1.7060,1.3567,48.2825,-1.9403,0.0000,-0.0000,-196.3124,11.4952,-60.7151,1466,1533,1.0000,-0.1997,-0.3013,9.7190,-1.9771,0.8227,-0.9960,-0.1067,-0.2858,9.9349,-1.9035,1.0161,-0.8430
906.9814,-1.7318,1.3844,48.2653,-1.5777,0.0000,-0.0000,-199.2766,11.6593,-61.6271,1466,1533,1.0000,-0.2811,-0.2750,9.8387,-1.6183,0.8762,-1.0265,-0.2408,-0.3050,9.7458,-1.5371,1.1153,-0.7743
906.9998,-1.7469,1.3870,48.2528,-0.5968,0.0000,0.0000,-201.0172,11.7630,-62.1663,1465,1534,1.0000,-0.1662,-0.3157,9.7788,-0.3511,0.8227,-0.7365,-0.3055,-0.2858,9.7960,-0.8424,1.1001,-0.5377
907.0182,-1.7503,1.3916,48.2422,0.6093,0.0000,0.0000,-201.4090,11.7999,-62.2945,1465,1534,1.0000,-0.1973,-0.3588,9.6376,0.4123,0.5632,-0.6525,-0.2552,-0.3433,9.8655,0.8064,0.8329,-0.4003
907.0367,-1.7317,1.3976,48.2340,1.2353,0.0000,0.0000,-199.2674,11.7111,-61.6504,1466,1533,1.0000,-0.2069,-0.3205,9.8818,1.2367,0.5708,-0.4845,-0.3366,-0.3193,9.5614,1.2339,0.8329,-0.3316
907.0551,-1.7096,1.4065,48.2252,1.9528,0.0000,0.0000,-196.7252,11.6023,-60.8842,1466,1533,1.0000,-0.2236,-0.3659,9.8746,2.2596,0.4869,-0.6296,-0.1905,-0.3121,9.7960,1.6461,0.9703,-0.2171
907.0735,-1.6643,1.4048,48.2179,2.8193,0.0000,0.0000,-191.5066,11.3605,-59.3021,1467,1532,1.0000,-0.1494,-0.3157,9.6783,2.7252,0.8991,-0.5761,-0.2217,-0.4079,9.8343,2.9133,1.0008,-0.1026
907.0919,-1.6006,1.4136,48.2162,3.6170,0.0000,0.0000,-184.1851,11.0138,-57.0787,1468,1531,1.0000,-0.2093,-0.2989,9.7932,3.5497,0.8151,-0.1181,-0.3318,-0.2355,9.7458,3.6843,0.8100,0.0043
907.1103,-1.5164,1.4101,48.2146,4.6971,0.0000,0.0000,-174.4938,10.5489,-54.1327,1470,1529,1.0000,-0.1398,-0.2869,9.8363,4.7863,0.7235,-0.1563,-0.4012,-0.2403,9.8990,4.6079,1.2146,0.0577
907.1287,-1.4219,1.4248,48.2140,5.1742,0.0000,0.0000,-163.6133,10.0242,-50.8238,1472,1527,1.0000,-0.2045,-0.2630,9.8004,5.1222,1.2731,-0.0876,-0.1115,-0.1853,9.7075,5.2263,1.2298,0.1035
907.1472,-1.3158,1.4670,48.2159,4.9223,0.0000,0.0000,-151.4067,9.4327,-47.1102,1474,1525,1.0000,-0.2595,-0.1744,9.8435,4.9619,3.0899,0.0956,-0.1618,-0.1398,9.4944,4.8827,1.0466,0.1799
907.1656,-1.2274,1.4944,48.2204,5.0292,0.0000,0.0000,-141.2410,8.9414,-44.0182,1475,1524,1.0000,-0.2979,-0.2558,10.0015,5.4962,0.9296,0.2254,-0.3581,-0.1398,9.7122,4.5621,1.0543,0.3326
907.1840,-1.1270,1.4977,48.2278,4.7506,3.0395,16.4228,-176.9862,8.3804,-53.7463,1470,1529,1.0000,-0.1805,-0.1505,9.8315,4.7863,0.8609,0.4162,-0.2217,-0.1637,9.7314,4.7148,1.2604,0.3936
907.2024,-1.0530,1.5133,48.2370,2.6093,0.0000,-0.0000,-121.1627,7.9686,-37.9099,1479,1520,1.0000,-0.2595,-0.0691,9.8603,1.9161,0.7159,0.4315,-0.2839,-0.1278,9.5063,3.3026,0.9169,0.5387
907.2209,-0.9782,1.5205,48.2445,3.0330,0.0000,0.0000,-112.5603,7.5523,-35.2930,1480,1519,1.0000,-0.2428,-0.0954,9.8124,3.5115,0.4487,0.3628,-0.2935,-0.1517,9.6883,2.5545,0.6879,0.4242
907.2393,-0.9019,1.5076,48.2550,2.3612,0.0000,-0.0000,-103.7803,7.1264,-32.6217,1482,1517,1.0000,-0.1374,-0.0188,9.4963,2.5573,0.5785,0.4468,-0.2528,0.1116,9.7960,2.1652,0.7184,0.6379
907.2578,-0.8457,1.5170,48.2656,1.6131,0.0000,-0.0000,-97.3197,6.8148,-30.6569,1483,1516,1.0000,-0.1590,-0.0331,9.7860,1.8168,0.5708,0.3704,-0.2887,-0.0967,9.7960,1.4095,2.8329,0.7829
907.2762,-0.8180,1.5179,48.2762,1.1780,0.0000,-0.0000,-94.1317,6.6651,-29.6894,1483,1516,1.0000,-0.2284,-0.1217,9.7549,1.4733,0.3037,0.6223,-0.1139,-0.0009,9.8774,0.8827,0.5581,0.5081
907.2957,-0.7955,1.5039,48.2879,0.9872,0.0000,-0.0000,-76.2803,6.5444,-24.6307,1486,1513,1.0000,-0.1614,-0.1265,9.7477,0.9848,0.2655,0.3781,-0.2552,-0.1134,9.8128,0.9896,0.5352,0.8669
907.3144,-0.7870,1.5078,48.3007,0.1246,0.0000,-0.0000,-75.4651,6.5039,-24.3822,1486,1513,1.0000,-0.2284,-0.1169,9.8363,1.1451,0.3647,0.6529,-0.2863,-0.0847,9.5925,-0.8959,0.7184,0.7219
907.3328,-0.7516,1.5121,48.3133,2.2696,0.0000,0.0000,-72.0675,6.3094,-23.3336,1487,1512,1.0000,-0.2619,-0.1624,9.8794,1.5649,0.0670,0.5842,-0.4012,-0.1493,9.6835,2.9744,0.2909,0.8287
907.3513,-0.7202,1.5150,48.3255,1.6704,0.0000,-0.0000,-69.0616,6.1379,-22.4062,1487,1512,1.0000,-0.2931,-0.1289,9.7453,1.8168,-0.3223,0.6300,-0.2528,-0.0823,9.6093,1.5240,-0.1976,0.6837
907.3697,-0.6738,1.5047,48.3348,2.1513,0.0000,0.0000,-64.6073,5.8799,-21.0300,1488,1511,1.0000,-0.2524,-0.0930,9.7070,2.2977,-0.4597,0.4391,-0.2648,-0.1062,9.6189,2.0049,-0.5793,0.5463
907.3881,-0.6186,1.4564,48.3428,2.9147,0.0000,0.0000,-59.3153,5.5715,-19.3941,1489,1510,1.0000,-0.0680,-0.1098,9.7884,3.0306,-0.5131,0.5155,-0.1977,-0.0991,9.6835,2.7988,-0.3732,0.3326
907.4065,-0.5492,1.4439,48.3514,3.5406,0.0000,0.0000,-52.6678,5.1819,-17.3379,1490,1509,1.0000,-0.2380,-0.0858,9.7525,3.5955,-0.7421,0.4315,-0.2743,-0.1134,9.6859,3.4858,-0.3808,0.4852
907.4249,-0.4634,1.4501,48.3574,4.1933,0.0000,0.0000,-44.4320,4.6969,-14.7894,1491,1508,1.0000,-0.3146,-0.0547,9.7741,4.3588,-0.6429,0.2177,-0.2265,-0.0967,9.6596,4.0278,-0.2205,0.4165
907.4433,-0.3737,1.4554,48.3595,4.8880,0.0000,0.0000,-35.8313,4.1894,-12.1275,1493,1506,1.0000,-0.3098,-0.0834,10.0350,4.8703,-0.4215,0.0956,-0.2552,-0.0560,9.7434,4.9056,-0.2358,0.1417
907.4618,-0.2539,1.4293,48.3634,6.0368,3.4102,25.1200,-84.6371,3.5094,-25.4531,1486,1513,1.0000,-0.1566,-0.0260,9.8219,6.0229,-0.3299,0.2865,-0.2145,-0.0081,9.6620,6.0507,-0.3656,0.0959
907.4802,-0.1058,1.4262,48.3672,7.2658,3.9885,31.4625,-85.6537,2.6661,-25.3161,1486,1513,1.0000,-0.2524,0.0243,9.8172,7.2748,-0.2002,0.1338,-0.1977,0.0087,9.6931,7.2568,-0.2892,0.2562
907.4986,0.0507,1.4194,48.3684,8.0826,4.6026,33.3076,-75.0748,1.7735,-21.9077,1487,1512,1.0000,-0.2260,0.0147,9.8459,8.1603,-0.2765,0.0040,-0.2432,0.0781,9.8248,8.0049,-0.0068,0.1341
907.5170,0.2468,1.4175,48.3675,8.3536,5.1653,30.5094,-49.5539,-1.4094,-13.1704,1492,1507,1.0000,-0.2548,0.2039,9.8315,8.4886,-0.2994,-0.0723,-0.1977,0.1930,9.7673,8.2186,-0.1289,-0.1331
907.5354,0.4694,1.4307,48.3632,8.7277,5.6996,29.0920,-24.8093,-2.6828,-5.6052,1496,1503,1.0000,-0.3218,0.3356,9.8339,8.8245,-0.1925,-0.2937,-0.2624,0.2289,9.7625,8.6308,-0.1671,-0.3239
907.5539,0.6607,1.3863,48.3559,8.7582,6.1584,24.7648,4.7020,-3.7797,3.2064,1501,1498,1.0000,-0.0465,0.2158,9.8866,8.9542,-0.1085,-0.4082,-0.0541,0.2098,9.8463,8.5621,-0.0450,-0.4461
907.5724,0.8193,1.3553,48.3464,9.0521,6.5925,23.5093,26.5671,-4.6919,9.7847,1505,1494,1.0000,-0.0991,0.0698,9.8866,9.2825,-0.0933,-0.4998,-0.0445,0.2529,9.7649,8.8217,-0.0068,-0.4842
907.5908,1.0116,1.3345,48.3373,9.1475,6.9757,20.8599,56.3327,-5.7985,18.6724,1510,1489,1.0000,-0.1111,0.2566,9.9057,9.3054,0.0747,-0.4922,-0.1451,0.2289,9.7098,8.9896,0.5123,-0.5606
907.6092,1.1849,1.3298,48.3276,9.1017,7.2946,17.3004,86.5187,-6.7978,27.6241,1515,1484,1.0000,-0.1710,0.2015,9.8890,9.2596,0.3800,-0.4922,-0.2001,0.1404,9.8391,8.9438,0.4589,-0.5835
907.6276,1.3471,1.3425,48.3118,8.4834,7.4729,9.6912,127.0957,-7.7357,39.4547,1521,1478,1.0000,-0.1422,0.2326,9.8722,8.7252,0.7311,-0.8662,-0.0445,0.2313,9.6955,8.2415,2.8482,-0.9346
907.6460,1.4947,1.3170,48.2974,7.9528,7.5449,3.9228,160.6990,-8.5922,49.2919,1527,1472,1.0000,0.0182,0.2422,9.9369,8.1374,1.3953,-0.8128,0.0082,0.2242,9.6644,7.7682,1.5810,-0.8201
907.6644,1.6276,1.2771,48.2815,7.7620,7.5775,1.7691,182.1877,-9.3657,55.6954,1530,1469,1.0000,0.0948,0.2063,9.8195,7.9313,1.4334,-0.7365,-0.0636,0.3822,9.7218,7.5927,1.5963,-1.0568
907.6828,1.7565,1.3094,48.2657,7.7238,7.5994,1.1941,198.6775,-10.1181,60.6887,1533,1466,1.0000,-0.1662,0.2182,9.8052,7.9008,3.0823,-0.9044,-0.2360,0.2098,9.5901,7.5469,1.4589,-0.9117
907.7011,1.8725,1.2996,48.2496,7.3193,7.5574,-2.2875,222.0568,-10.7982,67.5750,1537,1462,1.0000,-0.1734,0.2158,9.8124,7.4199,-0.7803,-0.7670,-0.2696,0.2122,9.5662,7.2186,0.9321,-0.9499
907.7195,1.9669,1.3041,48.2350,6.9147,7.4610,-5.2398,241.4245,-11.3561,73.2769,1540,1459,1.0000,-0.1781,0.1656,9.6615,7.0840,0.6701,-0.8586,-0.3893,0.1763,9.6189,6.7453,0.6344,-0.6751
907.7379,2.0434,1.3013,48.2200,6.2887,7.2852,-9.5525,262.6483,-11.8125,79.4478,1543,1456,1.0000,-0.1303,0.1512,9.7334,6.6794,0.6624,-0.7365,-0.0541,0.1835,9.5638,5.8980,1.1993,-0.8659
907.7563,2.0779,1.3084,48.2028,5.3345,6.9926,-15.9594,285.0727,-12.0301,85.8354,1547,1452,1.0000,-0.1566,0.0506,9.6807,5.5802,1.1434,-0.9655,-0.1594,0.2026,9.4585,5.0889,1.0543,-0.8277
907.7747,2.1526,1.3098,48.1906,6.1780,6.8704,-6.6323,266.8064,-12.4774,80.9445,1544,1455,1.0000,-0.1374,0.1751,9.7190,5.6565,0.9907,-0.6983,-0.3222,0.2577,9.4824,6.6995,1.0237,-0.5987
907.7938,2.1810,1.3270,48.1709,5.1208,6.6079,-13.7586,290.5888,-12.6606,87.6952,1548,1451,1.0000,-0.2500,0.0554,9.7238,5.2596,0.3876,-0.9197,-0.3222,0.1643,9.6308,4.9820,0.6726,-1.0186
907.8124,2.2176,1.3485,48.1511,4.5635,6.3013,-16.4245,302.4869,-12.8919,91.1423,1550,1449,1.0000,-0.2691,0.1488,9.5969,4.6642,0.4029,-1.1029,-0.2145,0.1715,9.4776,4.4629,0.7413,-0.9423
907.8317,2.2456,1.3733,48.1304,3.8193,5.9290,-19.3499,314.1265,-13.0735,94.4922,1551,1448,1.0000,-0.3170,0.1751,9.6376,3.9466,0.0289,-1.1181,-0.0469,0.1978,9.4154,3.6919,0.4589,-0.9423
907.8512,2.2937,1.3807,48.1079,4.1551,5.6629,-13.5979,303.0973,-13.3707,91.5526,1550,1449,1.0000,-0.1279,0.2302,9.4077,4.4123,0.3647,-1.2861,-0.1115,0.2864,9.8343,3.8980,2.7566,-1.0415
907.8708,2.3513,1.3990,48.0833,5.0063,5.5644,-5.0353,285.0628,-13.7224,86.6788,1547,1452,1.0000,-0.2524,0.2111,9.4532,4.8703,0.5021,-1.3166,-0.3366,0.2146,9.6763,5.1423,0.6497,-1.1484
907.8898,2.4302,1.4370,48.0760,5.2315,5.5145,-2.6321,287.2303,-14.1969,87.5230,1548,1451,1.0000,-0.4008,0.3092,9.6663,5.2748,0.2044,-1.3090,-0.2552,0.2074,9.6715,5.1881,-0.0755,0.6608
907.9085,2.5026,1.4619,48.0491,5.8536,5.5653,2.7186,280.1502,-14.6346,85.7593,1547,1452,1.0000,-0.3793,0.2446,9.6160,5.8321,-0.2078,-1.3777,-0.3988,0.2242,9.5327,5.8751,-0.5564,-1.3697
907.9277,2.5811,1.4353,48.0211,6.7887,5.7488,9.5531,269.4934,-15.1075,83.0119,1545,1454,1.0000,-0.1518,0.1943,9.5634,6.5649,-0.4292,-1.3777,-0.3510,0.2696,9.7027,7.0125,-0.3427,-1.3621
907.9472,2.7114,1.4078,47.9934,7.3154,5.9838,12.0247,277.3696,-15.8773,85.6022,1547,1452,1.0000,-0.1494,0.3858,9.7022,7.1832,-0.3681,-1.4006,-0.2791,0.3846,9.6883,7.4476,-0.4266,-1.3621
907.9667,2.8415,1.4440,47.9646,7.8193,6.2591,14.1221,286.3040,-16.6475,88.4889,1548,1451,1.0000,-0.4463,0.3667,9.7693,7.9619,-0.6047,-1.4464,-0.3486,0.3894,9.6811,7.6766,-0.6022,-1.3926
907.9857,2.9247,1.4769,47.9363,7.2773,6.4119,8.0431,313.3828,-17.1509,96.3226,1552,1447,1.0000,-0.4439,0.2374,10.0422,7.7634,-0.5818,-1.4616,-0.1522,0.5809,9.1831,6.7911,-0.3045,-1.3239
908.0044,3.0334,1.5306,47.9106,6.6284,6.4443,1.7365,344.0550,-17.8008,105.2358,1557,1442,1.0000,-0.4846,0.4289,9.7908,7.0611,0.2350,-1.4158,-0.3342,0.5234,9.3148,6.1957,-0.0068,-1.3010
908.0260,3.1840,1.5011,47.8817,6.0559,6.3861,-2.7029,374.1723,-18.6911,114.1138,1562,1437,1.0000,-0.1925,0.5726,9.3383,6.4886,-0.9711,-1.4998,-0.2815,0.5785,9.7553,5.6232,-0.5182,-1.1255
908.0459,3.3053,1.4958,47.8564,5.1933,6.2072,-8.9815,406.2166,-19.4157,123.4485,1567,1432,1.0000,-0.2835,0.6253,9.7717,5.5802,-0.8414,-1.2479,-0.4515,0.4516,9.9972,4.8064,-0.5259,-1.2629
908.0657,3.3873,1.4842,47.8293,3.9070,5.8621,-17.4038,439.9046,-19.9168,133.1317,1573,1426,1.0000,-0.3242,0.5870,9.8028,4.5497,-1.2841,-1.3471,-0.3270,0.5067,9.4465,3.2644,-1.6556,-1.2323
908.0861,3.4485,1.5017,47.8010,2.9109,5.4195,-21.7841,459.5632,-20.3001,138.8278,1576,1423,1.0000,-0.4678,0.5941,9.8842,3.5115,-1.5895,-1.5609,-0.4252,0.5761,9.4704,2.3102,-1.7244,-1.0033
908.1052,3.4965,1.5089,47.7575,2.5406,4.9876,-22.5680,467.3435,-20.6086,141.1605,1577,1422,1.0000,-0.4008,0.6037,9.8986,2.1374,-1.5513,-1.3777,-0.3893,0.5139,9.5399,2.9438,-1.1824,-3.1942
908.1240,3.5011,1.5024,47.7290,0.5406,4.3206,-35.4647,505.0135,-20.6698,151.7387,1583,1416,1.0000,-0.3433,0.5846,10.0159,1.0764,-1.4215,-1.5151,-0.2815,0.5665,9.5207,0.0049,-1.2129,-1.3239
908.1435,3.5044,1.4676,47.7019,-0.4250,3.6087,-36.5757,508.6016,-20.7241,152.7705,1584,1415,1.0000,-0.2284,0.6444,9.7094,0.0535,-1.6124,-1.3853,-0.3270,0.6407,9.8846,-0.9035,-1.5335,-1.2247
908.1633,3.4842,1.4547,47.6666,-0.4441,3.0008,-30.7031,489.3625,-20.6437,147.3434,1581,1418,1.0000,-0.3290,0.5630,9.9752,-0.3969,-1.5895,-1.7059,-0.3294,0.6024,9.7242,-0.4913,-1.6022,-1.6369
908.1830,3.4711,1.4569,47.6282,-0.2075,0.0000,-0.0000,399.4268,-20.6036,122.1413,1567,1432,1.0000,-0.3960,0.5941,10.3846,-0.1221,-1.5360,-1.9120,-0.2696,0.5593,9.4201,-0.2928,-1.3121,-1.7667
908.2022,3.4768,1.4519,47.5873,0.1666,0.0000,-0.0000,400.0805,-20.6707,122.3579,1567,1432,1.0000,-0.3122,0.6181,9.9824,0.3894,-1.2460,-2.0342,-0.2384,0.6695,9.4106,-0.0562,-0.7931,-2.1255
908.2209,3.4781,1.5266,47.5497,0.9528,0.0000,-0.0000,400.2340,-20.7131,122.4221,1567,1432,1.0000,-0.5421,0.5175,9.7046,1.0840,1.1510,-2.1487,-0.2528,0.5617,9.8032,0.8217,-0.3198,-1.8735
908.2402,3.5255,1.5063,47.5069,2.2658,0.0000,0.0000,405.6902,-21.0186,124.1026,1568,1431,1.0000,-0.1494,0.6253,9.8746,2.1298,-0.0780,-2.3471,-0.4324,0.4779,9.9397,2.4018,0.2375,-2.0949
908.2599,3.5882,1.5508,47.4612,4.5788,0.0000,0.0000,412.9001,-21.4116,126.3178,1569,1430,1.0000,-0.4080,0.4936,9.8291,4.0458,0.2502,-2.3700,-0.3198,0.5258,9.9732,5.1118,0.5886,-2.2705
908.2796,3.7311,1.5628,47.4166,6.9338,3.0882,34.4503,330.1245,-22.2633,103.5665,1556,1443,1.0000,-0.2811,0.6444,9.7358,6.3894,0.2350,-2.2632,-0.2576,0.7006,9.7458,7.4782,0.3062,-2.3239
908.2988,3.8989,1.5418,47.3696,9.2925,4.0188,48.2371,309.7297,-23.2588,98.3537,1554,1445,1.0000,-0.1494,0.5941,9.8172,9.1145,0.1510,-2.4158,-0.3581,0.6671,9.9876,9.4705,0.0085,-2.4384
908.3176,4.0571,1.6174,47.3264,10.0788,4.9278,48.3746,327.5428,-24.2012,103.8126,1557,1442,1.0000,-0.5540,0.5295,9.8531,10.2825,0.4105,-2.4006,-0.3893,0.6479,9.4417,9.8751,0.7108,-2.1789
908.3368,4.2509,1.6241,47.2798,9.9643,5.6833,39.4874,375.4375,-25.3483,117.7966,1564,1435,1.0000,-0.2236,0.7234,10.0135,10.4275,0.9220,-2.4464,-0.0876,0.9017,9.3555,9.5011,0.8329,-2.5682
908.3564,4.4503,1.5943,47.2318,9.3765,6.2373,28.2793,430.6691,-26.5296,133.8521,1573,1426,1.0000,-0.0608,0.7809,9.5873,10.0840,0.8227,-2.4540,-0.3126,0.8778,9.6260,8.6690,0.6726,-2.6064
908.3766,4.6621,1.6177,47.1832,9.4452,6.7185,23.8075,467.9268,-27.7836,144.9113,1579,1420,1.0000,-0.2811,0.8503,9.6903,9.4275,0.5403,-2.5074,-0.3174,0.7509,9.9038,9.4629,1.1459,-2.4919
908.3958,4.8605,1.6386,47.1341,8.6170,7.0032,14.7758,516.7698,-28.9631,159.1771,1587,1412,1.0000,-0.3026,0.9557,9.8339,8.6871,0.7464,-2.6143,-0.3510,0.7964,9.6404,8.5469,0.3902,-2.6827
908.4146,5.0154,1.6394,47.0890,7.8612,7.1319,6.8452,557.4341,-29.8960,171.0295,1594,1405,1.0000,-0.2452,0.8695,9.7741,7.8245,0.1815,-2.5990,-0.3581,0.8275,9.3579,7.8980,0.2527,-2.2476
908.4337,5.1327,1.6647,47.0422,6.4490,7.0295,-5.3862,606.1582,-30.6158,185.0322,1601,1398,1.0000,-0.3601,0.8431,9.8722,7.5878,0.2044,-2.4387,-0.3174,0.8131,9.5949,5.3102,0.2680,-2.5377
908.4532,5.1985,1.7154,46.9924,3.2009,6.4552,-29.4103,682.9184,-31.0428,206.7385,1613,1386,1.0000,-0.4367,0.9030,9.8363,4.1374,0.7693,-2.7135,-0.3031,0.7629,9.4561,2.2644,0.5352,-2.5224
908.4728,5.2104,1.7513,46.9337,0.3536,5.5400,-46.6741,734.0074,-31.1627,221.1034,1621,1378,1.0000,-0.4080,0.9197,9.8100,1.3130,0.3342,-2.9884,-0.1570,0.8036,9.3435,-0.6058,0.2604,-3.0949
908.4921,5.1759,1.7194,46.8760,-0.7952,4.5897,-49.1259,737.1009,-31.0179,221.8972,1622,1377,1.0000,-0.0991,0.7976,9.5921,-0.3358,-0.0627,-3.1563,-0.2336,0.7557,9.7721,-1.2547,0.8711,-2.8201
908.5109,5.1190,1.7704,46.8173,-1.0319,3.7465,-45.0576,718.8346,-30.7448,216.6461,1619,1380,1.0000,-0.4487,0.7043,9.5394,-1.0076,0.5708,-3.2937,-0.2528,0.6647,9.5494,-1.0562,0.5505,-2.9575
908.5298,5.0394,1.8045,46.7556,-1.5815,0.0000,-0.0000,579.9100,-30.3415,177.5456,1597,1402,1.0000,-0.3864,0.6636,9.8770,-0.6870,0.4945,-3.3624,-0.4395,0.5570,9.4225,-2.4760,0.6497,-3.0949
908.5494,4.9152,1.8223,46.6870,-1.3296,0.0000,-0.0000,565.6219,-29.6830,173.2157,1595,1404,1.0000,-0.3314,0.4289,9.5969,-0.8397,0.3876,-3.4387,-0.4228,0.5570,9.5877,-1.8195,0.1001,-3.3010
908.5691,4.8097,1.8256,46.6167,-1.6846,0.0000,-0.0000,553.4787,-29.1297,169.5389,1593,1406,1.0000,-0.2979,0.5295,9.6687,-1.3511,-0.0398,-3.4998,-0.5138,0.4612,9.6428,-2.0180,-0.0755,-3.4308
