timestamp,roll_deg,pitch_deg,yaw_deg,omega_raw,omega_filtered,alpha,tau_ff,tau_pid,tau_total,pwm_left,pwm_right,deadzone_factor,accel1_x,accel1_y,accel1_z,gyro1_x,gyro1_y,gyro1_z,accel2_x,accel2_y,accel2_z,gyro2_x,gyro2_y,gyro2_z
6.9046,12.6257,0.3639,-11.1499,-2.9332,25.4123,-266.5914,2221.1080,-254.0642,748.9423,1911,1088,1.0000,-0.4853,4.0803,8.7187,-1.0110,4.0414,8.8773,-1.2390,2.9909,9.0903,-4.8553,3.3031,8.9298
6.9237,12.7255,0.3879,-10.9615,-9.3759,20.1940,-273.2234,2251.7081,-256.1881,758.5723,1917,1082,1.0000,-0.3345,3.3764,9.3460,-7.0645,0.2322,9.7780,-0.0634,3.6206,9.8014,-11.6874,0.5474,10.0825
6.9429,12.7054,0.4416,-10.7471,-22.9332,13.7250,-336.1159,2430.5273,-255.9139,808.5046,1944,1055,1.0000,-0.2866,3.6804,8.4098,-18.2248,1.2551,10.2360,-0.1831,3.1752,9.4327,-27.6416,3.7535,11.2734
6.9628,12.0146,0.5858,-10.4934,-33.6164,6.6238,-357.2151,2411.7219,-242.2176,796.3909,1938,1061,1.0000,-0.6194,1.8776,8.7498,-31.8507,3.0108,12.8925,0.4298,1.6022,10.4550,-35.3820,3.2421,11.8459
6.9814,11.5501,0.7833,-10.2449,-36.8759,0.0000,-0.0000,1329.4415,-233.0426,488.7649,1768,1231,1.0000,-0.6433,2.8975,8.8863,-34.4996,7.2169,11.7093,-0.8248,1.5089,10.3448,-39.2523,5.6695,12.7085
7.0000,10.7759,0.5705,-9.9780,-43.4675,-6.4361,-350.3581,2249.3149,-217.6665,738.6414,1906,1093,1.0000,0.8961,1.8848,8.5296,-42.1866,3.0643,13.3505,-1.4760,1.9350,9.7056,-44.7484,5.0207,13.9680
7.0185,9.8978,0.6913,-9.7089,-45.8568,-12.3492,-319.4034,2059.0514,-200.2032,676.6360,1872,1127,1.0000,-0.3991,1.5999,9.1712,-45.7439,6.0032,13.2284,-0.2430,1.8393,8.8604,-45.9698,4.4863,14.4260
7.0370,8.9108,0.7891,-9.4291,-46.2080,-17.4281,-275.2810,1818.3417,-180.5525,599.4119,1829,1170,1.0000,-0.4566,1.0324,9.6285,-47.0797,2.9650,14.2513,-0.0275,1.6573,9.5069,-45.3362,4.5627,15.4413
7.0554,7.8463,0.8180,-9.1579,-47.4828,-21.9363,-244.7995,1608.0055,-159.3405,529.9118,1791,1208,1.0000,-0.2387,0.5871,9.3196,-47.7057,3.0185,13.7627,-0.3244,1.1833,9.5643,-47.2599,1.3947,15.5940
7.0738,6.7205,0.8865,-8.8801,-45.1049,-25.4116,-189.0542,1317.8768,-136.8930,437.4520,1740,1259,1.0000,-0.2938,-0.0761,9.2550,-45.9500,2.4536,14.5872,-0.3052,1.4347,9.5284,-44.2599,4.6314,15.4108
7.0922,5.7551,0.9672,-8.5952,-44.0935,-28.2139,-152.1468,1100.4662,-117.6423,366.9517,1701,1298,1.0000,-0.4039,0.4147,9.6165,-44.6675,2.4994,15.1597,-0.2669,0.4028,10.6058,-43.5194,3.4405,15.5634
7.1106,4.7614,1.1821,-8.3182,-40.5668,-30.0668,-100.7007,837.9349,-97.8156,283.5296,1655,1344,1.0000,-1.0623,-0.1982,9.8512,-41.6065,3.6368,14.9383,-0.5662,0.0819,9.6003,-39.5271,1.6772,15.3573
7.1291,3.8255,1.2092,-8.0361,-38.4790,-31.3286,-68.2884,636.8820,-79.1359,217.8949,1619,1380,1.0000,-0.1549,-0.2676,10.3875,-38.2858,1.9956,15.3582,-0.3363,-0.3442,10.1389,-38.6721,4.3413,15.2123
7.1475,3.0340,1.2711,-7.7656,-35.3759,-31.9357,-32.9730,444.0899,-63.3363,156.0133,1585,1414,1.0000,-0.3153,-0.0114,9.9900,-36.2706,3.8276,14.2131,-0.8080,-0.4999,10.8141,-34.4813,1.7917,15.2047
7.1660,2.0783,1.1616,-7.4920,-36.8225,-32.6687,-39.7267,294.6395,-44.2436,104.6209,1557,1442,1.0000,0.5418,-0.8087,9.7482,-36.6446,2.3544,14.4345,0.9781,0.2088,10.6537,-37.0003,4.9138,15.4413
7.1844,1.1220,1.1880,-7.2312,-34.3187,-32.9162,-13.4503,139.8702,-25.1280,51.7277,1528,1471,1.0000,0.1444,-1.1990,9.8152,-36.7057,7.3620,14.2208,0.4897,-0.7393,10.0216,-31.9316,4.1505,14.4108
7.2027,0.3503,1.1814,-6.9792,-28.6126,-32.2707,35.1129,-60.8196,-9.6971,-12.1810,1493,1506,1.0000,0.2258,-1.0625,10.5479,-27.2171,3.2856,13.7093,-0.3723,-0.9093,10.9865,-30.0080,5.5932,14.0596
7.2212,-0.5308,1.1753,-6.7375,-34.4484,-32.5973,-17.6529,-10.2411,10.6218,-8.1784,1495,1504,1.0000,0.1827,-1.0792,9.6213,-35.2706,4.7208,13.1444,-0.4824,-0.8015,9.6553,-33.6263,3.0589,13.4337
7.2397,-1.0446,1.1680,-6.5044,-21.9523,-31.0006,86.5453,-369.4523,20.9025,-113.8979,1437,1562,1.0000,-0.3369,-0.6531,10.8064,-23.2477,-0.7144,12.6940,-0.4967,-1.5581,9.1693,-20.6568,-3.1625,12.7619
7.2582,-1.6688,0.9440,-6.2886,-16.8874,-28.8836,114.3512,-521.3583,33.4029,-162.6818,1410,1589,1.0000,0.3910,-1.7592,10.2630,-16.0110,-6.8976,12.1215,0.4370,-0.5070,10.4741,-17.7637,-4.7198,11.5176
7.2767,-2.1710,0.8863,-6.0726,-25.7385,-28.4118,25.5163,-323.3058,43.4691,-112.2602,1438,1561,1.0000,-0.1908,-0.3538,8.3500,-23.9958,-3.7754,11.8773,0.2143,-0.9260,10.0575,-27.4813,-4.6205,11.2505
7.2951,-2.5912,0.8566,-5.8707,-15.4141,-26.4622,105.8258,-602.9506,51.8990,-194.7757,1392,1607,1.0000,-0.1645,-1.0338,9.9709,-17.2706,-2.5006,11.2589,0.1760,-1.1152,8.8317,-13.5576,-1.7656,10.7237
7.3135,-2.9664,0.9044,-5.6744,-12.0286,-24.2971,118.0186,-681.2374,59.4319,-220.4624,1378,1621,1.0000,-0.5452,-1.1822,9.7075,-12.1713,-0.8060,10.9460,0.5639,-0.6938,9.9761,-11.8858,-4.0327,10.5176
7.3319,-3.1041,0.9434,-5.4908,-10.8377,-22.2782,109.4441,-672.3870,62.2166,-219.3766,1379,1620,1.0000,-0.3776,-0.2102,9.3771,-11.4385,-0.7296,9.8773,0.1736,-0.7465,9.1956,-10.2370,-1.4755,9.8306
7.3503,-3.3457,0.8100,-5.3112,-8.8416,-20.2627,109.6818,-700.8822,67.0835,-229.7887,1373,1626,1.0000,0.0199,-0.9045,9.5399,-10.1332,-5.0197,9.5261,0.3436,0.0221,8.9897,-7.5500,-6.2618,9.5482
7.3686,-3.3061,0.8509,-5.1372,-7.7919,-18.3921,101.8900,-673.8779,66.3233,-221.8475,1377,1622,1.0000,-0.3417,0.2447,9.2813,-7.4309,-1.1724,9.1597,0.0443,0.6661,9.3369,-8.1530,-0.4297,9.4642
7.3871,-3.3982,0.5726,-4.9579,-11.5935,-17.3723,55.3793,-550.5265,68.1994,-188.2472,1396,1603,1.0000,0.6567,0.0005,9.6069,-12.4843,-6.9968,9.6482,1.0236,-0.5214,10.2922,-10.7026,-5.1549,8.9222
7.4055,-3.3768,0.3858,-4.7952,-1.5706,-15.0021,128.5806,-758.8850,67.8054,-246.3905,1364,1635,1.0000,0.8147,-0.3514,10.1313,-4.0950,0.1253,8.9841,0.9398,-0.7704,9.0424,0.9539,-0.6892,8.6092
7.4239,-3.2681,0.3821,-4.6372,-4.4103,-13.4133,86.4056,-624.9122,65.6641,-207.8075,1385,1614,1.0000,-0.1358,0.2639,9.1281,-1.1790,-0.9128,8.5643,0.3508,0.9438,10.5148,-7.6416,-2.1320,8.3268
7.4424,-3.3456,0.3916,-4.4776,-13.4294,-13.4157,-0.1305,-384.6059,67.2475,-141.3134,1422,1577,1.0000,-0.2602,0.2208,9.5399,-13.4309,-2.2563,8.4727,-0.0275,0.2184,9.5524,-13.4278,-2.3228,8.4566
7.4608,-3.4190,0.4233,-4.3190,-7.3874,-12.5114,49.0741,-534.7608,68.7494,-184.1077,1398,1601,1.0000,-0.3321,-0.2963,10.1337,-9.1103,-1.6685,8.4192,-0.3746,-0.1072,9.2746,-5.6645,-1.8953,8.5787
7.4791,-3.4327,0.4148,-4.1585,-6.5629,-11.6192,48.5683,-534.8885,69.0592,-184.2984,1398,1601,1.0000,0.0438,-0.1072,9.8751,-6.6217,0.1788,8.3047,-0.0490,0.5680,9.9019,-6.5042,0.5321,9.1665
7.4976,-3.6692,0.4186,-4.0022,-15.3454,-12.1781,-30.3281,-334.8745,73.8244,-130.6771,1428,1571,1.0000,-0.0974,-0.3538,8.8097,-14.1637,-0.5540,8.0834,-0.1161,0.3094,9.8181,-16.5271,-1.0022,8.7924
7.5160,-3.8375,0.4793,-3.8453,-13.5515,-12.3841,-11.1529,-409.4706,77.2294,-153.2665,1415,1584,1.0000,-0.3967,-0.2652,10.2127,-14.2324,-0.4472,8.2666,-0.5614,-0.1288,9.6721,-12.8706,-1.4450,8.5863
7.5344,-4.0131,0.5127,-3.6838,-16.0629,-12.9359,-30.0361,-375.2923,80.7810,-145.4724,1419,1580,1.0000,-0.2579,-0.1096,9.6907,-14.3851,-1.1113,8.6177,-0.3627,-0.0258,10.2012,-17.7408,-0.6892,8.7848
7.5529,-4.2999,0.4968,-3.5179,-17.3912,-13.6042,-36.1617,-390.6646,86.5615,-152.6668,1416,1583,1.0000,-0.0855,-0.5358,9.9326,-18.4156,-1.4014,8.7398,-0.0921,-0.6914,9.7439,-16.3668,-1.5824,9.0138
7.5713,-4.5983,0.4818,-3.3528,-16.6278,-14.0578,-24.6136,-458.2615,92.5750,-174.6007,1403,1596,1.0000,-0.0160,-0.6962,9.5375,-15.4767,-0.3174,8.8467,-0.0107,-0.3802,10.0312,-17.7790,-1.1625,9.0062
7.5897,-4.9068,0.5354,-3.1843,-21.6813,-15.2013,-62.1901,-385.5478,98.7946,-157.3507,1413,1586,1.0000,-0.2291,-0.3682,9.5734,-19.9194,0.7208,9.1368,-0.1807,-0.4209,9.8325,-23.4431,-0.0098,9.2505
7.6082,-5.2756,0.5566,-3.0087,-21.6087,-16.1624,-51.8879,-457.6568,106.2223,-181.2551,1400,1599,1.0000,-0.1645,-0.7010,9.8631,-21.9423,-0.8136,9.3505,-0.2573,-0.9524,9.5188,-21.2752,-0.3457,9.5558
7.6267,-5.6944,0.6122,-2.8311,-21.8912,-17.0217,-46.6399,-520.9700,114.6550,-203.1991,1388,1611,1.0000,-0.2100,-0.9715,9.6022,-21.2629,0.5376,9.4727,-0.1568,-0.7896,9.9546,-22.5194,0.8375,10.0596
7.6450,-6.1101,0.6816,-2.6517,-25.3034,-18.2640,-67.6664,-508.2663,123.0314,-203.8303,1387,1612,1.0000,-0.2315,-0.7465,9.6788,-24.4461,1.4307,9.6711,-0.1616,-0.9356,9.7176,-26.1606,1.0360,10.2047
7.6635,-6.5757,0.7036,-2.4673,-23.9981,-19.1241,-46.6390,-622.4113,132.4084,-240.4794,1367,1632,1.0000,-0.1310,-1.1678,9.8033,-24.7133,0.1711,9.9154,-0.2238,-1.0984,9.6218,-23.2828,-0.4679,10.2123
7.6819,-6.9731,0.7175,-2.2823,-20.9637,-19.4000,-14.9549,-759.4017,140.4258,-282.8454,1344,1655,1.0000,-0.0831,-1.1750,9.6692,-21.9500,-0.2411,9.9383,-0.2406,-1.0745,9.8732,-19.9774,0.0894,10.2581
7.7014,-7.6762,0.7876,-2.1747,-25.2843,-20.2827,-45.3435,-752.8170,154.5648,-288.0712,1341,1658,1.0000,-0.2674,-2.1159,9.6381,-23.9881,0.7895,7.9765,-1.0738,-2.8701,10.0121,-26.5805,1.1734,3.6092
7.7201,-8.6799,0.7770,-2.2023,-23.7194,-20.7982,-27.5860,-919.5079,174.7264,-344.8254,1310,1689,1.0000,-0.1884,-4.2061,9.9685,-27.5530,1.1177,-1.0082,-0.2741,-2.7169,8.3026,-19.8858,-3.0404,-1.4289
7.7391,-9.0127,0.5830,-2.2793,-10.5171,-19.2560,80.9638,-1270.4444,181.4723,-446.4605,1254,1745,1.0000,0.9752,-2.1159,9.9134,-11.1103,1.6368,-2.9548,0.6405,-2.7241,9.1884,-9.9240,4.2268,-4.2763
7.7593,-9.3028,0.4501,-2.4306,-4.5210,-17.0458,109.6427,-1386.4388,187.3672,-481.8865,1234,1765,1.0000,0.6831,-2.4990,10.0116,-3.9500,3.7131,-6.2067,0.0826,-1.9316,10.7662,-5.0919,2.6161,-7.8869
7.7792,-9.3066,0.5534,-2.5887,-6.8683,-15.5191,76.5539,-1291.5778,187.5358,-455.4097,1249,1750,1.0000,-0.6170,-1.0529,10.1744,-7.5072,1.2017,-8.0006,-0.1328,-0.9476,9.0879,-6.2294,-0.0862,-7.9785
7.7979,-9.1755,0.5009,-2.7316,-2.1240,-13.5099,107.7629,-1366.3707,185.0064,-475.0870,1238,1761,1.0000,-0.0304,-0.8757,10.5503,-2.6141,-1.1037,-7.9624,-0.1568,-0.2868,10.1629,-1.6339,-0.4908,-8.0091
7.8172,-8.9273,0.4307,-2.8542,0.8226,-11.3600,111.0204,-1347.1741,180.1312,-467.2743,1242,1757,1.0000,0.2401,-0.5477,10.0068,-0.0721,0.9116,-7.3594,-0.3818,-0.4639,9.2699,1.7172,1.0207,-5.2839
7.8369,-8.4276,0.4709,-2.9872,7.4294,-8.5416,143.4623,-1383.0804,170.2217,-472.3734,1240,1759,1.0000,-0.3440,0.0245,10.1409,7.0424,0.4765,-6.9701,-0.4896,0.1131,10.0097,7.8165,-0.4984,-7.0320
7.8564,-7.9581,0.4616,-3.1153,5.5058,-6.4345,107.7798,-1226.2576,160.9098,-423.8070,1266,1733,1.0000,-0.0831,0.1250,9.1784,4.6684,1.1177,-6.8250,-0.0227,1.0612,9.1621,6.3432,-0.4373,-6.6121
7.8755,-7.4495,0.5040,-3.2260,11.0668,-0.6821,24.6623,-928.3346,150.8127,-335.3400,1315,1684,1.0000,-0.2626,0.0029,9.8440,9.0424,0.1788,-6.0311,-0.3220,-0.6627,9.2699,13.0913,1.5398,-5.7266
7.8942,-6.9634,0.6175,-3.3203,15.0096,0.0000,0.0000,-801.3512,141.1599,-294.9583,1337,1662,1.0000,-0.4542,-0.3346,9.9709,14.8363,2.5452,-5.2678,-0.2980,-0.1120,10.2539,15.1829,2.5016,-4.4824
7.9133,-6.5148,0.7183,-3.4058,12.9485,0.0000,0.0000,-749.7187,132.2536,-276.0480,1348,1651,1.0000,-0.5571,-0.2892,9.4729,12.3325,0.8658,-4.5579,0.1353,0.4387,9.6817,13.5645,0.0131,-4.6198
7.9329,-5.8623,0.8214,-3.4860,15.0248,0.0375,1.2493,-678.2190,119.2628,-249.5327,1362,1637,1.0000,-0.4063,0.4866,10.4545,15.2256,1.9727,-4.0769,0.0108,0.1969,9.5236,14.8241,3.5856,-4.0396
7.9525,-5.5529,0.8210,-3.5627,10.2844,1.6129,20.6274,-698.4213,113.1309,-252.1234,1361,1638,1.0000,-0.1429,-0.5166,9.6093,11.3783,0.4612,-2.9166,0.0204,-0.6698,10.4454,9.1905,0.2192,-5.1770
7.9716,-5.3811,0.9028,-3.6313,7.3340,2.8683,14.6793,-661.5090,109.7471,-240.0961,1367,1632,1.0000,-0.2770,-0.8183,9.7410,8.0271,2.6979,-3.2373,0.0132,-0.1096,10.0264,6.6409,3.4787,-3.4366
7.9903,-4.9613,0.9921,-3.6849,5.7157,3.3096,5.4431,-586.6000,101.4018,-214.9489,1381,1618,1.0000,-0.3824,0.5560,9.9996,6.1340,2.8353,-2.8632,-0.2765,-1.0386,10.4478,5.2974,2.0741,-3.0091
8.0095,-4.8387,0.9812,-3.7392,1.6699,1.9478,-11.0697,-524.9366,98.9987,-196.4816,1391,1608,1.0000,0.0271,-0.4544,10.0140,1.7676,1.3162,-2.6113,0.5399,-0.3897,10.6130,1.5722,2.9138,-2.8793
8.0292,-4.8173,0.9618,-3.7988,0.7806,0.7461,-5.3429,-538.9655,98.6186,-200.2196,1389,1610,1.0000,0.0725,-0.7848,9.4777,0.8210,2.0490,-2.8861,-0.2501,-0.1671,9.3058,0.7401,1.9978,-2.8717
8.0489,-4.7625,1.0642,-3.8519,-2.4790,0.0000,-0.0000,-548.0479,97.5705,-202.2387,1388,1611,1.0000,-0.3440,-0.3801,10.1480,-1.2171,3.3315,-2.3976,-0.5686,-0.8877,10.3448,-3.7408,3.5016,-2.6350
8.0680,-4.9766,1.1916,-3.9050,-6.8797,0.0000,-0.0000,-572.6830,101.9014,-211.3019,1383,1616,1.0000,-0.6098,-1.1726,9.7075,-6.6904,1.8582,-2.7563,0.0635,-1.1774,9.8133,-7.0690,2.1886,-2.2457
8.0867,-5.2189,1.2240,-3.9636,-5.3683,0.0000,-0.0000,-600.5663,106.7991,-221.5581,1378,1621,1.0000,-0.1381,-1.5940,10.3539,-6.1713,2.8582,-2.6647,-0.0969,-1.2804,9.5811,-4.5652,2.8909,-2.8335
8.1062,-5.4236,1.2967,-4.0210,-5.5439,0.0000,-0.0000,-624.1327,110.9487,-230.2315,1373,1626,1.0000,-0.3273,-1.3330,9.8535,-4.1713,2.6979,-2.6571,-0.1687,-1.5366,10.2539,-6.9164,2.7001,-2.5282
8.1259,-5.7880,1.3331,-4.0838,-8.4141,0.0000,-0.0000,-666.0631,118.2929,-245.6441,1364,1635,1.0000,-0.2746,-1.7903,9.7195,-9.0492,2.1330,-2.9395,-0.2501,-1.5868,9.7391,-7.7790,0.8680,-2.6885
8.1452,-6.1171,1.2760,-4.1478,-6.1545,0.0000,-0.0000,-703.9487,124.9374,-259.5743,1357,1642,1.0000,0.0558,-1.9962,10.0618,-6.4003,0.3849,-2.9701,0.1808,-1.7832,9.6314,-5.9087,1.0131,-3.0854
8.1639,-6.3655,1.2028,-4.2194,-7.0362,-0.0023,-0.0287,-732.4542,129.9687,-270.0715,1351,1648,1.0000,0.2018,-1.6467,10.1816,-5.9118,1.4002,-3.4052,0.1521,-2.1519,9.9690,-8.1606,1.1123,-3.7877
8.1828,-6.7526,1.1655,-4.2988,-7.3377,-0.4980,-4.5922,-763.8611,137.7772,-282.7697,1344,1655,1.0000,-0.1334,-2.2117,9.6692,-7.7439,-0.3861,-4.1304,-0.2238,-2.3171,9.7271,-6.9316,-1.0022,-3.9251
8.2027,-7.1796,1.1178,-4.3928,-7.7461,-1.7218,-12.2172,-791.0505,146.3889,-294.6886,1337,1662,1.0000,-0.0136,-2.3625,9.7290,-7.6446,-0.2105,-4.3976,-0.0299,-1.5749,9.6505,-7.8477,0.9444,-4.5053
8.2229,-7.4528,1.0627,-4.5157,-6.8339,-2.7587,-11.1116,-825.6880,151.9284,-307.1568,1331,1668,1.0000,-0.0017,-1.8119,9.8488,-7.6828,0.4841,-4.9395,-0.0371,-1.9436,9.3513,-5.9851,-0.0175,-7.2076
8.2434,-7.8125,0.9925,-4.6138,-4.4255,-2.6487,1.0586,-902.1498,159.2015,-332.2027,1317,1682,1.0000,0.0702,-2.3266,9.3244,-4.7897,-0.5464,-3.5731,-0.0969,-1.7760,9.3082,-4.0614,0.8909,-5.7343
8.2625,-8.0689,0.8918,-4.7401,-5.2156,-2.8982,-2.7628,-920.6564,164.4095,-339.9886,1313,1686,1.0000,0.3790,-2.0226,9.6476,-4.8736,1.6979,-6.1685,0.3723,-2.3985,9.6505,-5.5576,2.3718,-6.3831
8.2813,-8.4163,0.8078,-4.9002,-3.5286,-2.3828,5.0227,-983.0688,171.4413,-360.9799,1301,1698,1.0000,0.3144,-2.7025,9.7171,-4.3316,2.1635,-7.2373,0.0204,-2.1279,9.1861,-2.7255,1.8222,-9.1541
8.3006,-8.5427,0.8206,-5.0562,-1.5591,-1.2485,7.0727,-1003.5237,174.0546,-368.0139,1297,1702,1.0000,-0.2100,-1.9196,10.0930,-1.4385,1.4002,-7.8021,-0.0155,-2.6499,9.7271,-1.6797,0.8985,-8.0625
8.3202,-8.8079,0.8389,-5.2298,0.4981,-0.1736,1.7936,-1018.8556,179.4474,-375.0033,1293,1706,1.0000,-0.4494,-2.7336,9.8057,-0.2095,-0.4166,-8.5197,-0.3124,-1.8670,9.2100,1.2058,-1.9335,-9.4213
8.3398,-8.8085,0.7948,-5.4193,2.9294,0.0000,0.0000,-1013.7545,179.5467,-373.6246,1294,1705,1.0000,-0.1765,-1.8071,10.0786,2.4012,-1.4090,-9.6800,-0.4489,-1.9819,9.5093,3.4577,-0.7579,-10.2152
8.3588,-8.6695,0.7767,-5.5998,4.1546,0.0000,0.0000,-997.7515,176.8533,-367.7971,1297,1702,1.0000,-0.2483,-1.2181,9.9182,3.9050,-0.7067,-10.1838,-0.1927,-2.6642,9.6673,4.4042,-0.7808,-9.2076
8.3775,-8.7929,0.7691,-5.8254,8.1432,0.0000,0.0000,-1011.9595,179.4095,-373.0534,1294,1705,1.0000,-0.3608,-2.6858,9.3172,7.0882,-1.2487,-11.8785,-0.1999,-1.4049,8.9442,9.1981,-1.2312,-12.6274
8.3968,-8.7052,0.6713,-6.0720,7.2195,0.0000,0.0000,-1001.8678,177.7434,-369.3947,1296,1703,1.0000,0.1132,-1.6562,9.3125,7.9279,-0.7754,-12.7029,-0.7912,-1.5461,9.3656,6.5111,-0.0175,-13.3144
8.4164,-8.4868,0.7415,-6.3395,8.8607,0.0000,0.0000,-976.7211,173.4597,-360.2118,1301,1698,1.0000,-0.6002,-1.1798,9.1975,8.3935,-1.0121,-13.6724,-0.4704,-2.5397,9.4327,9.3279,0.2802,-14.1694
8.4359,-8.3461,0.8046,-6.6453,12.0745,0.5216,10.6150,-991.0931,170.7289,-362.8705,1300,1699,1.0000,-0.4853,-1.8622,9.7841,10.9813,1.5376,-14.3136,0.1664,-1.9077,9.6457,13.1676,1.5550,-16.9022
8.4549,-8.2984,0.8170,-6.9380,12.3989,3.7374,51.2171,-1102.5389,169.8584,-393.6401,1283,1716,1.0000,-0.3081,-2.2285,9.4513,11.6378,1.5757,-15.2144,-0.3100,-1.2349,9.1908,13.1600,-0.0327,-15.4518
8.4738,-8.1093,0.7073,-7.2422,15.0592,6.5185,79.9366,-1163.4809,166.1573,-408.8533,1275,1724,1.0000,0.1683,-1.7855,9.4250,14.4317,-0.3403,-15.7869,-0.7984,-1.3881,9.4925,15.6867,0.1581,-16.7724
8.4930,-7.6546,0.7579,-7.5489,17.8455,8.2176,88.4044,-1135.5224,157.1394,-396.5160,1281,1718,1.0000,-0.5021,-0.8494,9.9014,18.2638,1.1253,-15.9319,-0.4130,-2.6427,9.2459,17.4271,-0.4144,-16.3984
8.5126,-7.4456,0.8527,-7.8521,21.7729,10.2509,103.8503,-1155.9480,153.0338,-400.1823,1279,1720,1.0000,-0.7439,-2.1638,9.2813,21.0806,-0.3708,-15.9319,-0.0442,-1.9412,9.6433,22.4653,-0.4221,-15.1007
8.5321,-7.0809,0.7484,-8.1794,27.1470,12.7853,129.6607,-1188.3008,145.8104,-405.6294,1276,1723,1.0000,0.0893,-2.0010,9.8081,26.0729,-0.6685,-16.4357,-0.6069,-1.8502,9.0113,28.2210,-0.7656,-17.3144
8.5512,-6.7076,0.6711,-8.5094,29.0439,15.2241,127.9190,-1140.3199,138.4121,-388.4956,1286,1713,1.0000,0.0175,-2.0010,9.6165,29.0882,-0.7602,-17.1151,-0.5614,-1.4671,8.8341,28.9997,-0.1625,-17.6579
8.5699,-6.0302,0.6032,-8.8308,34.4561,18.1089,154.3297,-1138.4081,124.9233,-381.2159,1290,1709,1.0000,0.1085,-0.9284,9.6093,33.2943,0.6139,-17.0693,-0.7553,-2.0729,8.5899,35.6180,0.5856,-17.4747
8.5891,-5.4693,0.7170,-9.1624,37.2424,20.9789,149.1446,-1058.9278,113.7616,-353.3806,1305,1694,1.0000,-0.6840,-1.6203,9.2263,36.1722,0.6597,-17.0540,0.2383,-1.4432,8.8054,38.3126,0.5932,-17.4137
8.6088,-4.7559,0.9428,-9.4944,39.6241,23.7757,142.3054,-957.1264,99.5411,-317.7659,1325,1674,1.0000,-1.1605,-1.1511,9.4178,38.6989,0.9269,-16.9701,0.2071,-1.1535,8.6833,40.5493,0.4711,-16.9251
8.6283,-4.2415,1.0926,-9.8286,41.1928,26.3883,133.7404,-873.2553,89.2947,-289.1588,1340,1659,1.0000,-0.8684,-1.9364,8.9916,39.8287,0.7208,-16.6800,0.9589,-0.5693,9.6769,42.5569,-0.0022,-17.2381
8.6474,-3.5912,1.0467,-10.1655,44.2729,29.0710,140.6877,-818.4289,76.3250,-267.3226,1352,1647,1.0000,-0.0256,-1.5629,9.5782,43.1264,0.4307,-17.1838,-0.5782,-0.2461,9.3872,45.4195,0.4329,-17.8640
8.6661,-2.8814,1.0834,-10.5104,44.1584,31.3341,121.0217,-680.1101,62.1579,-221.5098,1378,1621,1.0000,-0.3991,-1.0577,9.0994,44.6455,0.1330,-18.0082,-0.8248,-0.2700,9.1477,43.6714,-0.4144,-18.8640
8.6852,-2.1264,1.1314,-10.8731,42.8569,33.0625,90.1650,-420.3013,47.0791,-141.2239,1422,1577,1.0000,-0.4925,-0.7345,9.7027,42.4546,0.1406,-18.7869,-0.1687,-1.4528,9.7176,43.2592,-0.9106,-19.1236
8.7048,-1.5365,1.1054,-11.2659,44.7768,34.8196,89.8798,-363.0511,35.2968,-119.3027,1434,1565,1.0000,-0.2148,-1.6802,10.2630,43.5768,-0.4472,-19.5884,0.6549,-0.6244,9.7152,45.9768,-1.0327,-20.1847
8.7243,-0.7819,0.9862,-11.6594,40.1737,35.6228,41.0966,-208.3325,20.2124,-68.4393,1462,1537,1.0000,0.0606,-0.3969,9.6692,41.4394,-2.0579,-19.7563,-0.0993,1.3221,10.6417,38.9081,-3.9182,-20.6732
8.7435,0.0760,0.9499,-12.0458,36.1852,35.7071,4.4031,-3.9321,-1.5214,-0.3403,1499,1500,1.0000,-0.3153,0.6494,9.6189,33.7981,-4.1113,-20.3823,-0.0993,-0.1096,8.8652,38.5722,-3.1244,-20.4137
8.7622,0.7682,0.9449,-12.4286,45.3645,37.1557,77.4132,-134.5551,-15.3715,-29.9897,1483,1516,1.0000,0.1539,-0.6722,9.3723,45.5844,2.1253,-20.1762,0.2095,0.7834,9.7607,45.1447,4.5321,-20.5587
8.7813,1.6516,1.0024,-12.8070,30.6775,36.1840,-50.7817,336.3018,-33.0488,110.6889,1560,1439,1.0000,-0.4015,1.3557,8.8959,33.7371,0.5910,-20.0693,-0.0179,1.3437,10.2563,27.6180,-2.1702,-20.1160
8.8009,2.2746,0.8933,-13.2028,28.8836,35.0889,-55.8568,422.6122,-45.5322,141.0975,1577,1422,1.0000,0.1611,0.6206,10.5957,25.2943,-3.7144,-20.2983,-0.1304,0.7116,9.5715,32.4729,-1.5518,-20.0396
8.8205,2.8804,0.8609,-13.5924,27.3531,33.9286,-59.2435,502.0669,-57.6752,169.4163,1593,1406,1.0000,0.0582,0.7068,9.8847,29.5997,0.4841,-19.7258,-0.0754,1.4634,10.4239,25.1065,-1.0098,-20.2457
8.8398,3.4516,0.9017,-13.9696,15.6470,31.1863,-142.2835,806.9624,-69.1352,260.5171,1643,1356,1.0000,-0.5356,1.7148,9.6764,16.2561,-2.7754,-19.9930,-0.2310,1.8417,10.1006,15.0378,-4.3534,-19.3144
8.8587,3.7083,0.6660,-14.3304,13.7195,28.5663,-138.9153,826.8040,-74.3065,268.6584,1647,1352,1.0000,0.9632,0.5704,9.8152,12.9279,-4.4624,-19.8327,-0.9852,2.4043,9.3417,14.5111,2.5016,-18.2915
8.8778,4.0444,0.4616,-14.6879,5.2310,25.0660,-182.6536,991.4422,-81.0678,318.1377,1674,1325,1.0000,0.4460,1.6310,9.2981,6.6378,-5.6838,-19.0540,-0.1352,1.7674,10.1557,3.8241,-5.0556,-17.8488
8.8974,4.1616,0.4298,-15.0312,2.8798,21.7381,-169.8405,968.0241,-83.4527,312.7731,1672,1327,1.0000,0.2401,1.0205,10.2606,2.5997,0.6521,-18.0846,0.1281,0.8936,9.8636,3.1600,0.6848,-17.1770
8.9171,4.2001,0.5083,-15.3643,0.6584,18.5761,-160.9642,946.8961,-84.2657,307.2637,1668,1331,1.0000,-0.3728,0.8816,10.4162,1.8287,-0.4853,-17.6037,-0.9301,1.1737,11.4031,-0.5118,-0.6816,-16.2915
8.9362,3.9756,0.4802,-15.6863,-11.4408,14.0736,-234.8299,1133.7927,-79.8153,357.3696,1696,1303,1.0000,-0.1094,0.6565,9.2670,-10.0034,-3.7678,-16.7258,-0.5111,1.4203,11.1278,-12.8782,-2.2694,-16.5205
8.9549,3.6524,0.5789,-15.9852,-13.6584,9.9138,-222.6631,1061.5551,-73.3872,333.9290,1683,1316,1.0000,-0.6266,0.3860,9.8847,-13.4843,-0.8747,-16.0998,-0.1855,0.2328,10.8883,-13.8324,-3.0404,-15.6274
8.9740,3.4271,0.5443,-16.2840,-16.6126,5.9266,-207.8505,992.9700,-68.9159,312.4895,1671,1328,1.0000,0.0845,1.1282,10.3779,-15.0645,-1.5617,-15.8250,0.0204,0.3932,10.9865,-18.1606,0.2497,-15.5205
8.9937,3.1390,0.6019,-16.5878,-20.8606,0.0000,-0.0000,361.2097,-63.1857,132.7316,1573,1426,1.0000,-0.3321,1.2359,10.4713,-19.1866,-0.2334,-15.5502,-0.3411,-0.1719,10.5148,-22.5347,-0.6740,-15.5129
9.0132,2.8060,0.6886,-16.8839,-19.8988,0.0000,-0.0000,322.8923,-56.5543,115.5544,1563,1436,0.9736,-0.6864,0.8648,10.4162,-18.9271,-3.3556,-14.7869,-0.4106,-0.0162,10.9578,-20.8706,-1.7350,-15.3221
9.0325,2.2311,0.7850,-17.1747,-22.7309,-2.4245,-88.4953,511.6049,-45.0790,111.1238,1561,1438,0.6703,-0.7343,-0.1311,10.2965,-22.8278,-1.9968,-14.9243,0.3340,0.3333,9.9714,-22.6339,-2.2618,-14.9480
9.0512,1.8793,0.7205,-17.4540,-18.2461,-6.6153,-109.5481,531.7518,-38.0613,167.9212,1592,1407,1.0000,0.0438,0.4219,11.0985,-18.9805,-3.1113,-15.1151,-0.1304,-0.6220,9.6769,-17.5118,-0.7656,-14.5969
9.0703,1.5283,0.8417,-17.7459,-12.5515,-7.5057,-46.7123,310.3928,-31.0562,102.4381,1556,1443,1.0000,-0.7439,-0.1623,9.8009,-13.4767,-1.1800,-15.2067,-0.4824,-0.3227,9.5452,-11.6263,-1.2770,-15.1999
9.0899,1.1914,0.8775,-18.0611,-8.6049,-7.6706,-8.4295,134.4795,-24.3308,49.8197,1527,1472,1.0000,-0.2818,-0.4855,10.2510,-10.0416,-0.6456,-15.8556,-0.3603,0.0580,9.8038,-7.1683,0.7001,-16.1618
9.1094,1.1092,1.0089,-18.3778,-5.6087,-7.3613,15.8221,68.3872,-22.6967,30.4967,1516,1483,1.0000,-0.7439,0.3597,9.7793,-5.7515,-0.1724,-16.3060,-0.3986,-0.3371,10.0073,-5.4660,-0.7274,-16.1389
9.1286,1.0623,1.0543,-18.6942,-1.3683,-6.4624,46.7530,-10.3394,-21.7703,7.9901,1504,1495,1.0000,-0.6146,0.1202,10.1863,-2.2706,-2.9892,-16.1533,-0.5734,0.5895,10.0144,-0.4660,-2.6587,-16.6427
9.1473,1.1099,1.0298,-19.0056,1.0058,-4.6841,52.6972,-24.0511,-22.7331,2.7405,1501,1498,0.5916,-0.0998,0.3525,10.2390,1.3248,-0.9815,-16.6724,-0.1376,0.4794,9.8971,0.6867,-0.3228,-16.8030
9.1663,1.2133,1.0243,-19.3237,1.6088,-1.7213,21.9195,76.4813,-24.8122,1.0716,1500,1499,0.0317,-0.2579,0.5440,9.7267,1.0119,-1.5769,-16.7945,-0.3411,0.4004,9.6553,2.2058,-1.7045,-16.7114
9.1860,1.3701,1.0317,-19.6562,5.1012,0.0000,0.0000,157.6541,-27.9622,5.2339,1502,1497,0.0900,-0.3273,0.4674,9.6692,4.2943,-1.9128,-16.9548,-0.5015,0.9055,9.2914,5.9081,-1.8877,-16.9556
9.2055,1.5902,1.0359,-19.9849,6.1012,0.0000,0.0000,182.9816,-32.3802,14.1487,1507,1492,0.2098,-0.3752,0.6877,9.6620,6.6073,-2.6838,-16.9777,-0.2669,0.9510,9.6888,5.5951,-2.5060,-16.7495
9.2251,1.8991,0.9898,-20.3085,9.0058,0.0000,0.0000,218.5330,-38.5782,34.1716,1518,1481,0.4246,-0.0807,0.8768,9.7674,8.6836,-2.2487,-16.5731,0.0156,0.8529,9.6050,9.3279,-1.2465,-16.6274
9.2436,2.1632,0.9432,-20.6090,8.5859,0.0000,0.0000,248.9217,-43.8815,56.9376,1531,1468,0.6213,-0.0017,0.8194,9.6093,7.5386,-1.2487,-16.2296,0.1593,0.8600,9.3967,9.6332,-1.0098,-16.3602
9.2621,2.4567,0.9173,-20.9022,10.2920,0.0000,0.0000,282.6929,-49.7756,85.1798,1546,1453,0.8187,-0.0256,0.8696,9.7099,10.0653,-0.7983,-16.2678,-0.0227,0.9151,9.5691,10.5187,-0.2236,-15.7801
9.2806,2.7515,0.9311,-21.1946,10.9142,0.8520,14.5458,274.7282,-55.6997,100.3240,1555,1444,0.9575,-0.1645,0.8529,9.6141,10.7294,-0.0044,-15.8632,0.0970,0.9438,9.4829,11.0989,-0.1320,-15.8793
9.2991,3.0594,0.9037,-21.4810,11.8073,3.9705,49.9899,208.0744,-61.8872,89.2045,1549,1450,1.0000,0.0318,0.8936,9.6045,11.3859,-0.2029,-15.6418,-0.1328,0.8289,9.4374,12.2287,-0.0175,-15.5358
9.3175,3.3753,0.8708,-21.7770,13.1317,6.2967,65.5182,199.7049,-68.2388,90.0368,1549,1450,1.0000,0.1132,0.8696,9.5710,13.1798,0.3544,-17.2220,-0.0634,0.9726,9.3656,13.0836,0.4024,-15.1236
9.3359,3.6877,0.8455,-22.0487,12.0745,7.1633,47.1556,288.5420,-74.5241,118.0538,1564,1435,1.0000,0.0702,0.9869,9.4585,12.1874,-0.0808,-14.9701,-0.1568,0.9869,9.5141,11.9615,0.4863,-14.8564
9.3543,3.9574,0.8167,-22.3152,10.3569,7.6424,25.9798,380.5654,-79.9577,146.5372,1580,1419,1.0000,0.0725,0.9702,9.3172,10.8668,0.1101,-14.5731,-0.0251,0.8768,9.6170,9.8470,-0.1320,-14.5358
9.3728,4.2515,0.7966,-22.5740,9.1470,7.8681,12.2425,453.9753,-85.8824,170.0543,1593,1406,1.0000,0.0247,1.2192,9.2430,9.4852,-0.2716,-14.1533,0.0755,0.8792,9.8756,8.8088,-0.1091,-14.1847
9.3912,4.4944,0.7186,-22.8240,6.9638,7.7324,-7.3552,538.3696,-90.7852,196.1361,1607,1392,1.0000,0.2808,1.2000,9.1760,7.8516,-0.3174,-13.6495,0.1281,1.2551,9.9474,6.0760,-0.2236,-13.6885
9.4097,4.6693,0.7037,-23.0701,4.0554,7.1809,-29.8714,623.3453,-94.3300,221.7017,1621,1378,1.0000,0.0438,1.1809,9.1951,5.0500,-0.1113,-13.4128,-0.1304,0.9319,9.6457,3.0607,0.1810,-13.4824
9.4281,4.7738,0.7133,-23.3079,0.3913,6.1624,-55.2171,708.3651,-96.4674,246.5759,1635,1364,1.0000,-0.0759,1.2359,9.5255,1.5004,-0.4014,-13.0769,-0.1951,1.1641,9.7415,-0.7179,0.2344,-12.9251
9.4465,4.8158,0.7261,-23.5338,-4.7385,2.3254,-45.7021,685.8003,-97.3563,240.7023,1632,1367,1.0000,-0.0831,1.3892,9.4298,-3.6523,-0.5693,-12.6571,-0.1328,1.2359,9.6362,-5.8248,0.7306,-12.2076
9.4649,4.7430,0.7025,-23.7526,-8.7881,0.0000,-0.0000,545.8021,-95.9481,200.7987,1610,1389,1.0000,-0.0448,1.2695,9.9230,-8.3316,-1.4243,-12.2296,-0.1113,1.3963,9.9019,-9.2446,-1.2694,-11.5053
9.4833,4.5757,0.7084,-23.9561,-13.0668,0.0000,-0.0000,526.5475,-92.6477,193.7572,1606,1393,1.0000,-0.1741,1.1450,9.6740,-12.2706,-1.0044,-11.5960,-0.0826,1.5256,9.9235,-13.8629,-1.3686,-10.4976
9.5017,4.3557,0.7394,-24.1433,-17.0171,0.0000,-0.0000,501.2232,-88.2903,184.4876,1601,1398,1.0000,-0.3584,1.1785,9.4824,-16.0568,-1.6838,-10.8098,-0.1592,1.8896,10.2156,-17.9774,-2.1778,-9.4289
9.5200,4.0145,0.6827,-24.3165,-23.7003,-5.2988,-165.1533,937.6063,-81.5078,303.2837,1666,1333,1.0000,-0.0041,1.1258,9.2622,-23.1637,-2.5464,-10.1151,-0.3148,1.5113,9.9977,-24.2370,-2.2389,-8.5969
9.5385,3.6308,0.6825,-24.4708,-25.6278,-8.5932,-163.2825,888.0579,-73.8693,285.5908,1657,1342,1.0000,-0.3033,1.0420,9.2622,-23.8202,-3.0960,-8.8937,-0.0442,1.3125,9.8062,-27.4355,-2.5747,-7.6427
9.5569,3.3095,0.6043,-24.6085,-28.1584,-11.5280,-159.0638,838.9336,-67.4764,268.6396,1647,1352,1.0000,0.1085,1.5304,9.6045,-27.7668,-2.5846,-8.0159,0.0036,1.5089,9.7607,-28.5500,-1.5442,-6.9709
9.5753,2.9393,0.5270,-24.7247,-30.4866,-14.3718,-154.7126,783.8029,-60.1022,249.5159,1637,1362,1.0000,0.1946,1.4371,9.6357,-27.6523,-1.8518,-6.7182,-0.5063,1.6860,9.7104,-33.3210,-0.5518,-6.0854
9.5937,2.4766,0.6355,-24.8217,-37.7118,-17.8728,-190.4005,833.3416,-50.8734,258.7723,1642,1357,1.0000,-0.7487,1.5352,9.4010,-36.0339,-1.6151,-5.5808,-0.0586,1.5472,10.5100,-39.3897,-2.6053,-4.9862
9.6121,1.9211,0.7213,-24.8936,-41.3568,-21.3954,-191.0183,642.6639,-39.7824,199.8371,1609,1390,1.0000,-0.5930,1.4466,10.0786,-40.5454,-1.2411,-4.3976,0.1281,1.0468,10.0025,-42.1683,-0.2007,-3.6045
9.6307,1.2740,0.6500,-24.9473,-44.2080,-24.8173,-184.4691,564.8954,-26.8534,171.5974,1594,1405,1.0000,0.0869,1.0755,9.3579,-43.4919,-1.3861,-3.6037,-0.2071,1.4801,9.4853,-44.9240,-1.5900,-2.4518
9.6492,0.6317,0.6334,-24.9859,-47.3568,-28.1982,-182.6957,598.8543,-14.0131,174.6858,1596,1403,1.0000,-0.0663,1.3173,9.7362,-46.0339,-0.7983,-2.9701,-0.1927,0.6901,9.8612,-48.6797,-0.0785,-1.5969
9.6676,-0.1385,0.6502,-25.0165,-47.8148,-31.1407,-159.6497,443.8486,2.7723,122.8914,1567,1432,1.0000,-0.2243,0.6015,9.4393,-48.3164,-0.6762,-2.5731,-0.5829,0.6446,9.4758,-47.3133,-0.5824,-0.9785
9.6860,-1.1209,0.6033,-25.0365,-49.3606,-33.8737,-148.1907,297.8083,22.4292,72.1718,1539,1460,1.0000,-0.0615,-0.3658,9.9397,-49.0339,-1.0655,-1.8785,-0.0083,-0.1958,9.4805,-49.6874,-2.7808,-0.4442
9.7045,-1.7634,0.6217,-25.0259,-32.5782,-33.6794,10.5330,-233.2462,35.2963,-82.9571,1454,1545,1.0000,-0.3464,-0.4591,11.5846,-36.1408,-3.8212,0.1139,0.6788,-0.2652,9.6386,-29.0156,1.7764,0.9680
9.7229,-2.1712,0.5847,-24.9968,-36.1087,-34.0438,-19.7565,-192.9401,43.4743,-75.7604,1458,1541,1.0000,0.3527,0.8984,9.5758,-30.9805,5.2017,0.9918,0.2191,0.9726,9.9283,-41.2370,1.6237,1.9680
9.7414,-2.8959,0.6143,-24.9602,-45.5095,-35.7636,-93.1365,-65.0024,57.9977,-47.1995,1474,1525,1.0000,-0.3560,0.1681,9.5136,-45.5988,-1.8518,1.8391,-0.1999,-0.3371,9.4111,-45.4202,-1.3152,1.8001
9.7598,-3.6478,0.5651,-24.9221,-42.7461,-36.8110,-56.8153,-256.1339,73.0722,-108.2536,1440,1559,1.0000,0.2114,-0.3610,10.5790,-41.9500,0.4383,1.9078,0.2646,0.0412,11.2307,-43.5423,0.9902,2.1054
9.7782,-4.2246,0.4044,-24.8640,-47.5973,-38.4290,-88.0665,-232.5093,84.6505,-107.4279,1440,1559,1.0000,0.5945,0.8409,10.3970,-46.8049,-1.6915,2.8085,1.0140,-0.4328,10.0432,-48.3897,-0.7656,2.8917
9.7966,-4.8308,0.3620,-24.8042,-41.6927,-38.9185,-26.5603,-479.4103,96.8227,-182.6462,1399,1600,1.0000,0.2713,0.0484,9.6860,-42.1179,1.7360,3.0681,0.9781,-0.9572,8.4343,-41.2675,1.5779,3.4489
9.8151,-5.5913,0.2937,-24.7448,-37.6851,-38.7335,10.0125,-672.2636,112.0883,-244.2779,1365,1634,1.0000,0.6280,-1.2540,10.6772,-37.9652,2.3315,2.6635,0.8847,-0.1216,9.4853,-37.4049,4.5703,4.2123
9.8336,-6.1883,0.1790,-24.6807,-33.4370,-37.9390,43.0249,-836.0529,124.0904,-296.1400,1337,1662,1.0000,0.9632,-0.9619,10.8831,-32.1713,5.4994,3.2895,-0.0203,-0.4424,10.0575,-34.7026,2.4329,4.2276
9.8520,-6.6802,0.0788,-24.5897,-35.4523,-37.5660,20.3040,-827.2328,133.9950,-298.6227,1335,1664,1.0000,-0.0184,-0.3107,9.6836,-39.2248,-6.0960,3.8085,-0.0826,-1.3785,8.6138,-31.6797,-5.6740,4.6779
9.8704,-7.1645,-0.0369,-24.5085,-20.6278,-35.0253,137.9297,-1221.7386,143.7524,-413.9630,1272,1727,1.0000,0.8291,-1.6132,9.5399,-23.6752,-0.4624,4.4040,0.9685,-1.0793,9.1166,-17.5805,6.6619,5.1131
9.8888,-7.5678,0.0829,-24.4141,-18.9713,-32.6172,130.7732,-1247.5562,151.8948,-425.2632,1266,1733,1.0000,-0.3225,-1.5246,9.9445,-18.6904,6.8124,6.1292,-0.6859,-0.7225,10.4622,-19.2523,-2.3076,4.7924
9.9072,-7.9661,0.0156,-24.3238,-18.9561,-30.5680,111.2370,-1237.1402,159.9402,-426.3694,1265,1734,1.0000,-0.0687,-1.5916,10.0642,-20.3851,-6.8670,4.1292,0.0156,-1.3737,9.4398,-17.5271,-3.2465,4.3879
9.9256,-8.1138,-0.0723,-24.2518,-2.0057,-26.2837,232.9514,-1604.6803,162.9753,-530.7981,1208,1791,1.0000,0.5849,-1.8143,9.1425,-6.0950,1.3773,4.2666,0.1042,-1.3833,8.6545,2.0836,2.0436,4.1283
9.9441,-8.0623,-0.0810,-24.1750,4.1737,-21.7151,247.1384,-1639.6147,162.0267,-540.1055,1202,1797,1.0000,0.0725,-1.4432,9.2933,4.0653,0.1559,4.4116,-0.2908,-1.4480,10.2203,4.2821,-0.8495,3.9146
9.9625,-7.9442,0.0101,-24.1069,10.3722,-16.9020,261.5509,-1667.5186,159.7426,-546.7765,1199,1800,1.0000,-0.4087,-1.8214,10.2199,9.2561,0.1788,3.7704,0.3269,-1.4982,8.8293,11.4882,-0.2618,3.6703
9.9809,-7.5246,0.0655,-24.0424,18.6317,-11.5719,289.0110,-1698.3042,151.4262,-551.2383,1196,1803,1.0000,-0.3560,-1.1104,10.7298,17.5462,-0.5998,3.7093,-0.1280,-1.3905,10.0959,19.7172,-1.6129,3.0367
9.9994,-7.0755,0.2392,-23.9811,26.0019,-5.9278,304.6989,-1691.7871,142.5145,-544.9576,1200,1799,1.0000,-1.0743,-1.4695,9.9206,23.3096,-2.8670,3.3963,-1.3563,-2.0537,8.8054,28.6943,-3.3992,2.4413
10.0179,-6.4778,0.3070,-23.9343,37.2195,0.0000,0.0000,-745.4629,130.6263,-274.0428,1349,1650,1.0000,-0.5595,-1.7975,10.6293,35.6531,-1.9281,2.8391,-0.8487,-1.6203,9.3632,38.7859,-2.3381,1.7619
10.0363,-5.8053,0.3890,-23.8889,37.7042,6.1125,302.8535,-1540.2805,117.2348,-489.8960,1230,1769,1.0000,-0.5859,-1.3067,10.6005,38.5539,-1.1495,2.0452,-0.7577,-1.3929,10.2299,36.8546,-1.7732,2.4184
10.0549,-5.1462,0.4022,-23.8689,40.9256,11.3344,281.1441,-1401.8981,104.1038,-444.5834,1255,1744,1.0000,-0.5691,-1.5054,10.0451,38.4088,-4.8212,1.2208,-0.6931,-2.3506,9.2244,43.4424,-5.2312,-0.0015
10.0733,-4.3753,0.5734,-23.8679,52.2539,17.4724,332.8498,-1462.0853,88.7286,-453.7482,1250,1749,1.0000,-1.2251,-1.9675,10.5096,49.5844,-3.0121,0.3734,0.0396,-0.9452,8.8341,54.9233,-2.4755,-0.7495
10.0917,-3.4908,0.6640,-23.8769,54.5668,23.0365,302.2095,-1272.0580,71.0745,-391.7135,1284,1715,1.0000,-0.8588,-1.3450,9.9685,54.5615,-2.4701,-0.2602,-0.2094,-1.0625,9.8277,54.5722,-4.4068,-1.2839
10.1101,-2.6647,0.5756,-23.8982,50.1470,27.1031,221.3826,-944.2053,54.5780,-291.6665,1339,1660,1.0000,0.0294,-1.0002,9.2670,50.1569,-3.3556,-1.0006,-0.3411,-0.2676,9.3129,50.1371,-2.9869,-1.6121
10.1285,-1.7284,0.5957,-23.9242,49.5477,30.4698,183.0158,-604.9806,35.8710,-187.3301,1396,1603,1.0000,-0.3417,-0.3275,9.2646,48.4470,-1.9892,-1.2449,-0.7769,-0.3179,8.8724,50.6485,-2.0938,-1.9327
10.1470,-0.7505,0.6641,-23.9544,52.9027,33.8347,181.7354,-609.7591,16.3200,-178.8926,1401,1598,1.0000,-0.5691,-0.3203,10.4904,52.9508,-2.0121,-1.0082,-0.7146,-0.4113,10.2084,52.8546,-0.7579,-2.4671
10.1655,0.3004,0.8813,-23.9759,46.6623,35.7589,104.1406,-265.3585,-6.0110,-71.2949,1460,1539,1.0000,-1.1988,0.7499,9.2861,48.9890,-0.4243,-1.3060,-0.8319,-0.2844,11.2068,44.3355,-2.3457,-1.7114
10.1839,1.0390,0.7924,-24.0114,40.3340,36.4451,37.2512,12.2689,-20.7896,13.8301,1507,1492,1.0000,0.0342,0.0317,10.8040,40.2180,-3.1113,-1.7640,0.6213,0.2399,10.2682,40.4500,-2.1702,-2.0778
10.2023,1.6376,0.6221,-24.0574,36.9447,36.5201,4.0702,176.7173,-32.7790,65.8704,1536,1463,1.0000,0.7357,-0.2269,9.9852,36.2943,1.9650,-2.3594,-0.1879,0.7379,9.2914,37.5951,-0.7579,-2.4976
10.2207,2.1792,0.5642,-24.1039,33.2462,36.0290,-26.6500,327.5146,-43.6329,113.5205,1562,1437,1.0000,-0.3369,-0.0330,9.4154,34.1798,-5.1266,-1.7716,-0.1256,-0.4592,10.5915,32.3126,-6.8343,-2.8182
10.2391,2.6486,0.3269,-24.1527,25.6661,34.4746,-84.6868,548.6704,-53.0464,180.1509,1599,1400,1.0000,0.6184,0.3118,8.6397,26.4394,-5.3708,-2.5502,0.3819,1.2455,9.5667,24.8928,-2.4526,-2.4366
10.2575,3.1306,0.2935,-24.1803,19.6432,32.2498,-120.9522,708.5804,-62.7176,229.7613,1626,1373,1.0000,0.1516,0.9941,9.4465,21.2867,0.5910,-1.5502,0.1880,1.0133,10.2395,17.9997,0.5779,-1.6121
10.2759,3.4642,0.3100,-24.2191,14.4676,29.5825,-144.9831,816.1869,-69.4255,263.2451,1644,1355,1.0000,-0.0759,0.7906,9.1449,15.5462,0.8811,-0.9624,-0.0299,1.5472,10.2203,13.3890,0.0283,-3.1999
10.2943,3.9323,0.2217,-24.2212,6.0745,26.0563,-191.9680,1005.3714,-78.8268,320.9174,1676,1323,1.0000,0.3622,2.1841,9.1329,9.1722,-1.8899,-0.3212,-0.3292,1.1904,9.8971,2.9768,1.7306,-0.1389
10.3126,4.0382,-0.0752,-24.2109,-0.6545,22.0497,-217.8677,1092.1482,-80.9849,346.2940,1690,1309,1.0000,1.0326,1.1186,8.7187,1.5081,-2.1342,0.4421,-0.0371,0.5249,9.1501,-2.8171,-2.8724,0.9451
10.3311,3.8867,0.4705,-24.1743,-5.5591,17.9084,-224.6269,1094.1808,-77.9939,345.3676,1689,1310,1.0000,-2.3121,0.4243,9.0563,-4.6904,4.5605,1.6101,0.4705,0.8289,10.2970,-6.4278,-0.8190,2.1131
10.3495,3.7907,0.4765,-24.1309,-10.6545,13.6239,-233.2099,1107.8553,-76.1124,348.2557,1691,1308,1.0000,-0.1166,1.1091,9.5375,-10.6141,-0.9434,2.3505,0.0300,0.8553,10.2515,-10.6950,0.8985,2.2886
10.3678,3.3944,0.4386,-24.0637,-18.2652,8.8405,-260.6183,1141.1769,-68.2188,353.6389,1694,1305,1.0000,0.2066,0.3405,9.0108,-17.6294,3.4307,3.0223,-0.1424,0.2160,9.3848,-18.9011,0.1963,4.0062
10.3863,2.8500,0.2476,-23.9892,-23.1545,1.1226,-72.2235,535.9550,-57.3597,175.8814,1596,1403,0.9840,0.6639,0.0341,9.4346,-22.6523,-1.9357,3.2818,-0.0849,0.2926,8.9011,-23.6568,-0.9717,4.7466
10.4048,2.2294,0.2024,-23.8994,-21.4981,0.0000,-0.0000,256.5361,-44.9700,63.0990,1534,1465,0.6690,0.3215,-0.5860,10.6508,-21.5683,1.9192,4.6864,-0.2382,-0.3394,10.0360,-21.4278,1.3108,4.8230
10.4233,1.7229,0.3898,-23.7967,-22.2767,-0.0269,-1.5514,202.7251,-34.8581,22.0733,1512,1487,0.2975,-0.7415,-0.0497,9.6476,-21.9042,1.8200,5.2895,-0.0299,-0.3251,10.1461,-22.6492,2.3108,5.6932
10.4417,1.2441,0.5259,-23.6641,-21.3377,-5.8653,-147.5152,473.3380,-25.2946,144.3304,1579,1420,0.9941,-0.6337,-0.1072,9.2789,-22.0874,1.2933,5.8849,0.2550,-0.2652,9.9474,-20.5881,0.2726,8.2963
10.4601,0.7336,0.4957,-23.5379,-14.5362,-7.1860,-70.5794,239.7352,-15.0910,74.6714,1541,1458,1.0000,0.0630,-0.9547,9.7386,-16.9347,0.2856,6.8085,-0.1663,-0.4089,8.2715,-12.1377,0.0818,7.0749
10.4786,0.4146,0.4169,-23.4085,-6.9217,-7.1464,2.1476,34.6020,-8.2961,13.8366,1507,1492,1.0000,0.2737,-0.8135,10.2438,-8.3011,-0.3479,6.8085,0.0611,-0.7848,8.8413,-5.5423,-0.1167,7.3039
10.4970,0.1552,0.4351,-23.2755,-4.4484,-6.7417,21.9632,-37.8249,-3.1065,-9.0377,1495,1504,1.0000,0.0558,-0.7177,9.1999,-4.2935,2.2398,7.1368,-0.1975,-0.3610,8.6593,-4.6034,2.6543,7.3650
10.5154,-0.0795,0.4488,-23.1433,-2.8148,-6.1527,32.0390,-84.5216,1.5918,-24.4619,1486,1513,1.0000,0.0247,-0.8302,9.8440,-3.3469,2.2856,7.1979,-0.0347,-1.2253,8.9754,-2.2828,1.5398,7.3039
10.5338,-0.2014,0.4627,-23.0119,4.2806,-2.4947,46.2100,-130.2194,4.0306,-0.0000,1500,1500,0.0000,0.0941,-0.9547,9.7123,3.8516,2.0490,7.3047,-0.3459,-0.6579,9.3441,4.7096,3.0970,7.1589
10.5522,-0.3520,0.5546,-22.8760,0.1165,-0.8094,8.0046,-52.9642,7.0435,-0.0000,1500,1500,0.0000,-0.2100,-0.7105,9.2287,1.1035,3.3315,7.4956,-0.0873,-0.2676,10.0097,-0.8706,3.2879,7.4566
10.5706,-0.4476,0.6555,-22.7450,0.8760,-0.0288,0.3530,-43.7643,8.9557,-0.0000,1500,1500,0.0000,-0.2507,-0.6172,10.1169,-0.0645,4.1940,7.1750,-0.1065,-0.4065,9.1525,1.8165,3.3642,7.2352
10.5890,-0.4094,0.6772,-22.6152,4.8722,0.0000,0.0000,-39.2558,8.1917,-0.0000,1500,1500,0.0000,0.0247,-0.3299,9.9996,5.1874,3.1788,7.1826,-0.0299,-0.1838,10.1294,4.5569,2.3184,7.0215
10.6074,-0.3520,0.6439,-22.4961,3.6165,0.0000,0.0000,-33.7551,7.0438,-0.0000,1500,1500,0.0000,0.1468,-0.1144,9.5303,3.6989,1.6826,6.8315,-0.1735,-0.1647,9.3393,3.5340,0.7993,6.1970
10.6258,-0.3183,0.6195,-22.3901,6.3111,0.0000,0.0000,-30.5232,6.3694,-0.0000,1500,1500,0.0000,0.1348,-0.4496,9.8176,6.5997,0.9116,6.1215,0.1066,-0.3155,10.0073,6.0226,1.9444,5.6016
10.6442,-0.2453,0.6170,-22.2943,3.3493,0.0000,0.0000,-23.5256,4.9092,-0.0000,1500,1500,0.0000,0.1875,-0.0019,9.9134,3.4623,3.4612,5.4269,-0.0083,-0.1719,9.8612,3.2363,2.9978,5.0596
10.6626,-0.1940,0.6551,-22.1893,5.4523,0.0000,0.0000,-18.6009,3.8815,-0.0000,1500,1500,0.0000,-0.1788,-0.2892,9.9661,4.8134,1.7666,4.9536,-0.1616,-0.1503,9.8325,6.0913,0.8146,6.3650
10.6809,-0.0950,0.6818,-22.1135,5.8836,0.0000,0.0000,-9.1066,1.9003,-0.0000,1500,1500,0.0000,-0.0855,-0.0809,9.9254,6.1264,0.6673,4.4345,0.0707,0.0604,10.1246,5.6409,2.7230,3.8917
10.6993,0.0376,0.6670,-22.0417,4.6623,0.0000,0.0000,3.6020,-0.7516,0.0000,1500,1500,0.0000,-0.0424,0.2040,10.0834,4.8363,0.2704,4.0681,0.0659,0.2783,10.1509,4.4882,-0.0327,3.7314
10.7177,0.1946,0.6322,-21.9800,5.0706,0.0000,0.0000,18.6609,-3.8941,0.0000,1500,1500,0.0000,0.1085,0.3070,10.0810,4.8363,0.4918,3.6711,-0.0419,0.2208,9.9666,5.3050,0.7840,3.0291
10.7362,0.3489,0.6128,-21.9236,5.5172,0.0285,0.2020,32.9705,-6.9813,0.0000,1500,1500,0.0000,-0.0232,0.2735,9.9613,5.3477,0.3849,3.2437,0.0563,0.4028,10.0935,5.6867,-0.3381,2.8459
10.7546,0.5025,0.5951,-21.8724,3.8302,0.0729,0.1205,47.8953,-10.0549,0.0000,1500,1500,0.0000,-0.1094,0.4578,10.0379,4.5844,-0.7449,2.6864,-0.1831,0.6541,10.1820,3.0760,-1.1549,2.7695
10.7730,0.5927,0.5756,-21.8471,0.6203,0.0000,-0.0000,56.8362,-11.8603,0.0000,1500,1500,0.0000,-0.1381,0.4650,10.0451,0.6226,-1.5082,0.3505,-0.0059,0.3668,9.9330,0.6180,-1.3152,2.1360
10.7915,0.6775,0.5396,-21.7898,2.3760,0.0000,-0.0000,64.9634,-13.5562,0.0000,1500,1500,0.0000,0.0821,0.2950,10.1361,2.1340,-0.1037,4.1902,0.0635,0.2519,9.8900,2.6180,0.3795,2.1741
10.8100,0.7687,0.5269,-21.7572,1.7882,0.0000,-0.0000,73.7120,-15.3818,0.0000,1500,1500,0.0000,-0.0663,0.3908,9.8942,2.1111,-0.1800,1.8238,-0.2214,0.4195,10.1605,1.4653,-0.5518,1.6703
10.8283,0.8205,0.5129,-21.7308,1.1966,0.0000,-0.0000,94.4173,-16.4187,0.0000,1500,1500,0.0000,-0.1238,0.2735,10.0092,0.9890,-0.8289,1.6482,-0.1592,0.2447,9.9211,1.4042,-1.3305,1.2734
10.8470,0.8504,0.5033,-21.7047,2.8340,0.0000,0.0000,97.8575,-17.0170,0.0000,1500,1500,0.0000,-0.1765,0.0412,9.9972,3.5997,-1.3937,1.4727,-0.2214,0.1131,9.9570,2.0684,-1.5900,1.4031
10.8655,0.9030,0.4799,-21.6786,3.6852,0.0000,0.0000,103.9097,-18.0694,0.0000,1500,1500,0.0000,-0.0783,0.0676,10.1911,3.0729,-1.2945,1.4040,-0.0251,0.1514,9.9737,4.2974,-0.9564,1.4642
10.8838,0.9632,0.4392,-21.6520,5.6661,0.0140,0.1100,110.5173,-19.2735,0.0000,1500,1500,0.0000,0.0079,-0.0545,10.1049,5.4317,-0.8289,1.5185,-0.0802,-0.0761,10.0432,5.9004,-1.4297,1.4566
10.9023,1.0543,0.4235,-21.6261,6.3645,0.3803,2.7808,113.3040,-21.0957,0.0916,1500,1499,0.0022,-0.1836,0.0388,10.0020,5.9661,-1.8289,1.4956,-0.2238,0.0029,9.6793,6.7630,-2.2389,1.4108
10.9207,1.1842,0.3972,-21.6042,8.7768,1.9291,18.5486,82.8429,-23.7060,0.8370,1500,1499,0.0239,-0.1334,0.0269,10.1552,7.7905,-2.0731,1.4421,-0.1065,-0.1048,9.8923,9.7630,-2.0480,1.0749
10.9391,1.3074,0.3904,-21.5797,11.2768,4.8774,50.6646,4.5290,-26.1837,9.8326,1505,1494,0.6847,-0.1477,-0.2030,10.0164,10.7371,-1.3556,1.3963,-0.0131,-0.0043,9.8708,11.8165,-1.0785,1.3802
10.9576,1.4879,0.3745,-21.5557,12.7920,6.5215,59.9344,-1.3966,-29.8088,14.5134,1507,1492,1.0000,-0.0735,-0.0402,10.1097,12.2867,-0.6380,1.4574,-0.1831,-0.0737,9.8133,13.2974,-1.1244,1.2505
10.9760,1.6940,0.3729,-21.5341,14.8989,7.7781,68.2323,-1.5866,-33.9463,16.5289,1509,1490,1.0000,-0.1645,-0.0713,10.0618,14.4012,-1.0350,1.4956,-0.1687,-0.0091,9.8157,15.3966,-1.2847,1.0062
10.9944,1.9260,0.3712,-21.5132,16.4142,9.0735,70.3563,18.9944,-38.6058,24.6213,1513,1486,1.0000,-0.1932,-0.0497,10.0594,15.6989,-1.2869,1.3887,-0.1616,0.2016,9.8540,17.1294,-1.6816,1.0444
11.0128,2.1645,0.3677,-21.4943,18.8187,10.5353,79.4790,20.1723,-43.3986,27.3475,1515,1484,1.0000,-0.1645,-0.1838,10.0810,17.9126,-1.1418,1.4040,-0.0897,-0.2245,9.6721,19.7248,-1.3534,0.8611
11.0312,2.4654,0.3414,-21.4771,20.7997,12.0750,83.6174,42.8760,-49.4408,36.7257,1520,1479,1.0000,-0.0472,-0.0186,10.0666,20.3859,-1.0044,1.3276,-0.0299,0.1178,9.8062,21.2134,-1.3381,0.7466
11.0496,2.8027,0.3661,-21.4592,21.8111,13.5354,79.4235,93.7654,-56.2141,54.3614,1529,1470,1.0000,-0.2962,0.1202,9.9828,21.4317,-1.1876,1.3887,-0.2023,0.2639,9.7224,22.1905,-1.3915,0.7466
11.0680,3.1833,0.3214,-21.4425,23.0019,14.9554,77.1413,144.1354,-63.8579,72.2869,1539,1460,1.0000,0.0247,0.2759,9.8248,22.3477,-1.3479,1.2131,0.0228,0.2376,9.6817,23.6561,-1.3686,0.8077
11.0864,3.5732,0.2680,-21.4273,23.5592,16.2459,70.0041,209.5585,-71.6915,94.5221,1551,1448,1.0000,0.1372,0.3405,9.8057,23.9813,-0.8365,1.0299,0.0372,0.4075,9.6936,23.1371,-0.4450,0.7314
11.1049,3.9830,0.2339,-21.4065,23.8493,17.3864,61.9317,279.9681,-79.9276,118.3548,1565,1434,1.0000,0.0654,0.4746,9.7051,24.5997,-0.2945,1.2971,0.1186,0.5703,9.7391,23.0989,-0.5824,1.0520
11.1232,4.4368,0.2265,-21.3852,25.6928,18.6324,67.7844,315.3432,-89.0490,132.8206,1573,1426,1.0000,-0.0232,0.5895,9.7841,25.2256,0.1024,1.2895,-0.0658,0.6541,9.5332,26.1600,-0.3076,1.0520
11.1416,4.8945,0.1633,-21.3686,26.6928,19.8414,65.7338,373.9198,-98.2513,153.8232,1584,1415,1.0000,0.1492,0.5895,9.7219,26.0271,-0.9663,1.2666,0.1904,0.8169,9.5667,27.3584,-1.2770,0.7695
11.1600,5.3890,0.1159,-21.3462,28.0821,21.0775,67.3102,426.2931,-108.1956,173.4599,1595,1404,1.0000,0.1946,0.7380,9.8033,27.7905,0.0032,1.5337,0.1449,0.7140,9.6673,28.3737,0.2115,0.9375
11.1784,5.8480,0.0570,-21.3309,27.1088,21.9822,49.2121,531.2425,-117.4339,207.4649,1614,1385,1.0000,0.1635,0.7212,9.5208,26.8745,-0.4777,1.2971,0.1928,0.5225,9.5476,27.3432,-1.2694,0.6092
11.1968,6.3212,0.0389,-21.3110,30.2653,23.2247,67.4989,533.0402,-126.9612,212.7318,1617,1382,1.0000,0.0318,0.5847,9.5830,28.9432,-0.4014,1.3429,0.0204,0.6853,9.2746,31.5874,-0.3457,0.9298
11.2154,6.8485,0.0701,-21.2862,31.2004,24.4211,64.3542,602.7881,-137.5753,237.5683,1630,1369,1.0000,-0.1190,0.8026,9.4465,31.0195,0.7895,1.6253,0.1018,1.1450,9.5500,31.3813,0.3108,0.9527
11.2338,7.4203,0.0555,-21.2615,32.3416,25.6091,64.5442,668.0612,-149.0859,261.6001,1643,1356,1.0000,-0.0184,1.0348,9.6189,31.1798,-0.1724,1.6482,0.0204,1.1186,9.1477,33.5035,-1.1015,1.2123
11.2522,8.0222,0.1403,-21.2296,31.9523,26.5606,51.6199,774.5647,-161.2032,297.4797,1663,1336,1.0000,-0.3345,1.2575,9.2765,32.1416,1.9956,1.7627,0.4968,1.8560,9.7080,31.7630,0.2573,1.3802
11.2707,8.6555,0.1676,-21.1958,30.6737,27.1776,33.4673,899.7519,-173.9560,338.9085,1686,1313,1.0000,-0.0208,1.7507,10.1025,29.7523,0.3009,1.6101,0.0826,1.5831,9.4662,31.5951,3.0741,1.4871
11.2891,9.1768,0.0516,-21.1598,29.0325,27.4558,15.1035,1012.6563,-184.4737,375.7806,1706,1293,1.0000,0.5921,1.3150,9.0443,29.4394,2.5452,2.0757,-0.0754,1.7076,9.6673,28.6256,0.7993,1.4718
11.3075,9.5854,0.1134,-21.1158,25.2997,27.1324,-17.5902,1153.8604,-192.7420,419.4519,1730,1269,1.0000,-0.0927,1.3150,9.7458,25.9813,2.2475,1.7322,-0.1640,1.2192,10.1844,24.6180,3.1428,2.1436
11.3259,9.9866,0.1482,-21.0862,20.8149,26.1848,-51.4679,1297.6260,-200.8664,463.7685,1755,1244,1.0000,-0.1429,1.6406,9.1880,21.4088,1.7589,1.7856,-0.2478,1.6310,10.4334,20.2210,-0.3534,1.2734
11.3443,10.3034,0.1709,-21.0520,19.6203,25.2001,-53.5575,1340.1257,-207.3061,478.8882,1763,1236,1.0000,-0.0520,1.4945,9.6883,19.8821,0.8658,2.0605,-0.3052,1.8201,9.9283,19.3584,1.4634,1.3421
11.3627,10.5812,0.1494,-21.0184,15.7271,23.7792,-77.2054,1440.2118,-212.9664,509.7425,1780,1219,1.0000,-0.0160,1.6382,9.3819,15.4394,-0.6762,1.9231,0.3101,2.2535,9.5141,16.0149,-0.5213,1.9909
11.3811,10.7986,0.1074,-20.9720,10.9600,21.8563,-104.2102,1543.0203,-217.4224,540.7569,1797,1202,1.0000,0.3024,1.7603,9.0659,11.6913,2.6826,1.8925,-0.1161,2.1074,9.7128,10.2287,1.6161,2.4031
11.3996,10.8686,0.1757,-20.9335,6.7310,19.5875,-122.8065,1604.6394,-218.9312,558.7646,1807,1192,1.0000,-0.2219,1.4993,9.1377,7.3172,1.0261,1.7169,-0.6643,1.7746,9.6338,6.1447,1.8146,1.9604
11.4180,10.8294,0.1798,-20.8913,2.4294,17.0138,-139.5376,1648.3097,-218.2552,570.6543,1813,1186,1.0000,0.1109,1.3509,9.0012,2.7981,2.3391,2.2513,0.2048,1.9901,9.7295,2.0607,2.4329,1.5558
11.4364,10.8217,0.2650,-20.8432,-0.1126,14.4448,-139.5322,1647.4069,-218.2094,570.3787,1813,1186,1.0000,-0.2626,1.8537,9.7697,1.1874,1.9498,2.4574,-0.2741,1.4394,9.8612,-1.4126,2.8451,1.9527
11.4549,10.8278,0.2435,-20.7870,-5.1507,11.5055,-159.4677,1705.5248,-218.4399,586.7669,1822,1177,1.0000,0.2401,2.3373,9.5734,-3.7133,2.7284,2.7780,-0.4632,1.1306,10.3496,-6.5881,2.3489,2.4184
11.4733,10.5985,0.2836,-20.7333,-7.0858,8.7168,-151.2642,1655.4953,-213.9602,570.5188,1813,1186,1.0000,-0.0831,1.4035,9.7578,-6.6065,1.9727,2.8238,-0.0179,1.1497,10.0911,-7.5652,2.4634,2.3192
11.4917,10.2953,0.4449,-20.6714,-10.1774,5.8564,-153.5558,1627.1800,-207.9989,559.6098,1807,1192,1.0000,-0.7271,1.3126,10.1600,-9.5454,2.4078,3.1139,0.1162,1.8800,9.9977,-10.8095,1.6008,3.0825
11.5100,9.9798,0.6115,-20.6118,-11.7461,0.0581,-2.5824,1156.0534,-201.7896,424.5897,1733,1266,1.0000,-0.7678,1.2838,9.7003,-11.9729,1.6063,2.7398,-0.6548,1.3796,9.3321,-11.5194,1.5474,3.3955
11.5285,9.6283,0.6180,-20.5485,-10.3416,0.0000,-0.0000,1108.1457,-194.8561,407.7089,1724,1275,1.0000,-0.0089,0.9558,9.8751,-11.0874,2.3009,2.9307,-0.3052,1.6262,8.8964,-9.5958,1.6314,3.5024
11.5469,9.3438,0.6435,-20.4790,-10.3072,0.0000,-0.0000,1075.3891,-189.2595,395.7387,1717,1282,1.0000,-0.1429,1.1857,9.6812,-9.8355,1.7589,3.5261,-0.3124,1.4299,8.9802,-10.7790,1.2573,3.7314
11.5653,9.1196,0.5208,-20.4088,-7.9370,0.0000,-0.0000,1049.5669,-184.8651,386.3113,1712,1287,1.0000,0.6088,1.3581,10.6245,-8.6828,1.5376,3.3811,-0.5542,0.4554,9.3728,-7.1912,1.3718,3.9604
11.5837,8.8297,0.6576,-20.3402,-7.0210,0.0000,-0.0000,1016.2011,-179.1572,374.1149,1705,1294,1.0000,-0.6194,0.7595,9.2598,-7.5988,1.7818,3.7322,-0.8176,1.1761,9.4398,-6.4431,0.9520,3.5482
11.6021,8.5042,0.7667,-20.2795,-2.7652,0.0000,-0.0000,978.7237,-172.7315,360.4084,1698,1301,1.0000,-0.5595,0.2208,10.0786,-3.5912,1.2704,3.0147,0.3412,0.9965,9.2699,-1.9393,1.8985,3.5329
11.6205,8.4589,0.7143,-20.2115,-0.0858,0.0000,0.0000,973.5056,-171.9095,358.5363,1697,1302,1.0000,0.2401,1.2000,9.3867,-1.0263,2.0643,3.3200,-0.4560,1.3102,9.3225,0.8546,1.8375,3.6398
11.6391,8.4456,0.6704,-20.1424,0.3951,0.0000,0.0000,971.9715,-171.7275,358.0158,1696,1303,1.0000,0.0797,1.3245,9.5208,1.0424,0.3085,3.8391,-0.5518,0.9462,9.5260,-0.2523,0.5398,3.5634
11.6576,8.3938,0.6658,-20.0810,4.8187,0.0000,0.0000,966.0116,-170.7760,355.8713,1695,1304,1.0000,-0.0807,0.7427,9.3675,4.1340,0.6292,3.4116,0.2909,1.5041,9.6074,5.5035,0.7535,3.2734
11.6761,8.6331,0.6627,-20.0087,5.5325,0.0000,0.0000,993.5599,-175.6482,366.0209,1701,1298,1.0000,0.0103,2.0787,9.5830,5.7981,1.0108,3.7551,-0.2525,0.6925,10.0671,5.2668,2.5932,3.4489
11.6945,8.6757,0.6856,-19.9449,7.8149,0.0000,0.0000,998.4665,-176.5874,367.8643,1702,1297,1.0000,-0.2028,0.9534,9.3460,7.2256,0.4154,3.4269,0.0803,1.3413,9.6290,8.4042,0.9749,3.4947
11.7129,8.8612,0.6881,-19.8821,9.1737,0.0000,0.0000,1019.8216,-180.3858,375.7430,1706,1293,1.0000,-0.0591,1.5280,9.4705,9.3172,0.6826,3.5185,-0.4608,1.1713,9.8804,9.0302,1.7611,2.9985
11.7313,9.0941,0.6571,-19.8194,9.8302,0.3750,6.1954,1028.7931,-185.1349,380.6295,1709,1290,1.0000,0.0989,1.7363,9.5878,9.9355,0.9269,3.5643,0.1784,1.4131,9.6529,9.7248,1.8909,2.7848
11.7499,9.3968,0.6861,-19.7583,11.2195,2.9437,38.2284,971.3882,-191.2828,367.6301,1702,1297,1.0000,-0.1310,2.0045,9.7434,11.0348,2.3009,2.8849,-0.3124,1.9374,9.3129,11.4042,1.3260,3.0673
11.7683,9.6875,0.6666,-19.6970,10.8149,5.4459,47.5362,978.0505,-197.1933,372.4508,1704,1295,1.0000,-0.0567,2.0811,9.8919,11.2409,0.1559,3.4345,-0.0347,1.6813,9.7726,10.3890,0.3108,3.0902
11.7867,9.9830,0.5995,-19.6421,10.4218,6.3692,38.8916,1036.9720,-203.2033,391.9538,1715,1284,1.0000,0.1204,2.1433,9.6979,10.3859,-0.3327,2.9536,0.0419,2.3684,9.3632,10.4577,-0.5213,3.1207
11.8051,10.2634,0.5899,-19.5821,8.4447,6.6805,16.9091,1132.5710,-208.9144,421.5771,1731,1268,1.0000,-0.2219,2.2655,9.5160,8.6760,-0.9663,3.6559,0.1233,2.0260,9.7966,8.2134,-1.5595,3.2352
11.8238,10.5685,0.5688,-19.5195,8.5974,6.9681,15.4525,1171.8956,-215.1216,435.6915,1739,1260,1.0000,-0.1908,2.4905,9.8703,8.6760,-0.9281,3.4040,-0.1951,2.2894,9.5380,8.5187,-2.0556,3.8077
11.8422,10.8094,0.4115,-19.4570,7.3569,7.0264,3.1603,1235.0370,-220.0475,455.8341,1750,1249,1.0000,0.3622,2.3564,9.8895,7.2027,-2.6304,4.0910,0.3029,2.3445,9.6529,7.5111,-2.6434,3.6856
11.8606,11.1073,0.3599,-19.3938,8.2004,7.2025,9.5555,1250.9325,-226.1180,463.3201,1754,1245,1.0000,-0.1238,2.6509,10.0140,8.5539,-2.1037,3.8925,0.0707,2.1314,9.7607,7.8470,-3.1244,3.9680
11.8791,11.2318,0.3785,-19.3184,4.6317,6.8169,-20.8737,1352.9023,-228.7196,493.1724,1771,1228,1.0000,-0.2483,1.9566,9.1712,4.7065,-0.1800,4.4421,0.3221,2.9622,9.6242,4.5569,-0.5595,3.9680
11.8976,11.5026,0.4184,-19.2339,4.7653,6.5091,-16.6704,1371.9817,-234.2503,501.2800,1775,1224,1.0000,-0.3417,2.9550,10.0978,5.2027,0.1101,4.5795,-0.2382,1.5161,9.9977,4.3279,0.1352,4.5482
11.9159,11.5197,0.3714,-19.1560,3.5210,6.0609,-24.3992,1396.2088,-234.7072,508.2921,1779,1220,1.0000,-0.0160,1.7124,9.5902,1.6684,-0.9968,4.8544,0.3771,2.7395,10.1006,5.3737,-0.8724,4.1970
11.9344,11.7462,0.3942,-19.0654,2.9676,5.3210,-23.9273,1420.9403,-239.3555,517.5410,1784,1215,1.0000,-0.2866,2.9310,10.0187,3.8668,0.3315,4.7856,-0.1687,1.5304,10.3161,2.0684,-0.6282,5.1741
11.9528,11.7286,0.3840,-18.9744,0.1126,3.0346,-28.3658,1431.6959,-239.1207,520.4352,1786,1213,1.0000,-0.1477,1.9183,9.7267,0.5233,-0.2334,5.2589,0.0946,2.3133,10.1102,-0.2981,-0.5366,4.9909
11.9713,11.7564,0.4475,-18.8802,-0.8377,0.9036,-10.4617,1383.3310,-239.7938,507.2296,1778,1221,1.0000,-0.4685,2.1003,9.2263,-0.7133,-0.2869,5.1368,0.3364,2.7682,9.9450,-0.9622,-0.1473,5.3344
11.9899,11.8911,0.4736,-18.7792,-1.9675,0.0023,-0.0354,1368.8144,-242.6063,504.5712,1777,1222,1.0000,-0.3800,2.9598,9.9972,-1.2782,-0.4472,5.6559,-0.0945,1.4777,10.4789,-2.6568,-0.9411,5.5634
12.0084,11.8307,0.4907,-18.6828,-3.1278,0.0000,-0.0000,1361.7587,-241.5170,502.0510,1776,1223,1.0000,-0.2698,1.9135,9.1520,-3.7362,-0.2640,5.3963,-0.4584,2.0955,10.1796,-2.5194,-0.4679,5.4184
12.0268,11.6862,0.5898,-18.5930,-5.5935,0.0000,-0.0000,1345.1187,-238.7443,496.0054,1772,1227,1.0000,-0.6505,1.7196,9.1904,-5.9729,-0.1571,5.2742,-0.2956,2.6485,9.7080,-5.2141,-0.8495,4.9222
12.0452,11.5347,0.7101,-18.5080,-5.6278,0.0000,-0.0000,1327.6696,-235.8295,489.6623,1769,1230,1.0000,-0.9282,1.7699,9.7482,-5.8278,-2.6915,5.2666,-0.4417,2.2559,9.4446,-5.4278,-1.0251,4.9985
12.0636,11.4546,0.7189,-18.4279,-6.3492,0.0000,-0.0000,1318.4397,-234.3412,486.3337,1767,1232,1.0000,-0.3943,2.1577,9.6716,-6.2324,-1.3403,4.7780,-0.4991,1.5544,9.7367,-6.4660,-2.2007,4.7772
12.0820,11.2285,0.7449,-18.3480,-6.2729,0.0000,-0.0000,1292.4080,-229.9327,476.8406,1762,1237,1.0000,-0.3345,1.4083,9.5567,-5.9729,-0.1418,4.5108,-0.2454,1.7220,9.6984,-6.5729,-0.2923,4.5863
12.1005,11.0470,0.8441,-18.2685,-5.6889,0.0000,-0.0000,1271.5051,-226.4130,469.2279,1758,1241,1.0000,-0.5835,1.4730,9.2574,-6.0492,0.4765,4.3505,-0.1448,2.2583,9.4566,-5.3286,0.9215,4.2810
12.1189,10.9649,0.8205,-18.1870,-6.1355,0.0000,-0.0000,1262.0537,-224.8812,465.8156,1756,1243,1.0000,-0.0208,1.9901,9.4417,-6.3011,0.7208,4.3047,-0.6404,1.6094,9.2387,-5.9698,0.9749,4.3115
12.1374,10.8144,0.7955,-18.1026,-6.1278,-0.1685,-1.2908,1248.4398,-221.9794,460.5528,1753,1246,1.0000,0.0797,1.6741,9.6045,-6.5988,1.3085,4.3200,-0.2406,1.8872,8.9969,-5.6568,2.7230,4.2810
12.1558,10.5581,0.8775,-18.0290,-5.8874,-0.6280,-3.3651,1224.8926,-216.9577,451.4488,1748,1251,1.0000,-0.4398,1.0229,8.8360,-6.4080,1.2322,3.8925,-0.1352,2.5384,9.0879,-5.3668,1.1581,4.0291
12.1743,10.5738,0.9445,-17.9467,-5.4942,-1.1076,-3.8209,1228.0213,-217.3788,452.5354,1748,1251,1.0000,-0.3560,2.3612,9.6476,-4.8813,1.8963,3.9612,-0.6093,1.6597,9.3393,-6.1072,2.0665,4.1665
12.1927,10.4121,0.9799,-17.8715,-3.8301,-1.0443,0.4330,1197.1440,-214.2479,442.3243,1743,1256,1.0000,-0.2100,1.3676,9.6931,-4.3622,2.0108,4.0147,-0.7649,1.8273,9.5955,-3.2981,1.8909,3.7008
12.2112,10.3826,1.2110,-17.8045,-2.9179,-0.7358,1.6929,1190.1213,-213.7622,440.1151,1742,1257,1.0000,-1.1964,1.8129,9.3292,-2.9347,1.5986,3.4574,-0.6691,2.1816,9.2890,-2.9011,0.1734,3.5482
12.2296,10.4073,1.2348,-17.7314,-1.8492,-0.3050,1.3925,1193.8307,-214.3603,441.4527,1742,1257,1.0000,-0.3321,2.0859,9.8081,-2.1332,0.3925,3.9994,-0.1280,1.4370,9.1262,-1.5652,0.9749,3.6398
12.2482,10.3229,1.3023,-17.6600,-1.6011,-0.0644,0.3114,1187.2200,-212.7745,438.8089,1741,1258,1.0000,-0.2722,1.3844,8.9892,-2.0187,3.7208,3.2589,0.1018,2.5863,8.9155,-1.1835,3.1047,3.4642
12.2666,10.4352,1.2935,-17.5752,-2.8606,-0.0377,0.0375,1200.9462,-215.1259,443.8279,1744,1255,1.0000,0.0342,2.3373,8.8480,-2.5759,2.9803,3.8467,-0.6189,2.0188,9.3967,-3.1454,3.3566,3.9680
12.2850,10.3602,1.3918,-17.4938,-2.8530,-0.0203,0.0178,1192.3600,-213.7284,440.7250,1742,1257,1.0000,-0.4278,1.5376,8.9677,-3.0950,3.7666,4.0757,-0.0538,2.0811,9.4686,-2.6110,2.9444,3.6932
12.3035,10.5081,1.5004,-17.3780,-1.5706,0.0000,0.0000,1209.4485,-216.7926,447.0419,1745,1254,1.0000,-0.5045,2.4881,9.1951,-1.3240,3.7131,6.1521,-0.1903,2.0141,9.5428,-1.8171,3.7306,4.6627
12.3219,10.5477,1.5636,-17.2759,-3.3835,0.0000,-0.0000,1214.0039,-217.6893,448.7657,1746,1253,1.0000,-0.2962,2.1457,9.1401,-3.2858,4.2704,4.7704,-0.0466,2.0978,9.3297,-3.4813,3.3337,4.8077
12.3403,10.5801,1.6530,-17.1627,-5.0706,-0.0871,-0.4512,1219.0330,-218.4428,450.5507,1747,1252,1.0000,-0.4159,2.2080,8.9366,-4.7668,3.5834,4.9154,-0.2741,2.3540,9.6505,-5.3744,4.2115,5.7924
12.3588,10.6210,1.6572,-17.0462,-7.6660,-0.9328,-8.4025,1246.6487,-219.3681,458.7457,1752,1247,1.0000,-0.0567,2.6030,9.3963,-7.3851,3.8582,6.0757,0.3532,2.1840,9.6074,-7.9469,4.1886,4.6321
12.3772,10.5238,1.6597,-16.9034,-8.9217,-2.7990,-24.1468,1280.7975,-217.5290,467.3878,1757,1242,1.0000,-0.0376,1.9231,8.8480,-8.2782,4.5757,6.8009,0.1042,2.5623,9.4446,-9.5652,4.1047,7.1360
12.3956,10.5799,1.7471,-16.7297,-12.8530,-5.9045,-66.2242,1408.4391,-218.7566,503.7412,1777,1222,1.0000,-0.3895,3.0077,9.0275,-11.9347,5.0872,7.7933,-0.1376,2.2798,9.1573,-13.7713,4.8756,8.6245
12.4141,10.3807,1.8396,-16.5496,-15.2080,-7.3112,-75.4406,1412.0471,-214.8769,502.8116,1776,1223,1.0000,-0.3895,2.0619,9.2478,-15.2400,5.7360,8.4574,-0.2334,2.8161,9.5667,-15.1759,5.2497,9.0902
12.4326,10.2814,1.9416,-16.3511,-17.4484,-8.8318,-82.3656,1420.5521,-212.9929,504.2510,1777,1222,1.0000,-0.5547,2.6270,8.9940,-16.7210,4.8887,9.3353,-0.1640,2.4282,9.5907,-18.1759,3.6772,10.2123
12.4510,10.0042,2.0390,-16.1444,-21.5286,-10.7363,-103.4078,1449.2347,-207.5488,509.5601,1780,1219,1.0000,-0.5643,2.1146,8.9581,-20.8584,4.0108,10.3353,0.5567,2.5264,9.4829,-22.1988,4.6008,10.5024
12.4695,9.6452,2.0025,-15.9220,-22.4446,-12.4925,-95.0030,1383.6978,-200.4661,487.6684,1768,1231,1.0000,0.0390,1.8872,9.4753,-22.8660,4.6444,10.8391,0.5519,2.4235,9.4518,-22.0232,4.6466,11.7619
12.4879,9.3755,1.8740,-15.6796,-27.9675,-14.8138,-126.0195,1441.9736,-195.1659,501.3356,1775,1224,1.0000,0.4197,2.7108,9.3460,-26.9729,3.8429,11.8696,-0.4800,1.9135,9.8014,-28.9622,3.7077,12.6016
12.5063,8.8439,1.8306,-15.4426,-30.2347,-17.1269,-125.5938,1379.5391,-184.6216,478.5817,1763,1236,1.0000,0.0486,1.6573,9.5758,-30.2171,3.8276,12.2055,0.1712,2.1002,9.7655,-30.2523,4.0589,12.4413
12.5248,8.4096,1.8478,-15.1900,-32.7996,-19.4778,-127.3458,1334.5900,-176.0203,461.6954,1753,1246,1.0000,-0.2363,2.1841,9.2406,-31.3927,4.0872,12.5872,0.1904,1.7890,9.5548,-34.2065,3.4176,13.3497
12.5433,7.8971,1.8032,-14.9306,-36.0057,-21.9570,-134.1370,1295.1488,-165.8491,445.5662,1745,1254,1.0000,-0.0448,2.1170,9.5854,-34.8813,3.1024,13.4269,-0.2214,0.8936,9.6721,-37.1301,2.0512,13.5940
12.5617,7.2414,1.7515,-14.6814,-37.0858,-24.2263,-122.7274,1186.8056,-152.8067,408.7089,1724,1275,1.0000,0.0486,1.3796,9.2670,-36.1179,2.4918,13.0681,-0.1304,1.6382,9.4015,-38.0538,3.6390,13.1131
12.5802,6.6390,1.7820,-14.4279,-39.1164,-26.4598,-121.0744,1112.7081,-140.8255,381.9710,1710,1289,1.0000,-0.3967,1.7651,9.7051,-38.3774,2.2704,13.1292,-0.2861,1.3628,9.5021,-39.8553,1.9749,13.6245
12.5986,5.9304,1.6623,-14.1727,-39.9179,-28.4785,-109.7114,998.4223,-126.7125,342.9145,1688,1311,1.0000,0.3455,1.2048,9.6093,-39.1179,2.1940,13.4269,0.1736,1.1090,9.5356,-40.7179,2.8680,13.6856
12.6171,5.1913,1.6204,-13.9243,-42.0515,-30.5145,-110.2635,914.9567,-111.9840,312.1799,1671,1328,1.0000,-0.0376,1.1067,9.3292,-41.1790,2.1330,13.1979,0.1329,1.0683,10.0695,-42.9240,1.5245,13.2505
12.6355,4.5022,1.7352,-13.6777,-42.2690,-32.2777,-95.6519,793.5648,-98.2463,271.3213,1649,1350,1.0000,-0.6290,1.3054,9.8775,-41.8584,3.3238,12.6330,-0.6811,0.5871,9.6457,-42.6797,3.1963,13.4184
12.6539,3.6681,1.6543,-13.4424,-42.0477,-33.7432,-79.7317,651.7288,-81.6016,223.2849,1622,1377,1.0000,0.1300,0.4363,9.5519,-41.8507,0.8353,12.6406,0.2143,0.8313,9.7224,-42.2446,2.1505,12.8688
12.6723,2.9141,1.6107,-13.2083,-41.7652,-34.9465,-65.2351,523.2104,-66.5507,179.7743,1598,1401,1.0000,0.1156,0.6877,9.8200,-41.4080,2.7513,12.4421,-0.4345,0.1083,9.7056,-42.1225,2.8604,12.4871
