timestamp,roll_deg,pitch_deg,yaw_deg,omega_raw,omega_filtered,alpha,tau_ff,tau_pid,tau_total,pwm_left,pwm_right,deadzone_factor,accel1_x,accel1_y,accel1_z,gyro1_x,gyro1_y,gyro1_z,accel2_x,accel2_y,accel2_z,gyro2_x,gyro2_y,gyro2_z
948.3314,0.3714,1.2909,43.2480,0.3803,0.0000,0.0000,35.6162,-2.9581,11.4516,1500,1500,1.0000,-0.0680,0.1871,9.7166,0.8703,-1.4673,0.7521,-0.2001,0.0685,9.7817,-0.1096,-1.3045,0.8745
948.3505,0.3974,1.2797,43.2424,0.2696,0.0000,0.0000,38.1026,-3.1098,12.2236,1500,1500,1.0000,-0.2332,0.1584,9.8962,0.5039,-1.1085,0.5689,-0.1451,0.1643,9.9086,0.0354,-0.2511,-1.2171
948.3692,0.4026,1.2928,43.2714,0.0902,0.0000,0.0000,38.6066,-3.1438,12.3818,1500,1500,1.0000,-0.2763,0.0818,10.1188,0.4504,-0.0627,0.5307,-0.1427,0.1475,9.6476,-0.2699,0.4207,2.6150
948.3888,0.4180,1.2752,43.2798,-0.3181,0.0000,-0.0000,40.0862,-3.2360,12.8421,1500,1500,1.0000,-0.1231,0.1632,9.9560,-0.0610,0.0747,0.3933,-0.1810,0.2361,9.7146,-0.5753,0.4512,0.4089
948.4075,0.4394,1.2552,43.2894,-0.1082,0.0000,0.0000,42.1332,-3.3620,13.4783,1500,1500,1.0000,-0.0632,0.1823,10.0733,0.2596,0.4945,0.3933,-0.2025,0.1451,9.9636,-0.4760,0.9856,0.5692
948.4260,0.4421,1.2678,43.2964,-0.1731,0.0000,0.0000,42.3947,-3.3820,13.5615,1500,1500,1.0000,-0.1662,0.1033,10.0398,0.1603,1.1892,0.3094,-0.2217,0.1188,9.8942,-0.5066,1.3749,0.4242
948.4444,0.4548,1.2916,43.2989,0.1742,0.0000,0.0000,43.6094,-3.4588,13.9400,1500,1500,1.0000,-0.2212,0.1201,9.9177,0.3741,1.1281,0.0498,-0.2887,0.1332,9.8559,-0.0256,1.3978,0.1799
948.4630,0.4554,1.3270,43.3002,-0.3105,0.0000,-0.0000,43.6698,-3.4669,13.9610,1500,1500,1.0000,-0.2811,0.1057,9.8890,0.0993,1.1281,0.0193,-0.3222,0.1811,9.7482,-0.7203,1.3138,0.0883
948.4815,0.4608,1.3768,43.2793,-0.3830,0.0000,-0.0000,44.1885,-3.5023,14.1239,1500,1500,1.0000,-0.3721,0.1392,10.0302,-0.0152,0.9602,-2.1029,-0.3198,0.2002,9.7482,-0.7508,1.2604,-0.1713
948.4999,0.4820,1.4173,43.2748,-0.6578,0.0000,-0.0000,46.2225,-3.6281,14.7563,1500,1500,1.0000,-0.3002,0.2374,9.9919,-0.3282,1.2808,-0.3548,-0.2552,0.2696,9.7769,-0.9875,1.7642,-0.2400
948.5184,0.4906,1.4393,43.2661,-0.7838,0.0000,-0.0000,47.0420,-3.6817,15.0126,1500,1500,1.0000,-0.1949,0.1895,9.7980,-0.4656,1.5861,-0.6525,-0.3677,0.1739,9.6356,-1.1020,1.8100,-0.3621
948.5369,0.5013,1.4786,43.2522,-1.0319,0.0000,-0.0000,48.0726,-3.7480,15.3343,1500,1500,1.0000,-0.2571,0.2230,9.8579,-0.7252,1.6777,-0.8891,-0.2983,0.2840,9.8703,-1.3386,2.3444,-0.7361
948.5553,0.5069,1.5471,43.2347,-1.4746,0.0000,-0.0000,48.6034,-3.7846,15.5012,1500,1500,1.0000,-0.3840,0.2398,9.8483,-1.1221,1.9525,-0.9655,-0.3557,0.2577,9.6979,-1.8272,2.4894,-1.0644
948.5738,0.5002,1.6022,43.2151,-1.6159,0.0000,-0.0000,47.9621,-3.7515,15.3051,1500,1500,1.0000,-0.3481,0.1967,9.8794,-1.3587,1.9983,-1.1563,-0.3294,0.2313,9.5566,-1.8730,2.0695,-1.0644
948.5923,0.4883,1.6256,43.1911,-2.1998,0.0000,-0.0000,46.8201,-3.6885,14.9539,1500,1500,1.0000,-0.2284,0.2206,9.7956,-1.7633,1.5327,-1.3929,-0.3246,0.2218,9.6045,-2.6363,2.0008,-1.3163
948.6107,0.4835,1.6869,43.1638,-2.1922,0.0000,-0.0000,46.3612,-3.6660,14.8142,1500,1500,1.0000,-0.4056,0.2518,9.7429,-1.9465,1.6395,-1.5990,-0.4898,0.1906,9.3962,-2.4379,1.9092,-1.4995
948.6292,0.4677,1.7570,43.1336,-2.5662,0.0000,-0.0000,44.8514,-3.5810,14.3489,1500,1500,1.0000,-0.4678,0.2302,9.7405,-2.1908,1.4563,-1.7899,-0.3773,0.2840,9.6620,-2.9417,1.9321,-1.6064
948.6477,0.4656,1.8160,43.1007,-2.4517,0.0000,-0.0000,44.6431,-3.5732,14.2867,1500,1500,1.0000,-0.4415,0.2829,9.7429,-2.2366,1.4640,-1.9426,-0.4348,0.2696,9.5853,-2.6669,1.5352,-1.7819
948.6661,0.4325,1.8281,43.0461,-3.1006,0.0000,-0.0000,41.4752,-3.3892,13.3077,1500,1500,1.0000,-0.2069,0.1967,9.5227,-2.5496,0.8685,-4.0571,-0.6454,0.0374,7.9118,-3.6516,2.4283,-1.9346
948.6845,0.4472,1.9027,43.0063,-2.9594,0.0000,-0.0000,42.8811,-3.4773,13.7454,1500,1500,1.0000,-0.4319,0.4122,9.8387,-2.9923,3.4869,-2.5990,-0.5688,-0.0201,9.1903,-2.9264,1.7642,-2.0033
948.7030,0.4813,1.9129,42.9667,-1.2647,0.0000,0.0000,46.1570,-3.6768,14.7624,1500,1500,1.0000,-0.2859,0.3044,8.4572,-1.4198,0.0747,-2.4540,-0.1905,0.2026,10.5813,-1.1096,0.9321,-2.0568
948.7215,0.4515,1.8797,42.9211,-3.2418,0.0000,-0.0000,43.2975,-3.5114,13.8790,1500,1500,1.0000,-0.1494,0.2350,9.9728,-3.0229,0.7922,-2.7899,-0.5880,0.1116,8.5056,-3.4608,-0.4419,-2.2552
948.7400,0.3953,1.9397,42.8768,-1.5281,0.0000,0.0000,37.9041,-3.1947,12.2105,1500,1500,1.0000,-0.6402,-0.0499,10.1212,-1.3664,-0.2460,-2.4540,-0.3055,0.0781,8.9748,-1.6898,-0.1289,-2.2247
948.7584,0.3386,1.9423,42.8297,-2.0204,0.0000,-0.0000,32.4655,-2.8748,10.5278,1500,1500,1.0000,-0.3673,-0.0140,9.3551,-1.9542,-0.3757,-2.6677,-0.2600,-0.0368,9.2909,-2.0867,-0.5564,-2.3697
948.7769,0.2991,1.9028,42.7769,-1.2838,0.0000,0.0000,28.6849,-2.6531,9.3583,1500,1500,1.0000,-0.2308,-0.0068,9.2593,-1.3587,-1.3910,-2.9655,-0.1929,0.0087,9.6189,-1.2089,-0.8389,-2.6903
948.7955,0.2527,1.8534,42.7274,-1.2838,0.0000,0.0000,24.2327,-2.3910,7.9806,1500,1500,1.0000,-0.1542,-0.0475,9.6041,-0.7557,-0.8872,-2.7594,-0.1283,0.1356,9.7673,-1.8119,-0.5030,-2.4766
948.8140,0.2054,1.7944,42.6791,-0.8029,0.0000,0.0000,19.6931,-2.1232,6.5757,1500,1500,1.0000,-0.1590,-0.1002,9.6974,-1.2061,-2.7421,-2.6143,-0.3917,-0.0608,9.7625,-0.3997,-0.1366,-2.4842
948.8324,0.1755,1.7472,42.6343,-0.3716,0.0000,0.0000,16.8282,-1.9546,4.8317,1500,1500,0.8493,-0.1039,-0.0643,9.6065,0.0153,-0.2765,-2.5227,-0.1642,-0.0488,9.5901,-0.7585,-0.2053,-2.2705
948.8509,0.1501,1.7019,42.5907,-0.6311,0.0000,0.0000,14.3918,-1.8113,2.4740,1500,1500,0.5013,-0.1710,-0.0260,9.5466,-0.3206,-0.8566,-2.5380,-0.2025,-0.0536,9.6452,-0.9417,-1.1824,-2.1407
948.8694,0.1121,1.6260,42.5514,-0.8830,0.0000,0.0000,10.7497,-1.5959,0.1539,1500,1500,0.0404,-0.0608,-0.0691,9.6615,-0.4503,-1.6200,-2.3090,-0.1762,-0.0033,9.6955,-1.3157,-1.2816,-1.8659
948.8878,0.0632,1.5727,42.5154,-1.2418,0.0000,0.0000,6.0621,-1.3179,0.0000,1500,1500,0.0000,-0.1327,-0.1002,9.8315,-1.0610,-1.2841,-2.0800,-0.1570,0.0685,9.5614,-1.4226,-1.0984,-1.7361
948.9063,0.0331,1.5051,42.4684,-0.6235,0.0000,0.0000,3.1729,-0.1889,0.0000,1500,1500,0.0000,-0.0824,-0.0691,9.6256,-0.3511,-1.6047,-1.8204,-0.0589,-0.0201,9.4632,-0.8959,-1.3732,-3.2018
948.9248,0.0080,1.4478,42.4590,-1.3601,0.0000,-0.0000,0.7678,-0.0457,0.0000,1500,1500,0.0000,-0.1757,0.0052,9.8794,-0.8778,-1.3376,-1.6448,-0.1451,0.0805,9.5159,-1.8424,-2.9305,0.6455
948.9432,-0.0282,1.4077,42.4344,-1.6159,0.0000,-0.0000,-2.7007,0.1608,-0.0000,1500,1500,0.0000,-0.1925,-0.0260,9.7501,-1.3129,-1.6200,-1.4235,-0.1642,-0.0201,9.6308,-1.9188,-1.4572,-1.2400
948.9618,-0.0709,1.3350,42.4119,-1.7265,0.0000,-0.0000,-6.8006,0.4050,-0.0000,1500,1500,0.0000,-0.1015,-0.0499,9.8363,-1.4198,-1.5360,-1.3929,-0.0421,-0.1086,9.5183,-2.0333,-2.9839,-0.9881
948.9804,-0.0908,1.2689,42.3916,-1.5853,0.0000,-0.0000,-8.7069,0.5185,-0.0000,1500,1500,0.0000,-0.0393,0.0363,9.7022,-1.3664,-1.4292,-1.1868,0.0465,-0.1086,9.5949,-1.8043,-1.2282,-1.0262
948.9989,-0.1310,1.1959,42.3762,-1.2075,0.0000,0.0000,-12.5630,0.7481,-0.8908,1500,1500,0.2289,-0.0034,-0.0954,9.7381,-0.9771,-1.5971,-1.1105,-0.1474,-0.1230,9.7122,-1.4379,-1.3503,-0.5071
949.0174,-0.1960,1.1400,42.3647,-1.1464,0.0000,0.0000,-18.7930,1.1204,-5.7948,1500,1500,0.9953,-0.0465,-0.2295,9.8794,-0.8320,-1.4215,-0.8968,-0.2528,-0.0943,9.5494,-1.4608,-1.0297,-0.2476
949.0361,-0.2244,1.1423,42.3583,-1.7342,0.0000,-0.0000,-21.5185,1.2846,-6.6675,1500,1500,1.0000,-0.2284,-0.0140,9.6998,-1.3816,-0.6353,-0.4769,-0.2073,-0.0320,9.5997,-2.0867,0.0543,-0.2171
949.0546,-0.2637,1.1435,42.3557,-1.8220,0.0000,-0.0000,-25.2904,1.5115,-7.8370,1500,1500,1.0000,-0.2212,-0.0619,9.6951,-1.7328,-0.3910,-0.2632,-0.2288,-0.1206,9.4489,-1.9111,-0.1442,-0.0110
949.0731,-0.3002,1.1665,42.3545,-1.7456,0.0000,-0.0000,-28.7871,1.7223,-8.9216,1500,1500,1.0000,-0.3146,-0.0643,9.7788,-1.6565,-0.1238,-0.3395,-0.2815,-0.0823,9.7362,-1.8348,-0.1595,0.2181
949.0916,-0.3430,1.1767,42.3584,-1.6617,0.0000,-0.0000,-32.8931,1.9698,-10.1950,1500,1500,1.0000,-0.2619,-0.1074,9.8626,-1.3969,-0.2841,0.0651,-0.2265,-0.1302,9.7625,-1.9264,-0.0221,0.3860
949.1100,-0.3878,1.1806,42.3652,-0.8869,0.0000,0.0000,-37.1907,2.2292,-11.5280,1500,1500,1.0000,-0.2883,-0.1912,9.7741,-0.8702,-0.7192,0.2177,-0.3653,-0.1805,9.6308,-0.9035,-0.9534,0.5692
949.1285,-0.4133,1.1822,42.3755,-0.0586,0.0000,0.0000,-39.6292,2.3783,-12.2853,1500,1500,1.0000,-0.3026,-0.1768,9.6304,0.0306,-1.2841,0.3933,-0.2959,-0.1829,9.6739,-0.1478,-1.0221,0.7524
949.1471,-0.4261,1.1928,42.3878,0.6971,0.0000,0.0000,-40.8620,2.4558,-12.6693,1500,1500,1.0000,-0.2763,-0.1912,9.8267,0.7100,-0.6353,0.5689,-0.1522,-0.1972,9.7170,0.6843,0.1001,0.8058
949.1655,-0.4235,1.1764,42.4027,1.4338,0.0000,0.0000,-40.6091,2.4450,-12.5930,1500,1500,1.0000,-0.1015,-0.1816,9.6615,1.6794,0.0823,0.8895,-0.0948,-0.2068,9.5710,1.1881,0.4970,0.7829
949.1839,-0.4139,1.1572,42.4207,1.8383,0.0000,0.0000,-39.6884,2.3944,-12.3099,1500,1500,1.0000,-0.0848,-0.1864,9.6951,1.7405,0.2960,0.8513,-0.0014,-0.1062,9.7697,1.9362,0.3520,1.1723
949.2024,-0.3818,1.1753,42.4400,2.6819,0.0000,0.0000,-36.6144,2.2155,-11.3598,1500,1500,1.0000,-0.2452,-0.1553,9.8339,2.7481,0.2502,0.8971,-0.2600,-0.1038,9.6979,2.6156,0.6039,1.2410
949.2211,-0.3384,1.2008,42.4620,3.2658,0.0000,0.0000,-32.4502,1.9714,-10.0717,1500,1500,1.0000,-0.2619,-0.1505,9.9273,3.2672,0.4182,1.0956,-0.3893,-0.1062,9.8391,3.2644,0.9016,1.3097
949.2396,-0.2564,1.2177,42.4858,4.0979,0.0000,0.0000,-24.5892,1.5066,-7.6383,1500,1500,1.0000,-0.2452,-0.0308,9.7956,4.2443,0.2731,1.1643,-0.1881,-0.0991,9.5542,3.9515,0.6421,1.4089
949.2580,-0.1796,1.2363,42.5072,4.0215,0.0000,0.0000,-17.2252,1.0707,-4.7821,1500,1500,0.8925,-0.3290,-0.0355,10.0470,4.4046,0.4487,1.1185,-0.1067,0.0135,10.0259,3.6385,-0.9839,1.1952
949.2765,-0.0780,1.2544,42.5333,3.9109,0.0000,0.0000,-7.4812,0.4923,-0.0000,1500,1500,0.0000,-0.1710,0.1057,10.0087,4.0535,1.4029,1.3628,-0.0972,0.0135,10.0881,3.7682,1.6115,1.4013
949.2950,-0.0159,1.2997,42.5531,2.6857,0.0000,0.0000,-1.5212,0.0906,-0.0000,1500,1500,0.0000,-0.2739,0.0435,9.6807,1.9390,1.4869,1.1796,-0.2959,0.0853,9.7841,3.4324,1.9627,0.9356
949.3133,0.0803,1.3380,42.5739,3.6933,0.0000,0.0000,7.6971,-0.4583,0.0000,1500,1500,0.0000,-0.3026,0.1344,10.1787,3.9848,1.3495,1.1643,-0.3270,-0.0081,9.9038,3.4018,1.1917,1.0272
949.3318,0.1911,1.4109,42.5958,5.0025,0.0000,0.0000,18.3245,-1.0912,5.5495,1500,1500,0.9776,-0.4702,0.1033,10.4516,4.7787,1.2655,1.2559,-0.3940,0.1044,10.6220,5.2263,1.7337,1.0654
949.3503,0.3000,1.5020,42.6196,7.4032,3.4191,38.1271,-62.7379,-1.7149,-16.7092,1500,1500,1.0000,-0.5899,-0.1074,10.8227,7.1603,1.3037,1.2941,-0.3533,-0.1445,11.0027,7.6461,1.8634,1.3402
949.3687,0.3847,1.5234,42.6445,7.8154,4.0785,35.8287,-49.1037,-2.2013,-12.6484,1500,1500,1.0000,-0.2571,-0.2534,10.9640,8.0077,2.0289,1.2025,-0.2432,-0.2858,10.6556,7.6232,0.9321,1.6684
949.3871,0.4222,1.5889,42.6704,6.7009,4.4719,21.3337,-10.7122,-2.4197,-1.7896,1500,1500,1.0000,-0.2691,-0.3731,10.8251,7.1909,3.4792,1.5842,-0.2624,-0.3409,10.5047,6.2110,4.0543,1.4242
949.4055,0.4248,1.6716,42.6940,5.0559,4.5595,4.7467,29.3465,-2.4388,9.4364,1500,1500,1.0000,-0.3242,-0.3875,10.7222,5.6336,4.0441,1.3857,-0.3150,-0.2978,10.7633,4.4782,4.3749,1.3860
949.4240,0.4112,1.7701,42.7201,3.8994,4.4605,-5.3743,52.3279,-2.3651,15.8344,1500,1500,1.0000,-0.4128,-0.3540,10.6288,4.1603,4.1892,1.4849,-0.3103,-0.4702,10.3395,3.6385,4.3596,1.5616
949.4424,0.4018,1.8342,42.7491,3.5826,4.3288,-7.1483,55.6895,-2.3159,16.7510,1500,1500,1.0000,-0.2691,-0.2965,10.0590,3.7405,3.9373,1.6681,-0.1714,-0.0560,9.7625,3.4247,4.0390,1.6761
949.4609,0.4482,1.8670,42.7836,3.7315,4.2392,-4.8391,54.5959,-2.5848,16.5793,1500,1500,1.0000,-0.1422,-0.0427,9.5346,4.0840,3.5327,1.9048,-0.0972,0.0685,9.2382,3.3789,3.9779,1.8516
949.4797,0.5027,1.9205,42.8117,2.8612,4.0325,-10.9932,74.5895,-2.9004,22.3352,1500,1500,1.0000,-0.1853,0.0698,9.2832,3.4046,4.2960,1.5384,-0.1786,0.1404,8.9413,2.3179,4.3138,1.3860
949.4982,0.5560,1.9799,42.8355,-0.6731,3.3267,-38.2541,145.1294,-3.2099,42.2412,1500,1500,1.0000,-0.3050,0.3499,8.8260,0.4886,3.5098,1.2559,-0.3318,0.2936,8.2781,-1.8348,2.6955,1.0272
949.5167,0.5421,2.0318,42.8489,-4.4250,0.0000,-0.0000,51.9839,-3.1359,16.1234,1500,1500,1.0000,-0.4295,0.3475,8.4596,-3.9618,1.2808,0.6758,-0.3797,0.5737,8.2973,-4.8882,0.6650,0.5005
949.5353,0.5172,2.0956,42.8563,-10.0891,0.0000,-0.0000,49.5920,-2.9989,15.3852,1500,1500,1.0000,-0.4774,0.7114,8.2920,-8.7939,1.1510,0.0345,-0.4300,0.8562,8.0722,-11.3844,0.6955,0.1341
949.5537,0.5558,2.0732,42.8482,-12.6884,0.0000,-0.0000,53.2918,-3.2244,16.5339,1500,1500,1.0000,-0.3984,1.1352,8.1412,-12.7023,-2.5284,-1.1334,-0.3821,1.1986,8.0650,-12.6745,-2.6862,-0.7819
949.5721,0.5713,1.9847,42.8263,-15.7036,-3.7378,-114.7056,330.0779,-3.3188,94.0812,1500,1500,1.0000,-0.2476,1.2956,8.2753,-13.7862,-3.8261,-1.9960,-0.1618,1.2465,8.1201,-17.6211,-4.3503,-1.5071
949.5906,0.4844,1.8795,42.7898,-18.4975,-5.9518,-119.7547,333.8648,-2.8285,94.8964,1500,1500,1.0000,-0.2835,1.1280,8.4716,-17.8549,-5.3452,-2.7517,-0.0613,0.6934,8.2422,-19.1402,-5.6785,-2.0568
949.6092,0.2418,1.6963,42.7413,-17.8869,-7.7420,-96.4944,254.7727,-1.4478,72.0603,1500,1500,1.0000,-0.0512,0.4625,8.9505,-17.3816,-6.4597,-3.1639,-0.1618,0.2888,8.9676,-18.3921,-7.1671,-2.2858
949.6277,0.0007,1.4531,42.6889,-16.1273,-8.9998,-68.0717,163.4362,-0.0734,45.7988,1500,1500,1.0000,0.2528,0.2685,8.4285,-17.6106,-6.7956,-3.1639,-0.0852,0.1715,9.5063,-14.6440,-6.0755,-2.6598
949.6462,-0.1989,1.1447,42.6305,-13.0968,-9.6144,-33.1692,60.5366,1.1355,16.3825,1500,1500,1.0000,0.6096,0.1919,8.8427,-12.8015,-6.0017,-3.5227,0.0154,-0.0823,8.8096,-13.3921,-6.0144,-2.9346
949.6647,-0.4036,1.0073,42.5711,-11.3449,-9.8739,-14.0099,-6.0949,2.3066,-2.8599,1500,1500,1.0000,-0.0417,0.0028,9.7908,-10.1374,-6.0933,-3.6296,0.1949,-0.1445,9.9756,-12.5524,-5.0144,-2.8583
949.6832,-0.5273,0.9469,42.5081,-7.8525,-9.5707,16.4279,-107.9879,3.0169,-31.7451,1500,1500,1.0000,-0.1686,0.0339,10.5067,-7.7328,-3.8872,-3.6448,0.0944,0.2194,10.6939,-7.9722,-2.1900,-3.2858
949.7017,-0.5400,0.9633,42.4399,-5.1349,-8.9054,35.9944,-165.7976,3.0945,-47.9706,1500,1500,1.0000,-0.3338,0.3092,10.2912,-5.2671,-1.4902,-3.8586,-0.1163,0.3654,10.1145,-5.0027,-0.2434,-3.6827
949.7202,-0.4987,0.9892,42.3665,-3.0739,-8.0306,47.1478,-193.1689,2.8642,-55.5194,1500,1500,1.0000,-0.2955,0.3715,9.9656,-3.1526,-0.4673,-4.1181,-0.3773,0.4612,10.1456,-2.9951,0.3291,-3.9804
949.7387,-0.3844,1.0778,42.2914,-0.1388,-6.8469,64.2013,-190.9424,2.2165,-54.5721,1500,1500,1.0000,-0.5301,0.4625,9.7812,-0.7786,0.2579,-4.3090,-0.4994,0.4325,9.7027,0.5011,0.9627,-4.0568
949.7570,-0.1693,1.1911,42.2169,3.9147,-5.2326,87.9101,-227.2148,0.9920,-64.1162,1500,1500,1.0000,-0.6235,0.5893,9.4293,3.3130,0.6014,-4.1945,-0.5401,0.4468,9.4872,4.5163,1.0008,-4.2018
949.7755,0.1107,1.2793,42.1398,6.9528,-3.4048,98.9319,-226.8245,-0.6047,-63.2085,1500,1500,1.0000,-0.6043,0.6420,9.2186,6.6413,0.0899,-4.4922,-0.6095,0.6096,9.0107,7.2644,-0.7549,-4.1942
949.7940,0.4154,1.2728,42.0624,9.0979,0.0000,0.0000,39.8311,-2.3457,12.3256,1500,1500,1.0000,-0.3481,0.6061,9.0486,8.8550,-1.8719,-4.3471,-0.6837,0.5330,9.2693,9.3408,-2.7167,-4.2934
949.8125,0.6772,1.2658,41.9852,9.6704,0.0000,0.0000,64.9380,-3.8449,20.1051,1500,1500,1.0000,-0.4990,0.4625,9.6759,9.9237,-3.7269,-4.2632,-0.4515,0.3894,9.9684,9.4171,-3.8083,-4.2247
949.8310,0.8948,1.2366,41.9041,9.6322,0.0000,0.0000,102.9659,-5.0942,31.3776,1500,1500,1.0000,-0.4319,0.3188,10.1523,9.7100,-4.0093,-4.5074,-0.4060,0.1571,10.2749,9.5545,-3.9381,-4.2323
949.8495,1.0504,1.1937,41.8248,10.6284,0.0000,0.0000,120.8649,-5.9914,36.8379,1500,1500,1.0000,-0.3529,-0.0284,10.2936,10.7023,-4.0933,-4.3700,-0.3845,-0.1278,10.1456,10.5545,-3.6327,-3.9881
949.8680,1.1311,1.1671,41.7309,11.9834,4.2890,73.5448,-81.6495,-6.4631,-19.6303,1500,1500,1.0000,-0.1805,-0.4880,10.3966,12.2901,-0.8108,-6.0189,-0.0780,-0.6210,10.2749,11.6766,-1.4114,-3.8354
949.8864,1.1508,1.1433,41.6705,14.3154,5.7930,81.4842,-102.2563,-6.5865,-25.3385,1500,1500,1.0000,-0.0297,-0.9645,10.0638,14.3359,-0.0398,-3.2097,0.0010,-1.0232,10.3419,14.2950,1.2833,-2.8277
949.9049,1.2046,1.1848,41.6260,15.1742,7.2001,76.1365,-80.6575,-6.9055,-19.1313,1500,1500,1.0000,-0.2141,-0.8879,10.2050,15.3588,1.7769,-2.3548,-0.2121,-0.8317,10.0809,14.9896,2.3673,-2.0644
949.9235,1.2512,1.2562,41.5953,15.1628,8.3945,64.2831,-41.1644,-7.1833,-7.9344,1500,1500,1.0000,-0.3673,-0.9166,10.2122,15.3817,2.2273,-1.4845,-0.2528,-0.8389,9.9756,14.9438,1.9550,-1.3926
949.9420,1.2905,1.3261,41.5763,14.4834,9.3079,49.4305,6.1321,-7.4201,5.4271,1500,1500,1.0000,-0.4032,-0.8735,10.0925,14.9008,1.9602,-0.8662,-0.2815,-0.6880,9.7242,14.0660,1.5123,-0.7285
949.9604,1.3721,1.4119,41.5706,13.4376,9.9273,33.6483,60.9740,-7.8990,21.0222,1500,1500,1.0000,-0.4631,-0.5527,9.8483,13.4962,1.0747,-0.1410,-0.4300,-0.5971,9.6428,13.3789,2.7566,-0.1484
949.9788,1.5117,1.4820,41.5762,12.2620,10.2775,18.9929,119.2529,-8.7102,37.7459,1500,1500,1.0000,-0.4654,-0.1672,9.7669,12.8397,0.8075,0.2788,-0.5185,-0.0943,9.7075,11.6843,1.5047,0.5005
949.9973,1.6013,1.5420,41.5922,10.0750,10.2471,-1.6408,188.9922,-9.2371,57.5364,1500,1500,1.0000,-0.4176,-0.1960,10.0231,10.8626,1.2502,0.7521,-0.3079,-0.1182,9.7769,9.2873,1.6955,1.1570
950.0158,1.6305,1.5643,41.6151,7.7506,9.8727,-20.2357,245.8985,-9.4195,73.5613,1500,1500,1.0000,-0.2164,-0.2630,10.0422,8.2672,1.6319,1.3475,-0.1594,-0.2667,10.1240,7.2339,2.1001,1.3555
950.0342,1.5910,1.5932,41.6505,6.1780,9.3185,-30.1072,269.7830,-9.2102,80.1444,1500,1500,1.0000,-0.1757,-0.4569,10.2170,6.6565,2.4182,1.9506,-0.0589,-0.4342,10.1791,5.6995,3.1764,2.1875
950.0528,1.4959,1.5990,41.6755,4.3193,8.5686,-40.3757,288.4176,-8.6833,85.0986,1500,1500,1.0000,0.0158,-0.5742,10.4971,4.6184,3.2350,2.3323,-0.0086,-0.7479,10.5550,4.0202,4.1230,0.7295
950.0714,1.2882,1.5975,41.7361,3.3841,7.7909,-41.7699,268.5309,-7.5123,78.9448,1500,1500,1.0000,0.1092,-1.0842,10.5953,3.6336,3.8227,3.3017,0.2572,-1.0735,10.5454,3.1347,4.9169,3.7982
950.0899,1.0809,1.6081,41.8066,3.6895,7.1757,-33.2723,220.2076,-6.3416,64.8289,1500,1500,1.0000,0.1116,-1.1632,10.6096,3.6031,4.6930,3.9124,-0.0708,-1.0184,10.5095,3.7759,5.2527,4.3402
950.1083,0.9773,1.6426,41.8868,4.8307,6.8240,-19.0931,167.4488,-5.7608,49.7661,1500,1500,1.0000,-0.0656,-0.7921,10.6862,4.4886,4.2350,4.4849,-0.3198,-0.6282,10.6891,5.1728,4.5581,4.6532
950.1269,0.9730,1.7239,41.9740,6.1590,6.7242,-5.3721,127.4324,-5.7458,38.5540,1500,1500,1.0000,-0.3936,-0.4402,10.8898,5.7176,4.3571,4.8055,-0.3893,-0.2810,10.9764,6.6003,2.8863,4.8364
950.1454,1.0866,1.8109,42.0625,10.7964,7.3350,33.1159,29.6554,-6.4040,11.5055,1500,1500,1.0000,-0.4080,-0.2678,10.9568,8.9161,3.8380,4.7674,-0.3007,-0.6449,11.2158,12.6766,4.1840,4.9738
950.1638,1.1765,1.9151,42.1589,14.0444,8.3414,54.6873,-22.1154,-6.9287,-2.7280,1500,1500,1.0000,-0.4774,-0.7203,11.4261,13.6107,4.2044,5.5918,-0.4108,-0.5444,11.4265,14.4782,5.0161,5.3097
950.1823,1.2951,2.0062,42.2612,13.9605,9.1843,45.4331,18.1845,-7.6177,8.9005,1500,1500,1.0000,-0.3697,-0.5479,11.5769,14.4275,5.6395,5.8513,-0.2169,-0.4390,10.8662,13.4934,4.8482,5.4776
950.2008,1.4126,2.1001,42.3642,10.7506,9.4192,12.7134,125.9298,-8.3012,39.4109,1500,1500,1.0000,-0.3002,-0.1912,10.8610,11.8703,5.1357,5.7216,-0.2600,-0.0655,10.5454,9.6308,6.9779,5.4700
950.2192,1.5113,2.2051,42.4832,7.2849,9.0991,-17.3916,223.9907,-8.8789,67.1568,1500,1500,1.0000,-0.2811,0.0578,10.6312,8.1603,6.9678,7.6223,-0.2576,0.3367,9.9493,6.4095,7.1077,5.1952
950.2377,1.7306,2.3132,42.5887,5.1284,8.5035,-32.1679,291.7807,-10.1462,86.7717,1500,1500,1.0000,-0.2380,0.8264,9.9393,5.3206,7.4029,5.3552,-0.3031,0.9161,9.4608,4.9362,7.8787,5.1341
950.2562,2.0222,2.4174,42.6915,4.0788,7.8398,-35.8276,335.8776,-11.8286,99.9600,1500,1500,1.0000,-0.2859,1.1999,9.1348,4.3970,7.1815,5.0422,-0.2528,1.1052,8.9078,3.7606,6.5581,4.7295
950.2747,2.2877,2.5147,42.7855,2.1475,6.9859,-46.2392,396.4111,-13.3647,117.6774,1500,1500,1.0000,-0.4056,1.2358,8.7278,3.2138,5.1739,4.6987,-0.4371,1.2872,8.3260,1.0812,4.7871,4.1341
950.2931,2.4186,2.6316,42.8722,-1.5815,5.7008,-69.7080,479.0639,-14.1350,141.2054,1500,1500,1.0000,-0.5445,0.9700,8.3806,-0.6183,3.4640,4.1109,-0.8274,0.6144,8.1464,-2.5447,4.6192,4.2104
950.3117,2.3245,2.6929,42.9467,-6.6426,3.8493,-99.8970,555.1865,-13.6222,162.2633,1500,1500,1.0000,-0.6426,0.4481,8.1173,-5.1526,0.5174,3.8437,-0.5377,0.2625,7.9238,-8.1325,-1.0297,4.0959
950.3301,2.0199,2.6830,43.0063,-13.2380,0.0000,-0.0000,232.4252,-11.9058,71.0320,1500,1500,1.0000,-0.5852,0.1009,9.3072,-11.7862,-2.1544,3.4468,-0.7005,0.0733,8.7139,-14.6898,-2.3656,3.5387
950.3485,1.5595,2.6050,43.0490,-17.2418,0.0000,-0.0000,179.4549,-9.2976,54.8961,1500,1500,1.0000,-0.4702,-0.2845,8.1699,-17.9236,-4.8948,2.5231,-0.2384,0.1954,8.3356,-16.5600,-5.7244,3.2410
950.3671,1.2017,2.4949,43.0955,-18.5815,-4.0563,-138.3267,536.6595,-7.2699,153.8996,1500,1500,1.0000,-0.3984,0.1704,8.5770,-18.8931,-6.3605,2.2712,-0.2528,0.1188,8.5558,-18.2699,-5.5640,3.1341
950.3856,0.9355,2.4114,43.1398,-13.6655,-5.4976,-77.9634,276.8229,-5.7622,80.3915,1500,1500,1.0000,-0.3098,0.1177,8.7541,-14.6946,-3.6047,2.2025,-0.3270,0.1021,8.9317,-12.6363,-3.4877,2.7982
950.4040,0.7130,2.2214,43.1892,-10.6273,-6.2671,-41.7148,168.4822,-4.5006,49.4253,1500,1500,1.0000,0.1140,0.0219,8.3040,-12.0610,-2.9864,2.0880,0.2021,-0.0464,8.3356,-9.1936,-4.6709,3.4852
950.4225,0.4539,1.9442,43.2404,-11.9708,-7.1227,-46.2748,154.5839,-3.0285,44.7977,1500,1500,1.0000,0.3462,-0.0451,8.4860,-11.0916,-6.0322,2.5231,0.0201,-0.4127,8.9748,-12.8501,-5.8694,3.2868
950.4409,0.0514,1.7847,43.2892,-16.8029,-8.5747,-78.7142,193.8439,-0.7348,54.6437,1500,1500,1.0000,0.0254,-0.3276,8.9098,-15.3893,-4.8490,2.4315,0.0417,-0.1685,8.9030,-18.2165,-4.0221,3.2486
950.4594,-0.3751,1.6507,43.3411,-22.2876,-10.6316,-111.5793,278.1906,2.1416,76.8226,1500,1500,1.0000,-0.0848,-0.0619,9.0630,-20.9465,-4.8414,2.3170,-0.1379,-0.1517,8.8575,-23.6287,-4.7625,3.3631
950.4778,-0.7589,1.4835,43.3967,-23.2456,-12.5237,-102.5806,208.1102,4.3369,56.1024,1500,1500,1.0000,-0.0584,0.1177,8.5171,-23.2671,-6.6505,2.3781,-0.1427,0.1763,8.6588,-23.2241,-6.5640,3.4013
950.4963,-1.0573,1.3713,43.4561,-21.2151,-13.8274,-70.6231,81.7367,6.0483,19.8621,1500,1500,1.0000,-0.2452,0.2805,9.4149,-21.3129,-6.5437,2.6987,-0.2025,0.4157,9.1161,-21.1173,-5.7625,3.3020
950.5147,-1.2823,1.2975,43.5146,-17.2914,-14.3470,-28.1742,-66.4079,7.3437,-22.2660,1500,1500,1.0000,-0.3218,0.2350,9.3742,-17.1221,-5.6200,2.4773,-0.2528,0.3702,9.1472,-17.4608,-4.8770,3.4165
950.5333,-1.4619,1.1911,43.5721,-15.5548,-14.5282,-9.7659,-140.0985,8.3824,-43.4188,1500,1500,1.0000,-0.2069,0.2637,9.3335,-15.2748,-5.6505,2.5994,-0.1738,0.2864,9.0562,-15.8348,-5.8465,3.0654
950.5517,-1.6747,1.0869,43.6291,-17.0472,-14.9060,-20.4859,-133.7118,9.6121,-42.2454,1500,1500,1.0000,-0.2739,0.2087,9.4556,-16.2213,-6.9024,2.3552,-0.2887,0.2529,9.1304,-17.8730,-6.4648,3.2486
950.5701,-1.8860,1.0341,43.6846,-17.7876,-15.3383,-23.4756,-149.4081,10.8350,-47.2517,1500,1500,1.0000,-0.4535,0.2494,9.8507,-16.8473,-6.8032,2.3552,-0.4252,0.3918,9.5758,-18.7279,-5.3274,3.0654
950.5886,-2.0466,1.0188,43.7330,-17.2227,-15.6209,-15.2925,-191.4614,11.7711,-59.4947,1500,1500,1.0000,-0.4487,0.3978,9.6927,-17.3740,-5.3605,1.8895,-0.4778,0.5067,9.8056,-17.0715,-2.9992,2.7600
950.6073,-2.1366,0.9560,43.7778,-16.0510,-15.6854,-3.4592,-235.8969,12.3054,-72.2038,1500,1500,1.0000,-0.3481,0.6109,9.8076,-15.5725,-5.6582,1.6452,-0.2839,0.6000,9.7625,-16.5295,-5.2816,2.3555
950.6257,-2.1150,0.8956,43.8157,-11.6388,-15.0784,32.9054,-338.1411,12.2035,-100.7812,1500,1500,1.0000,-0.2500,0.7569,10.1356,-11.7404,-4.8948,1.3857,-0.1067,0.6982,9.8679,-11.5371,-3.5869,1.9738
950.6441,-2.0728,0.8763,43.8515,-9.6617,-14.2659,44.2183,-365.8623,11.9835,-108.4332,1500,1500,1.0000,-0.2955,0.6923,10.2361,-9.3664,-3.0704,1.5536,-0.2983,0.6647,9.9804,-9.9569,-2.2129,1.7753
950.6626,-2.0539,0.8713,43.8860,-9.6884,-13.5793,37.0316,-342.9978,11.8967,-101.9877,1500,1500,1.0000,-0.3266,0.5822,10.1308,-9.2213,-2.6658,1.4620,-0.1977,0.5210,10.1073,-10.1554,-1.8389,1.7677
950.6812,-2.0686,0.8862,43.9169,-10.3029,-13.0878,26.4200,-314.1222,12.0009,-93.9546,1500,1500,1.0000,-0.3314,0.4840,10.2385,-9.6565,-1.5895,1.3246,-0.3270,0.4803,9.9014,-10.9493,-0.8694,1.6150
950.6997,-2.0855,0.9143,43.9418,-9.9136,-12.6117,25.7275,-314.0724,12.1180,-93.9993,1500,1500,1.0000,-0.3170,0.4241,10.0374,-10.2137,-0.7192,1.0727,-0.3486,0.4660,10.0355,-9.6134,-0.0602,1.3020
950.7182,-2.0435,0.9349,43.9683,-7.6006,-11.8600,40.6042,-352.0879,11.8992,-104.5342,1500,1500,1.0000,-0.2404,0.5079,10.1667,-7.9389,-0.1391,1.1338,-0.5353,0.3247,10.0857,-7.2623,0.3596,1.4165
950.7367,-1.9474,0.9988,43.9928,-3.9708,-10.6766,64.1489,-408.8304,11.3706,-120.1578,1500,1500,1.0000,-0.4080,0.4457,9.9800,-4.3969,0.5174,0.9200,-0.4180,0.3080,10.0091,-3.5447,0.6879,1.4700
950.7552,-1.8133,1.0087,44.0148,1.1780,-8.8984,96.1037,-485.4321,10.6245,-141.2332,1500,1500,1.0000,-0.2691,0.1847,10.0135,0.2596,-0.3376,1.0269,-0.2360,0.2601,10.1743,2.0965,-0.7931,1.1035
950.7737,-1.7300,1.0019,44.0389,3.2506,-7.0761,98.6626,-483.2145,10.1669,-140.3835,1500,1500,1.0000,-0.2428,-0.2151,10.4061,1.8932,-1.2841,1.0880,-0.2552,-0.4893,10.3180,4.6079,-0.8618,1.4089
950.7921,-1.6827,1.0383,44.0569,4.6399,-5.3187,95.2787,-468.0345,9.9145,-136.0069,1500,1500,1.0000,-0.4008,-0.5024,10.4085,6.2443,-0.5360,1.0040,-0.4060,-0.4223,10.4904,3.0354,-0.3808,0.9890
950.8106,-1.6957,1.0722,44.0757,6.0941,-3.6068,92.3748,-461.1686,10.0056,-134.1300,1500,1500,1.0000,-0.4056,-0.9334,10.4181,6.0077,-0.8643,0.9124,-0.4108,-0.7239,10.4185,6.1805,-0.3045,1.3249
950.8292,-1.7489,1.0777,44.0969,6.5521,0.0000,0.0000,-201.2400,10.3258,-61.5101,1500,1500,1.0000,-0.0919,-1.2207,10.8586,6.4428,0.8227,1.3552,-0.1139,-1.2459,10.6843,6.6614,1.9856,1.3631
950.8477,-1.8078,1.1344,44.1252,8.6666,0.0000,0.0000,-208.0265,10.6801,-63.5875,1500,1500,1.0000,-0.1614,-1.4529,10.7270,8.6718,2.8304,1.6758,-0.1067,-1.4183,10.9046,8.6614,4.0619,2.0425
950.8661,-1.8963,1.2182,44.1654,10.1399,0.0000,0.0000,-218.2073,11.2033,-66.6997,1500,1500,1.0000,-0.2021,-1.7857,10.8682,10.0306,4.2121,2.4162,-0.2456,-1.8109,11.0410,10.2492,4.9779,2.8440
950.8846,-2.0182,1.3282,44.2149,8.9452,0.0000,0.0000,-232.2376,11.9185,-70.9858,1500,1500,1.0000,-0.2093,-1.8551,10.8371,9.2367,5.5098,3.1796,-0.1283,-1.8684,11.0626,8.6537,6.6192,3.2410
950.9032,-2.1778,1.4296,44.2797,6.7277,0.0000,0.0000,-250.5978,12.8497,-76.5923,1500,1500,1.0000,-0.1374,-1.8863,10.9807,7.4199,6.1510,4.2635,-0.1666,-1.7654,10.5430,6.0354,6.8787,3.9432
950.9217,-2.3788,1.5247,44.3572,4.6666,3.2157,13.8656,-313.6603,14.0192,-94.8345,1500,1500,1.0000,-0.0393,-1.8934,10.7222,5.2825,7.2502,4.8132,-0.1355,-1.9857,10.5215,4.0507,7.4589,4.9509
950.9401,-2.5285,1.6516,44.4413,3.8841,3.3159,5.4436,-306.6290,14.8977,-93.3050,1500,1500,1.0000,-0.1734,-1.5846,10.6791,4.4046,7.7159,5.4239,-0.0397,-1.6721,10.3180,3.3637,8.0466,5.0577
950.9586,-2.6504,1.7574,44.5279,3.6857,3.3714,2.9977,-313.6136,15.6191,-95.6213,1500,1500,1.0000,-0.1590,-1.4218,10.4444,3.6489,7.2502,5.4315,-0.0565,-1.3393,10.0929,3.7224,6.9016,5.1952
950.9771,-2.7357,1.8453,44.6195,4.3994,3.5256,8.3132,-338.7362,16.1325,-102.9124,1500,1500,1.0000,-0.1231,-1.2829,10.1116,4.3665,6.3189,5.3552,-0.2360,-1.3369,10.1815,4.4324,6.8176,5.6990
950.9956,-2.8159,1.9305,44.7113,4.5063,3.6727,7.9811,-347.0084,16.6178,-105.4713,1500,1500,1.0000,-0.1901,-1.3045,10.2242,4.5955,5.8762,5.5613,-0.1642,-1.1357,10.0833,4.4171,5.9779,5.5692
951.0140,-2.8669,1.9798,44.8098,3.3536,3.6248,-2.5982,-322.4170,16.9376,-98.7456,1500,1500,1.0000,-0.0848,-1.0698,10.2242,3.6184,5.1357,5.8819,-0.1522,-0.9897,9.7266,3.0889,5.4283,5.7753
951.0325,-2.9448,2.0229,44.9126,0.5215,3.1593,-25.1393,-266.4563,17.4107,-83.3131,1500,1500,1.0000,-0.0608,-0.9669,10.3798,1.1909,5.2121,5.9200,-0.0277,-0.8987,9.8152,-0.1478,5.4207,6.0730
951.0509,-3.0463,2.0839,45.0193,-3.1884,0.0000,-0.0000,-350.5446,18.0201,-107.1625,1500,1500,1.0000,-0.2045,-0.7466,10.1428,-1.6030,4.4945,6.0345,-0.3031,-0.5372,9.5638,-4.7737,4.9092,6.2257
951.0693,-3.1401,2.1818,45.1280,-7.6273,0.0000,-0.0000,-361.3351,18.5860,-110.4668,1500,1500,1.0000,-0.4223,-0.3228,9.8100,-6.4427,4.1510,5.9353,-0.3581,-0.1972,9.5782,-8.8119,4.3291,6.1646
951.0878,-3.2394,2.2399,45.2456,-11.3067,0.0000,-0.0000,-372.7576,19.1842,-113.9642,1500,1500,1.0000,-0.3505,-0.0499,9.5035,-10.4198,3.0899,5.9277,-0.3964,0.1380,9.3100,-12.1936,2.7489,6.6761
951.1063,-3.2686,2.2450,45.3719,-15.2342,-3.1979,-115.1219,-44.5733,19.3836,-22.1723,1500,1500,1.0000,-0.2715,0.5774,9.5466,-14.2213,0.8227,6.1490,-0.4060,0.7509,9.1640,-16.2470,1.3138,6.6226
951.1247,-3.2288,2.3365,45.4992,-20.5968,-5.8077,-141.9755,37.3461,19.1890,0.8624,1500,1500,1.0000,-0.7480,1.3699,9.6472,-18.8931,0.7082,5.8590,-0.6454,1.5003,8.9533,-22.3005,-0.1442,6.2562
951.1432,-3.2698,2.4465,45.6177,-28.1617,-9.1608,-181.1331,145.3973,19.4556,30.9834,1500,1500,1.0000,-0.9922,1.6524,9.5203,-25.7786,-1.9482,4.9582,-0.9950,1.4165,9.1161,-30.5447,-1.1595,5.5845
951.1618,-3.4656,2.4950,45.7391,-34.7456,-12.9985,-206.1393,194.8851,20.6062,44.2647,1500,1500,1.0000,-0.8150,1.4417,9.2354,-32.3435,-2.9330,4.1032,-0.6622,1.2776,8.4792,-37.1478,-2.8312,6.5539
951.1802,-3.8173,2.4808,45.8243,-38.7723,-16.8646,-209.6840,164.6206,22.6491,34.7692,1500,1500,1.0000,-0.5421,1.0251,9.1755,-37.7633,-3.3605,3.0422,-0.4084,0.8155,8.3667,-39.7814,-2.2511,4.1799
951.1986,-4.1165,2.4798,45.9122,-37.6464,-19.9819,-169.5183,14.5087,24.3958,-8.1355,1500,1500,1.0000,-0.5947,1.0227,8.4836,-37.9542,-3.1315,3.0498,-0.7149,0.8179,7.8567,-37.3386,-3.7778,4.2486
951.2171,-4.4104,2.4312,45.9862,-33.3792,-21.9915,-108.6141,-194.7179,26.1151,-67.5786,1500,1500,1.0000,-0.5660,0.6468,7.9832,-33.9389,-5.8261,2.3857,-0.4443,0.4181,8.0531,-32.8195,-6.1824,3.2639
951.2356,-4.7906,2.2499,46.0395,-26.0586,-22.6015,-33.0099,-456.2051,28.3298,-141.9023,1500,1500,1.0000,-0.2260,-0.2486,8.5961,-26.1908,-8.2002,1.8284,0.1063,-0.7742,8.5798,-25.9264,-7.9457,2.2410
951.2540,-5.1921,1.9310,46.0750,-17.3487,-21.8136,42.8017,-720.7502,30.6702,-217.1452,1500,1500,1.0000,0.4108,-1.0818,8.7086,-18.5496,-8.5895,1.1948,0.2237,-1.0879,9.2214,-16.1478,-6.8083,1.6990
951.2725,-5.4169,1.7411,46.1045,-10.8181,-20.1643,89.2877,-880.5084,32.0061,-262.5454,1500,1500,1.0000,0.0924,-0.9334,9.0414,-11.1221,-6.0475,0.9429,0.1758,-0.9682,8.9557,-10.5142,-4.7091,1.3707
951.2910,-5.3897,1.6536,46.1350,-1.8601,-17.4187,148.3120,-1047.3690,31.9050,-309.2158,1500,1500,1.0000,-0.1374,-0.6125,9.1587,-2.5038,-4.1773,1.0345,0.1710,-0.2523,8.8982,-1.2165,-1.8923,1.5005
951.3094,-5.1556,1.4693,46.1599,3.7315,-14.2461,172.4759,-1090.0107,30.6218,-320.5139,1500,1500,1.0000,0.4563,-0.1433,8.9624,2.9084,-1.0933,1.0116,0.5948,-0.0536,9.4752,4.5545,-0.8541,1.0730
951.3279,-4.7994,1.3090,46.1791,8.8269,-10.7852,186.9741,-1090.7719,28.6395,-319.7359,1500,1500,1.0000,0.5114,0.0052,9.3958,7.3894,0.3647,1.0345,0.4415,0.0973,9.2621,10.2644,0.4360,0.6913
951.3464,-4.3675,1.2577,46.1882,13.5101,-7.1409,197.4663,-1071.2876,26.2215,-313.0713,1500,1500,1.0000,-0.0393,0.0267,9.4820,12.9771,-0.7803,0.4315,-0.3414,-0.1374,9.5087,14.0431,-0.6938,0.0730
951.3648,-3.9552,1.2737,46.1955,16.6590,-3.5709,193.8100,-1013.3050,23.9107,-295.6808,1500,1500,1.0000,-0.3505,-0.2486,9.4221,16.8245,-0.7192,0.3094,-0.4156,-0.1853,9.2645,16.4934,-1.0984,0.1494
951.3833,-3.5865,1.2159,46.2039,15.1971,0.0000,0.0000,-412.7102,21.8454,-126.4816,1500,1500,1.0000,-0.0848,-0.2462,8.8858,15.6565,-1.7803,0.3170,-0.1259,-0.2403,9.0395,14.7377,-1.6251,0.2257
951.4018,-3.0953,1.1635,46.2066,20.1551,0.0000,0.0000,-356.1751,19.0760,-109.2671,1500,1500,1.0000,-0.1829,-0.0643,9.1037,18.2367,-0.8795,0.0574,0.0776,0.0398,9.1161,22.0736,-4.3427,-0.2629
951.4202,-2.3833,1.0572,46.2002,30.8956,6.6581,232.2766,-943.2015,15.0416,-271.6172,1500,1500,1.0000,-0.1997,0.1297,9.6184,29.6260,-6.7498,-0.4693,-0.3749,0.2361,10.0786,32.1652,-4.9534,-0.9194
951.4387,-1.5742,1.0231,46.1791,37.1551,11.2327,247.1955,-744.2225,10.4457,-213.6051,1500,1500,1.0000,-0.4056,0.1536,9.9871,35.2290,-4.9482,-0.7746,-0.1810,0.2936,10.1911,39.0812,-3.6404,-1.8430
951.4572,-0.7306,0.9153,46.1527,37.8918,15.2315,216.4077,-589.4401,5.6446,-167.8655,1500,1500,1.0000,0.1403,0.4098,10.1164,38.2443,-2.3299,-1.0494,0.1638,0.3654,9.4537,37.5392,-2.0144,-1.8659
951.4756,0.0943,0.8127,46.1201,34.5673,18.1319,157.5803,-442.9798,0.9415,-124.5051,1500,1500,1.0000,0.2480,0.7210,9.3359,35.5497,-1.0398,-1.3777,0.3553,0.7389,9.6332,33.5850,-0.3503,-2.1789
951.4941,0.8547,0.8405,46.0769,31.9261,20.2010,111.3851,-222.4420,-4.8802,-59.8437,1500,1500,1.0000,0.1882,0.8312,10.3271,32.1832,3.6014,-1.8586,0.0752,0.9257,10.1049,31.6690,6.6802,-2.8965
951.5127,1.5932,1.0436,46.0094,30.9605,21.8150,87.0252,-67.3003,-9.1059,-14.2911,1500,1500,1.0000,-0.4176,0.9509,10.1835,30.3970,8.1434,-2.6906,-0.4563,0.8036,9.9756,31.5240,7.5352,-5.0491
951.5312,2.4011,1.0826,45.9681,33.4032,23.5532,94.0433,5.4548,-13.7350,8.3948,1500,1500,1.0000,-0.0943,1.0730,9.0582,33.5497,4.7769,-1.9655,-0.0086,1.2345,9.4297,33.2568,1.0314,-2.8659
951.5496,3.1688,1.0538,45.9223,32.2773,24.8618,71.0964,159.8854,-18.1426,53.8392,1500,1500,1.0000,-0.0225,1.2454,9.9704,32.5726,1.1281,-2.2250,-0.1355,1.4284,10.0331,31.9820,-0.8083,-2.9117
951.5680,3.8419,1.1243,45.8734,28.4338,25.3976,29.0181,358.5254,-22.0174,111.3958,1500,1500,1.0000,-0.5636,1.3315,10.5282,29.1603,-0.2612,-2.5914,-0.6239,1.1818,9.7625,27.7072,-0.4801,-2.8659
951.5866,4.3964,1.1980,45.8141,24.8918,25.3217,-4.0818,517.6679,-25.2221,157.5581,1500,1500,1.0000,-0.6235,1.0442,9.4006,25.3588,-0.9177,-2.8891,-0.3031,1.0214,9.0347,24.4247,-2.1060,-3.4384
951.6052,4.7978,1.0794,45.7388,20.7391,24.6343,-37.1046,658.9673,-27.5580,198.2899,1500,1500,1.0000,0.2504,0.8264,9.6376,21.1680,-1.8414,-3.5761,0.5541,0.7509,9.7075,20.3102,-0.7320,-4.3392
951.6236,5.1102,0.9669,45.6508,20.0712,23.9499,-37.0238,694.6836,-29.3896,209.2062,1500,1500,1.0000,0.4755,0.6037,10.6120,20.0611,0.4487,-4.5227,0.3242,0.5162,10.5358,20.0812,1.0466,-4.9728
951.6420,5.3913,0.9641,45.5641,22.6322,23.7522,-10.7535,651.3826,-31.0461,197.9102,1500,1500,1.0000,-0.0536,0.2661,10.3343,22.1527,0.9907,-4.5303,-0.1762,0.3391,10.4904,23.1118,0.4436,-4.7972
951.6605,5.6855,1.0074,45.4750,24.6819,23.8917,7.5340,632.5717,-32.7797,193.5099,1500,1500,1.0000,-0.2955,0.1919,10.5282,24.8016,0.4105,-4.5914,-0.3294,0.0278,10.2868,24.5621,0.7413,-4.8812
951.6790,6.0093,1.0675,45.3900,27.2429,24.3943,27.1558,613.3336,-34.6857,189.0763,1500,1500,1.0000,-0.1877,0.1536,10.4875,27.2977,2.2273,-4.4082,-0.0397,0.1667,10.3754,27.1881,3.3367,-5.0339
951.6974,6.2268,1.0503,45.3111,26.4070,24.6963,16.4000,669.3401,-35.9875,205.4090,1500,1500,1.0000,0.3677,-0.2462,10.6527,26.5115,4.8609,-4.2861,0.0369,0.1978,10.0115,26.3026,4.3215,-4.7514
951.7160,6.3839,1.0721,45.2375,21.6895,24.2452,-24.3524,804.7907,-36.9469,243.8149,1500,1500,1.0000,0.0230,-0.0738,10.6408,23.1832,5.0212,-4.8052,-0.0852,0.0302,10.3371,20.1957,0.9245,-3.3010
951.7345,6.4464,1.0788,45.1239,18.3383,23.3592,-47.8892,879.7718,-37.3677,265.0200,1500,1500,1.0000,-0.2188,-0.1983,10.5570,19.0764,-0.2765,-4.7365,-0.3917,-0.2619,11.1033,17.6003,-0.9152,-7.0415
951.7529,6.4245,1.2141,45.0313,15.7582,22.2191,-61.8720,917.5167,-37.3069,275.5581,1500,1500,1.0000,-0.7097,-0.3707,10.6791,15.6947,0.3266,-4.8662,-0.6095,-0.7048,10.4784,15.8217,2.4970,-4.9041
951.7714,6.4278,1.3907,44.9515,19.2315,21.7709,-24.2310,809.4886,-37.3899,245.3517,1500,1500,1.0000,-0.5780,-0.5790,10.6336,18.7023,4.6853,-4.4464,-0.5569,-0.4199,10.5430,19.7606,5.9016,-4.6064
951.7899,6.5423,1.5889,44.8834,24.6437,22.2018,23.2863,685.8198,-38.1081,211.0836,1500,1500,1.0000,-0.4894,-0.4952,10.1140,23.5344,7.0518,-3.8891,-0.5760,-0.2786,10.5550,25.7530,7.9779,-4.3392
951.8083,6.7977,1.7298,44.8239,27.4070,22.9826,42.3658,660.2672,-39.6318,204.6907,1500,1500,1.0000,-0.2404,-0.0355,10.9257,26.7176,8.4029,-3.4540,-0.3342,-0.0703,10.5023,28.0965,7.2680,-4.1255
951.8268,7.0323,1.8712,44.7564,24.9414,23.2764,15.8725,763.5716,-41.0393,234.3197,1500,1500,1.0000,-0.6115,0.1177,10.4875,26.5802,4.7617,-3.4311,-0.7556,0.2050,10.0833,23.3026,3.0237,-4.1484
951.8454,7.1547,2.0907,44.6915,18.1093,22.5014,-41.8192,943.8104,-41.8084,285.1711,1500,1500,1.0000,-1.1430,0.2182,10.0542,20.1222,2.0441,-3.3242,-1.2177,0.1787,9.7482,16.0965,2.3138,-3.5224
951.8638,7.1552,2.3296,44.6408,11.9147,20.9134,-86.0539,1071.2637,-41.8828,320.8952,1500,1500,1.0000,-1.1598,0.1991,9.6615,12.6336,2.9525,-2.6906,-0.8873,0.2888,9.8008,11.1957,3.4283,-2.7514
951.8822,7.1067,2.4144,44.6046,8.6857,19.0792,-99.7148,1105.0340,-41.6779,330.2485,1500,1500,1.0000,-0.5756,0.2709,10.3487,9.3206,2.9831,-1.9807,-0.4922,0.2673,9.9900,8.0507,2.3673,-1.7132
951.9007,7.0593,2.4516,44.5654,6.4528,17.1853,-102.4045,1107.3226,-41.4783,330.7895,1500,1500,1.0000,-0.5732,0.4601,10.1595,7.5497,0.7464,-1.8204,-0.6574,0.5450,9.9229,5.3560,-0.5335,-1.7132
951.9192,6.9962,2.4974,44.5341,3.6551,15.1557,-109.6735,1120.9953,-41.1886,334.4730,1500,1500,1.0000,-0.7647,0.5965,9.6759,4.1756,-1.4444,-1.3548,-0.5976,0.6623,9.5446,3.1347,-2.1289,-0.9881
951.9376,6.8687,2.5374,44.5099,-1.7762,12.6159,-138.0930,1188.1666,-40.5305,352.9519,1500,1500,1.0000,-0.7982,0.7354,9.5921,0.1527,-2.7650,-1.0876,-0.8011,0.7820,9.0299,-3.7050,-2.0908,-0.4690
951.9561,6.5501,2.5898,44.4900,-12.0204,8.9205,-199.9494,1329.6373,-38.7798,391.6883,1500,1500,1.0000,-0.8509,0.7043,9.5825,-8.7786,-1.6887,-0.9349,-0.8130,0.6647,9.0036,-15.2623,-2.9686,-0.1255
951.9746,5.9673,2.5733,44.4760,-23.9517,3.9897,-266.5818,1454.4637,-35.5177,425.0087,1500,1500,1.0000,-0.4846,0.4433,9.3120,-21.0152,-1.5437,-0.5914,-0.1379,0.3702,8.8312,-26.8882,-1.7015,0.2868
951.9930,5.2332,2.3697,44.4630,-31.4441,0.0000,-0.0000,602.2142,-31.3855,184.3127,1500,1500,1.0000,0.1786,0.2781,9.3623,-30.3587,-3.9177,-0.5227,0.1590,0.4157,8.8767,-32.5295,-3.6175,0.7524
952.0115,4.4193,2.0048,44.4295,-35.6960,-6.4810,-278.6146,1310.9580,-26.7905,380.4635,1500,1500,1.0000,0.6311,0.1560,8.1939,-33.8778,-8.4368,-0.7212,-0.1331,0.0949,10.5287,-37.5142,-4.4266,-1.0568
952.0300,3.5603,1.9824,44.4091,-37.2036,-11.0894,-248.8961,1126.5096,-21.9296,326.3875,1500,1500,1.0000,-0.5923,-0.0331,9.8746,-37.0229,-4.1315,-0.7365,-0.8202,0.1332,9.3364,-37.3844,-4.2282,0.0806
952.0485,2.6771,2.0591,44.3898,-37.5510,-15.0586,-215.0734,927.4620,-16.9220,268.1504,1500,1500,1.0000,-0.8557,-0.2510,8.4836,-36.3282,-4.7269,-0.9273,0.2763,0.4803,12.8582,-38.7737,-1.4724,0.3097
952.0668,1.9174,1.9555,44.3710,-38.1807,-18.5269,-188.5839,636.4620,-12.6110,184.5149,1500,1500,1.0000,0.0038,0.2254,10.9999,-38.3206,0.7922,-1.1945,-0.2696,-0.1038,9.1664,-38.0409,-4.1900,-0.3163
952.0854,1.1378,1.7001,44.3410,-35.0701,-21.0084,-134.0308,430.7803,-8.1789,124.7079,1500,1500,1.0000,0.3965,-0.2702,9.9153,-35.4351,-4.8719,-1.7899,0.4607,-0.3528,10.2845,-34.7050,-5.8618,-0.5148
952.1038,0.3812,1.4758,44.3070,-34.5777,-23.0438,-110.1868,361.1976,-3.8698,103.0702,1500,1500,1.0000,0.4515,-0.3683,10.4301,-33.7404,-4.5437,-2.0418,0.3362,-0.5947,9.7027,-35.4150,-3.0450,-1.0110
952.1222,-0.3224,1.3285,44.2593,-34.6159,-24.7796,-94.3437,234.6151,0.1436,65.6204,1500,1500,1.0000,0.2121,-0.2486,10.0015,-33.1984,-3.3223,-4.0342,-0.0924,-0.2595,9.3244,-36.0333,-1.9915,-0.7056
952.1407,-0.8774,1.2152,44.2352,-29.0891,-25.4260,-34.9983,-0.1647,3.3159,-1.7041,1500,1500,1.0000,0.0780,-0.1313,9.7070,-29.5725,-2.7956,-1.8586,0.1303,-0.1302,9.2262,-28.6058,-2.2282,-0.6293
952.1591,-1.2943,1.0252,44.2130,-23.1388,-25.0830,18.6085,-202.5245,5.7052,-59.5595,1500,1500,1.0000,0.5186,-0.0978,9.7429,-24.5725,-2.5895,-1.6906,0.6594,-0.0440,10.2031,-21.7050,-0.8083,-0.7590
952.1776,-1.5478,0.8391,44.1926,-15.8258,-23.6944,75.3793,-395.1925,7.1655,-114.2366,1500,1500,1.0000,0.7125,-0.0403,9.8363,-16.9542,-0.0856,-1.3700,0.5445,0.0566,9.7625,-14.6974,0.5428,-0.9117
952.1961,-1.7291,0.7975,44.1713,-13.3067,-22.1362,84.2598,-441.6324,8.2163,-127.7652,1500,1500,1.0000,0.0876,0.0339,9.6184,-12.8855,0.3495,-1.4387,0.2045,0.0470,9.4465,-13.7279,0.7413,-0.9117
952.2145,-1.7788,0.8454,44.1530,-11.9823,-20.6131,82.4703,-442.2019,8.5176,-128.0753,1500,1500,1.0000,-0.2787,0.4816,9.3982,-11.6335,0.8227,-1.3929,-0.2815,0.3918,9.2909,-12.3310,0.8176,-0.7667
952.2330,-1.8073,0.9191,44.1400,-11.4021,-19.2315,74.9579,-423.8466,8.6981,-123.0261,1500,1500,1.0000,-0.3577,0.5319,9.6496,-11.2595,0.2579,-1.0723,-0.3079,0.5929,9.7505,-11.5447,2.8176,-0.5071
952.2515,-1.7742,0.9061,44.1311,-9.4441,-17.7634,79.2362,-432.3548,8.5270,-125.3228,1500,1500,1.0000,-0.1207,0.6468,9.6783,-9.6030,-0.0933,-0.8357,-0.0852,0.6623,9.5830,-9.2852,-0.4648,-0.4919
952.2700,-1.7292,0.8532,44.1279,-9.1846,-16.4766,69.4681,-399.0468,8.2879,-115.8770,1500,1500,1.0000,-0.0058,0.6971,9.9010,-8.4809,-1.3299,-0.6906,0.0896,0.7078,9.5758,-9.8882,-0.8160,-0.0644
952.2885,-1.6598,0.8401,44.1269,-9.5586,-15.4389,56.2397,-352.9640,7.9089,-102.7844,1500,1500,1.0000,-0.1183,0.8240,9.5203,-9.1374,-1.2002,-0.6143,-0.2073,0.7605,9.4537,-9.9798,0.3596,0.1112
952.3069,-1.6147,0.9130,44.1328,-10.5433,-14.7045,39.7583,-300.3097,7.6681,-87.9208,1500,1500,1.0000,-0.3505,0.8024,9.4820,-10.0763,1.0212,-0.0800,-0.2743,0.8012,9.1233,-11.0104,1.8176,0.4394
952.3254,-1.5797,0.9732,44.1430,-11.8181,-14.2716,23.4665,-249.3554,7.4841,-73.5616,1500,1500,1.0000,-0.2524,0.8814,9.6328,-9.9313,1.6777,0.1643,-0.1211,0.8802,9.5782,-13.7050,2.5657,0.6379
952.3438,-1.6226,1.0689,44.1587,-15.7380,-14.4915,-11.9515,-152.2919,7.7450,-46.5143,1500,1500,1.0000,-0.3601,0.8766,9.8291,-14.6717,2.6472,0.5155,-0.5976,1.0430,9.6524,-16.8043,3.1230,0.9203
952.3623,-1.6933,1.1982,44.1902,-17.3601,-14.9218,-23.2244,-127.9626,8.1650,-39.9120,1500,1500,1.0000,-0.5995,0.8743,9.6783,-16.7786,1.9449,0.4468,-0.4467,0.7748,9.4704,-17.9417,2.1230,2.6532
952.3808,-1.8235,1.2674,44.2011,-18.4288,-15.4479,-28.3871,-128.0796,8.9256,-40.3251,1500,1500,1.0000,-0.2883,0.6636,9.4652,-17.5496,2.3189,0.1338,-0.2887,0.5593,9.1448,-19.3081,2.9474,0.7600
952.3993,-1.9937,1.3237,44.2107,-19.3983,-16.0404,-32.1259,-136.8976,9.9157,-43.2892,1500,1500,1.0000,-0.4678,0.5319,9.2880,-19.3435,-0.7574,0.0498,-0.5066,0.4540,9.1137,-19.4531,0.3902,0.5616
952.4177,-2.1481,1.4111,44.2039,-17.1159,-16.2018,-8.7410,-222.0077,10.8169,-67.5706,1500,1500,1.0000,-0.6929,0.4122,9.7597,-17.2900,-0.8414,-0.0800,-0.7843,0.3056,9.7482,-16.9417,-0.6327,-1.1255
952.4362,-2.2850,1.5188,44.2169,-14.1464,-15.8935,16.7264,-311.1042,11.6200,-92.9192,1500,1500,1.0000,-0.7575,0.2087,9.8938,-14.2366,-0.6124,0.3704,-0.6215,0.2744,9.6117,-14.0562,0.4818,0.7371
952.4546,-2.4080,1.6065,44.2248,-12.3220,-15.3577,29.0981,-360.8935,12.3454,-107.2229,1500,1500,1.0000,-0.6498,0.0914,9.3670,-12.3435,-0.0322,0.1261,-0.6143,-0.0799,8.9317,-12.3005,-0.2740,0.4547
952.4732,-2.5109,1.6408,44.2274,-10.3220,-14.6024,40.6558,-406.0236,12.9572,-120.1652,1500,1500,1.0000,-0.4559,-0.0020,9.2976,-10.6565,-0.8643,0.0880,-0.2672,0.0230,9.5686,-9.9875,-0.1366,-0.1178
952.4919,-2.5653,1.7078,44.2291,-5.9327,-13.3019,69.5099,-495.3750,13.2925,-145.3512,1500,1500,1.0000,-0.4918,-0.1672,9.8100,-6.7175,0.8151,-0.0800,-0.4491,-0.2236,9.9038,-5.1478,1.4665,0.2028
952.5103,-2.5466,1.7917,44.2293,-0.8296,-11.4311,101.4099,-585.0999,13.2116,-170.4338,1500,1500,1.0000,-0.6043,-0.2821,9.8746,-1.6641,0.9831,-0.0189,-0.7675,-0.2212,9.9110,0.0049,0.8711,0.0119
952.5287,-2.4511,1.9062,44.2271,3.9796,-9.1195,125.5003,-643.4906,12.6918,-186.5232,1500,1500,1.0000,-0.8198,-0.3276,9.7429,3.2138,0.1663,-0.0418,-0.8106,-0.3409,9.8080,4.7453,0.2298,-0.2705
952.5473,-2.2820,1.9730,44.2167,9.3460,-6.3497,149.0009,-691.7145,11.7508,-199.5555,1500,1500,1.0000,-0.5875,-0.4354,9.7525,8.1909,0.1357,-0.3624,-0.7029,-0.3672,9.6644,10.5011,0.9169,-0.7132
952.5658,-2.0061,2.0151,44.2044,15.5292,-3.0678,178.0398,-743.5995,10.1983,-213.3070,1500,1500,1.0000,-0.4223,-0.4210,9.5538,14.3894,0.8533,-0.4845,-0.4587,-0.5228,9.7242,16.6690,1.5428,-0.7056
952.5842,-1.6469,2.0820,44.1864,21.7124,0.0000,0.0000,-189.5073,8.1671,-57.1456,1500,1500,1.0000,-0.4583,-0.5240,9.6711,20.7100,2.2121,-0.6601,-0.3701,-0.5587,10.1336,22.7148,2.3596,-0.9728
952.6028,-1.2626,2.1203,44.1657,25.1131,4.3188,197.6751,-595.4934,5.9893,-169.7328,1500,1500,1.0000,-0.3816,-0.6628,9.9201,23.4581,2.0670,-0.4998,-0.5066,-0.5635,9.9541,26.7682,1.5581,-1.3010
952.6213,-0.8059,2.1491,44.1280,28.6131,7.9629,196.8458,-549.7124,3.3944,-155.6167,1500,1500,1.0000,-0.4295,-0.5575,9.9943,28.0916,0.8380,-0.6754,-0.3366,-0.5731,9.8631,29.1347,1.0314,-3.0949
952.6397,-0.3383,2.1409,44.1047,30.8002,11.3885,185.8676,-478.5216,0.7322,-134.3521,1500,1500,1.0000,-0.2069,-0.6197,10.1835,30.3894,1.6243,-0.7441,-0.1355,-0.7192,10.1240,31.2110,1.4589,-1.2781
952.6582,0.1309,2.1116,44.0845,32.9147,14.6175,174.4702,-487.4138,-1.9435,-135.5041,1500,1500,1.0000,-0.1111,-0.7179,10.0159,32.2672,1.2960,-0.4769,-0.2336,-0.6832,10.0067,33.5621,1.4970,-1.0644
952.6767,0.6177,2.1237,44.0663,33.2200,17.4078,150.8270,-363.3047,-4.7244,-99.3631,1500,1500,1.0000,-0.2476,-0.5934,10.2577,33.4428,1.9602,-0.4387,-0.2145,-0.6138,9.8583,32.9973,2.2604,-0.9804
952.6951,1.1239,2.1276,44.0506,32.0712,19.6073,119.5290,-214.9219,-7.6208,-56.3677,1500,1500,1.0000,-0.1422,-0.2845,9.8219,32.4810,2.8762,-0.3090,-0.0229,-0.2906,9.8631,31.6614,2.7413,-1.0568
952.7136,1.5911,2.1349,44.0351,30.2391,21.2021,86.4694,-65.9446,-10.3000,-13.3145,1500,1500,1.0000,-0.2571,-0.2271,9.8986,30.7100,2.1128,-0.5151,-0.4084,-0.3145,9.5782,29.7682,1.0772,-0.8048
952.7320,2.0393,2.1749,44.0198,28.3994,22.2817,58.5464,66.0469,-12.8751,24.9307,1500,1500,1.0000,-0.5732,-0.0786,9.9297,28.8016,0.0747,-0.4693,-0.6526,-0.0727,9.5542,27.9973,-0.5335,-0.8430
952.7504,2.4659,2.1926,44.0043,26.0444,22.8461,30.6993,195.3414,-15.3316,62.3614,1500,1500,1.0000,-0.6163,0.1033,9.6759,27.0229,-1.7269,-0.3624,-0.4707,0.1260,9.6356,25.0660,-2.2358,-0.9270
952.7690,2.8285,2.1465,43.9883,20.7353,22.5295,-17.0379,374.5455,-17.4265,113.5860,1500,1500,1.0000,-0.3529,0.3140,9.8172,22.1756,-2.4063,-0.5609,-0.2648,0.3989,9.5135,19.2950,-2.0373,-0.8277
952.7876,3.0770,2.0868,43.9694,13.4452,21.1668,-73.1937,564.8696,-18.8736,167.6003,1500,1500,1.0000,-0.1973,0.4601,9.5227,15.0306,-1.7269,-0.9349,-0.2504,0.4779,9.2310,11.8598,-0.9534,-0.9117
952.8061,3.2135,2.0558,43.9536,7.7048,19.1475,-109.3898,684.8205,-19.6837,201.5916,1500,1500,1.0000,-0.3146,0.4816,9.5083,9.2138,-1.2841,-0.9044,-0.2097,0.5306,9.2956,6.1957,-1.3427,-0.6293
952.8245,3.2336,2.0086,43.9337,1.5101,16.5019,-143.8919,786.5018,-19.8307,230.1359,1500,1500,1.0000,-0.2907,0.5127,9.8387,3.4275,-1.7192,-1.0189,-0.1187,0.5139,9.3723,-0.4073,-1.9915,-0.8965
952.8440,3.0816,1.8860,43.9080,-7.3029,12.9312,-182.3267,879.7017,-18.9951,255.8140,1500,1500,1.0000,-0.0776,0.5127,9.8172,-5.3129,-3.1849,-1.4922,-0.1786,0.4348,9.3579,-9.2928,-3.2969,-0.7056
952.8627,2.7777,1.7679,43.8813,-15.5395,8.6606,-229.0947,979.4294,-17.2910,282.8857,1500,1500,1.0000,-0.1470,0.4625,9.8387,-13.4885,-4.4368,-1.6067,-0.1427,0.3080,9.5518,-17.5905,-4.2282,-0.6903
952.8812,2.3436,1.6718,43.8617,-23.4823,3.8392,-260.1739,1018.9810,-14.8399,292.7346,1500,1500,1.0000,-0.1039,0.4984,10.3918,-21.1755,-3.0322,-1.4845,0.0034,0.5905,9.9229,-25.7890,-2.5717,-0.2629
952.8997,1.7154,1.5984,43.8349,-28.7418,0.0000,-0.0000,197.3884,-11.2762,60.9068,1500,1500,1.0000,-0.0153,-0.0643,11.5338,-26.9923,-1.6887,-1.5685,-0.2073,0.3750,9.3316,-30.4913,0.0772,-0.8125
952.9182,0.9726,1.4688,43.8026,-33.1846,-5.8685,-261.8716,721.7555,-7.0521,205.6176,1500,1500,1.0000,-0.0058,-0.3109,9.4580,-31.8168,-3.1085,-2.0571,0.0321,-0.4319,9.8320,-34.5524,-4.9076,-0.6140
952.9367,0.2360,1.3085,43.7742,-34.7685,-10.2035,-234.0853,584.4352,-2.8558,165.0698,1500,1500,1.0000,0.0469,-0.2702,10.2457,-33.8702,-5.7574,-1.7670,-0.1690,-0.6018,10.2102,-35.6669,-4.6480,-0.6980
952.9552,-0.5687,1.1918,43.7478,-35.1311,-13.9426,-202.2454,517.0245,1.7368,143.8985,1500,1500,1.0000,0.0086,-0.7035,10.1428,-34.7404,-3.9406,-1.6448,-0.0565,-0.7072,10.2438,-35.5218,-3.2129,-0.5758
952.9735,-1.3334,1.1457,43.7216,-34.0586,-16.9600,-164.0723,319.0975,6.1087,86.2930,1500,1500,1.0000,-0.1183,-0.7586,10.2481,-35.2290,-0.8566,-1.7059,-0.0613,-0.8580,9.7697,-32.8882,-2.0908,-0.5682
952.9920,-2.0240,1.0993,43.6930,-31.2762,-19.1074,-116.5660,102.8122,10.0653,23.7548,1500,1500,1.0000,-0.0249,-0.7969,10.2002,-30.4122,-1.4444,-1.6372,-0.0182,-0.8796,9.8822,-32.1402,0.8176,-1.0415
953.0106,-2.6024,1.1103,43.6581,-25.5510,-20.0740,-51.8636,-150.0965,13.3886,-48.7213,1500,1500,1.0000,-0.0489,-0.8137,9.8435,-25.8702,1.9983,-1.9120,0.1901,-0.8389,9.5518,-25.2318,2.8024,-1.2629
953.0295,-3.1198,1.1670,43.6240,-23.3563,-20.5663,-25.9999,-284.1155,16.3685,-87.7366,1500,1500,1.0000,-0.2117,-0.7921,9.8914,-22.9236,2.5250,-1.8815,-0.3390,-0.9107,9.8631,-23.7890,3.2146,-1.1102
953.0481,-3.5556,1.2678,43.5888,-21.7609,-20.7455,-9.6317,-381.4108,18.8883,-116.2392,1500,1500,1.0000,-0.4487,-0.6700,9.7190,-21.6488,2.6624,-1.9197,-0.3629,-0.6401,9.7601,-21.8730,2.5428,-1.3392
953.0667,-3.8795,1.2968,43.5420,-18.3869,-20.3917,19.0949,-501.4228,20.7736,-150.7852,1500,1500,1.0000,-0.2332,-0.5240,9.7573,-18.7404,1.4869,-1.8357,-0.0924,-0.3313,9.6189,-18.0333,1.6573,-3.1942
953.0851,-4.0778,1.2616,43.5145,-14.1159,-19.4503,51.0449,-616.2535,21.9444,-183.5232,1500,1500,1.0000,-0.0465,-0.3612,9.5801,-14.7099,0.3418,-1.7899,0.0489,-0.2140,9.6404,-13.5218,0.1611,-1.2476
953.1036,-4.1659,1.2014,43.4879,-10.7189,-18.1406,70.6820,-682.9443,22.4881,-202.4685,1500,1500,1.0000,0.0062,-0.1792,9.5131,-10.7633,-0.6429,-1.7899,-0.0301,-0.1398,9.5853,-10.6745,-0.4266,-1.3850
953.1222,-4.1867,1.1629,43.4556,-9.6922,-16.8734,68.4140,-678.8077,22.6486,-201.3905,1500,1500,1.0000,-0.0177,0.0195,9.6520,-9.3129,-0.2918,-2.0418,-0.2193,0.0278,9.7098,-10.0715,0.8405,-1.7438
953.1406,-4.1825,1.2273,43.4240,-8.2265,-15.5763,70.2348,-683.5708,22.6666,-202.7331,1500,1500,1.0000,-0.3457,0.0123,9.6256,-8.4885,1.3800,-1.9197,-0.2767,0.0853,9.4561,-7.9646,2.4436,-1.5377
953.1592,-4.1592,1.2430,43.3958,-6.6769,-14.2414,72.0623,-686.1467,22.5751,-203.4086,1500,1500,1.0000,-0.1111,-0.0308,9.6184,-6.7328,1.9754,-1.7899,-0.1307,-0.0799,9.4608,-6.6211,2.2298,-1.2247
953.1777,-4.1455,1.2294,43.3692,-5.7342,-12.9653,68.8434,-675.3075,22.5389,-200.3556,1500,1500,1.0000,-0.0369,-0.1576,9.5921,-5.2595,1.3876,-1.6448,-0.1594,-0.1493,9.3723,-6.2089,1.3902,-1.2552
953.1962,-4.1007,1.2318,43.3486,-6.4212,-11.9837,53.1960,-625.0829,22.3243,-186.1854,1500,1500,1.0000,-0.1686,0.0435,9.5370,-6.0458,0.7311,-1.3242,-0.3007,0.1116,9.3292,-6.7966,0.4512,-1.1789
953.2146,-4.0152,1.2826,43.3291,-5.1426,-10.9575,55.5300,-621.9644,21.8771,-185.0886,1500,1500,1.0000,-0.4391,0.1177,9.4820,-4.0229,-0.2002,-1.4616,-0.3821,0.1954,9.3675,-6.2623,0.2909,-0.9957
953.2331,-3.9281,1.3237,43.3129,-5.9670,-10.2090,40.4981,-568.6471,21.4198,-169.9311,1500,1500,1.0000,-0.3769,0.2135,9.2617,-5.6565,-0.0017,-1.2632,-0.3797,0.2409,9.3651,-6.2776,0.4589,-0.8812
953.2515,-3.8669,1.3236,43.2933,-6.3487,-9.6299,31.4380,-535.5212,21.1101,-160.5010,1500,1500,1.0000,-0.2212,0.1440,9.4508,-5.8091,0.1128,-1.4998,-0.1020,0.2194,9.3890,-6.8882,0.0008,-0.9881
953.2701,-3.8329,1.3126,43.2705,-6.5090,-9.1618,25.2660,-513.8325,20.9546,-154.3504,1500,1500,1.0000,-0.1518,0.0483,9.8626,-6.0076,0.0289,-1.5380,-0.1881,0.0781,9.7936,-7.0104,0.8405,-1.2094
953.2886,-3.8019,1.3210,43.2496,-6.6311,-8.7822,20.5230,-496.6039,20.8159,-149.4570,1500,1500,1.0000,-0.1159,0.0554,9.7549,-6.4045,1.4869,-1.2861,-0.0110,0.0087,9.4561,-6.8577,2.2909,-1.0720
953.3070,-3.7346,1.3299,43.2290,-6.1502,-8.3874,21.4433,-491.5058,20.4694,-147.8563,1500,1500,1.0000,-0.0872,0.1871,9.4939,-5.9923,2.0899,-1.3166,0.0537,0.0183,9.4561,-6.3081,2.3062,-1.0491
953.3255,-3.6881,1.3245,43.2070,-5.6311,-7.9739,22.2876,-488.5842,20.2411,-146.9242,1500,1500,1.0000,-0.0704,0.0554,9.6089,-5.3206,2.0136,-1.3853,-0.2600,0.0302,9.7362,-5.9417,0.9321,-1.1255
953.3440,-3.6485,1.3922,43.1815,-5.8525,-7.6557,17.2435,-469.4985,20.0518,-141.4855,1500,1500,1.0000,-0.2667,0.0554,9.8986,-5.5648,3.2502,-1.4922,-0.3294,-0.0272,9.5423,-6.1402,3.3749,-1.1713
953.3624,-3.6397,1.4051,43.1515,-5.6998,-7.3623,15.8893,-464.5890,20.0382,-140.1040,1500,1500,1.0000,-0.1446,-0.0930,9.7190,-5.6183,2.1815,-1.7899,-0.0684,-0.0560,9.4417,-5.7814,1.5352,-1.4766
953.3810,-3.6707,1.3758,43.1221,-4.1235,-6.8765,26.1188,-497.6204,20.2518,-149.4596,1500,1500,1.0000,-0.0896,-0.3947,9.5490,-4.1145,0.3113,-1.7746,-0.1067,-0.6042,9.4249,-4.1325,0.1917,-1.4384
953.3995,-3.7192,1.3681,43.0663,-1.9937,-6.1441,39.7108,-542.3402,20.5651,-162.1378,1500,1500,1.0000,-0.2188,-0.6604,9.7573,-3.0839,-0.1925,-4.0800,-0.2791,-0.7599,9.6117,-0.9035,0.1306,-1.6751
953.4179,-3.7895,1.3553,43.0260,-0.1082,-5.2387,49.1267,-577.5478,21.0037,-172.2152,1500,1500,1.0000,-0.2045,-0.9286,9.5849,-0.6183,-0.3757,-2.1868,-0.3893,-0.8053,9.8152,0.4018,-0.1976,-2.0415
953.4364,-3.8314,1.3772,42.9833,4.3727,-3.7970,77.8006,-664.9601,21.2813,-196.8295,1500,1500,1.0000,-0.3098,-1.1848,9.5777,3.5955,-0.0475,-2.2021,-0.3462,-1.0903,9.5830,5.1499,0.8405,-2.0415
953.4552,-3.8033,1.3955,42.9406,9.1170,0.0000,0.0000,-437.6577,21.1590,-133.1237,1500,1500,1.0000,-0.2356,-1.2781,9.6136,8.4810,0.8915,-2.0418,-0.2815,-1.3393,9.5758,9.7530,1.2909,-2.0262
953.4746,-3.7239,1.4245,42.8975,13.1284,0.0000,0.0000,-428.5229,20.7438,-130.3583,1500,1500,1.0000,-0.2835,-1.3907,9.5777,12.5573,1.1815,-1.9960,-0.2672,-1.4973,9.7290,13.6995,0.9016,-1.8659
953.4932,-3.5924,1.4295,42.8549,16.8956,0.0000,0.0000,-413.3853,20.0300,-125.7629,1500,1500,1.0000,-0.2188,-1.4649,9.7022,16.2214,0.6090,-1.9502,-0.3079,-1.4925,9.7984,17.5698,0.7184,-2.0568
953.5119,-3.4067,1.4388,42.8162,20.8345,5.5599,144.4905,-808.1424,19.0053,-235.7825,1500,1500,1.0000,-0.3146,-1.5439,9.7621,20.2214,-0.0627,-1.8433,-0.2696,-1.4853,9.5901,21.4476,-0.3427,-1.7819
953.5304,-3.1551,1.4226,42.7817,23.3154,8.2233,144.1318,-778.1573,17.6028,-226.6854,1500,1500,1.0000,-0.2069,-1.3715,9.4820,22.8855,-0.4139,-1.5151,-0.3749,-1.3081,9.7098,23.7453,-0.4495,-1.8048
953.5488,-2.8611,1.4383,42.7533,24.8002,10.7098,134.5732,-716.8000,15.9558,-208.6819,1500,1500,1.0000,-0.3409,-1.2925,9.6855,24.5955,-0.2383,-1.1410,-0.4132,-1.1190,9.7458,25.0049,-0.2892,-1.5377
953.5674,-2.5065,1.4623,42.7309,25.5292,12.9327,119.9463,-633.8657,13.9594,-184.4621,1500,1500,1.0000,-0.3793,-1.0579,9.9417,25.6642,-0.2231,-0.8586,-0.3342,-0.9251,9.9277,25.3942,0.0161,-1.2858
953.5858,-2.1610,1.4929,42.7117,24.0521,14.6006,90.3651,-508.9137,12.0117,-148.5017,1500,1500,1.0000,-0.3673,-0.9070,10.0662,23.3817,0.4487,-0.7212,-0.3318,-0.7790,10.0283,24.7224,0.4665,-1.0491
953.6043,-1.7778,1.4923,42.7002,23.8345,15.9857,75.0869,-420.8232,9.8455,-122.7533,1500,1500,1.0000,-0.3122,-0.6604,10.1667,24.3130,-0.1544,-0.4311,-0.3270,-0.5923,10.1097,23.3560,-1.0068,-0.6751
953.6228,-1.4131,1.4918,42.6904,21.0406,16.7439,41.0042,-233.9175,7.7810,-69.3874,1500,1500,1.0000,-0.3888,-0.4473,10.3271,21.9161,-1.3070,-0.4235,-0.2839,-0.3481,10.1169,20.1652,-1.3350,-0.6216
953.6412,-1.0658,1.5033,42.6884,17.4757,16.8537,5.9568,-116.4958,5.8117,-35.5247,1500,1500,1.0000,-0.4223,-0.1361,10.4013,18.5802,-0.8948,-0.0876,-0.3198,-0.2403,10.0881,16.3713,-1.1518,-0.2171
953.6596,-0.7862,1.4617,42.7026,13.3383,16.3264,-28.6728,-6.5717,4.2258,-3.9530,1500,1500,1.0000,-0.2069,-0.0284,10.2002,14.4962,-1.4444,1.7521,-0.1115,0.0997,10.1240,12.1805,-1.6938,-0.3316
953.6780,-0.5404,1.4493,42.7176,9.3651,15.2822,-56.6153,84.0577,2.8303,22.1210,1500,1500,1.0000,-0.2811,0.2278,11.0406,10.6260,-0.8643,1.7445,-0.0780,0.5546,9.8679,8.1041,-0.4343,-0.2094
953.6965,-0.3116,1.3885,42.7179,5.0215,13.7431,-83.0828,169.5238,1.5290,46.7022,1500,1500,1.0000,0.0397,0.5558,10.0278,6.0611,-0.8414,-0.2174,-0.1115,0.4995,9.5590,3.9820,0.7795,-0.1026
953.7150,-0.2128,1.3208,42.7130,-1.1388,11.5108,-120.6710,269.2016,0.9684,74.8922,1500,1500,1.0000,0.0206,0.5343,10.0231,1.6947,-1.2078,-0.4693,0.0297,0.5450,9.3100,-3.9722,-0.1824,-0.3850
953.7335,-0.2501,1.3004,42.7049,-7.5014,8.6590,-154.5824,347.0133,1.1835,96.5720,1500,1500,1.0000,-0.1183,0.4409,9.7429,-5.8626,-0.4292,-0.7899,-0.0517,0.5785,9.8631,-9.1402,0.6573,-0.3850
953.7519,-0.3984,1.2848,42.6975,-13.1311,5.3905,-177.6327,388.1157,2.0326,107.6561,1500,1500,1.0000,-0.0943,0.4026,9.7022,-11.5419,0.5403,-0.9349,-0.2025,0.2864,9.6476,-14.7203,0.6726,-0.1636
953.7704,-0.6415,1.2252,42.6859,-16.5853,0.0000,-0.0000,-61.5145,3.4247,-18.9364,1500,1500,1.0000,0.0661,0.2278,9.5514,-15.6794,0.0289,-1.0418,0.2045,0.2840,9.2956,-17.4913,0.3138,-0.4155
953.7890,-0.9269,1.1782,42.6736,-17.9517,0.0000,-0.0000,-106.6552,5.0606,-32.3938,1500,1500,1.0000,0.0158,0.1177,9.5801,-16.8473,-0.0551,-1.1258,0.0513,0.1739,9.0179,-19.0562,0.2833,-0.3697
953.8074,-1.2565,1.1448,42.6517,-19.7304,-3.7354,-153.0695,296.2606,6.9518,79.4771,1500,1500,1.0000,-0.0225,0.0123,9.9033,-18.6794,-0.3452,-1.4769,-0.0613,-0.0560,9.1783,-20.7814,0.8405,-0.9804
953.8259,-1.5940,1.1136,42.6254,-19.3067,-6.0711,-126.4617,180.7854,8.8919,46.1740,1500,1500,1.0000,-0.2332,-0.1217,9.5969,-19.0763,-0.9101,-1.7746,-0.2456,-0.0248,9.4321,-19.5371,-3.1671,-1.2400
953.8445,-1.9775,1.0345,42.5916,-17.8449,-7.8372,-94.7846,45.4253,11.0976,7.1703,1500,1500,1.0000,-0.0943,-0.4976,9.6472,-17.9389,-3.4826,-2.0418,-0.1020,-0.4678,9.5423,-17.7508,-2.7625,-1.6751
953.8630,-2.3220,0.9372,42.5540,-16.6197,-9.1545,-71.3609,-61.6770,13.0845,-23.8118,1500,1500,1.0000,0.0110,-0.5072,9.7765,-16.7404,-3.5208,-2.3090,-0.0613,-0.6425,9.8152,-16.4989,-2.5869,-1.9270
953.8814,-2.6084,0.8819,42.5061,-13.3869,-9.7894,-34.4602,-200.9042,14.7429,-63.6246,1500,1500,1.0000,-0.0608,-0.5766,9.7717,-13.5648,-2.2918,-2.6830,-0.1020,-0.6761,9.9852,-13.2089,-1.2663,-2.5911
953.9000,-2.8171,0.8936,42.4474,-8.9785,-9.6677,6.5407,-343.0048,15.9607,-104.0217,1500,1500,1.0000,-0.2595,-0.6461,9.9010,-9.6641,-1.0398,-3.2708,-0.0732,-0.6856,10.0498,-8.2928,0.1153,-3.0186
953.9185,-2.9587,0.9219,42.3825,-3.9212,-8.8058,46.6927,-474.9329,16.7972,-141.3798,1500,1500,1.0000,-0.2643,-0.8304,10.0039,-5.8397,0.1815,-3.3700,-0.1259,-0.7934,10.0019,-2.0027,0.7871,-3.4842
953.9370,-3.0057,0.9822,42.3057,1.2811,-7.2927,81.7428,-581.2933,17.0955,-171.3099,1500,1500,1.0000,-0.3026,-0.8448,9.9895,1.4657,1.3495,-3.9197,-0.2648,-0.8173,9.9493,1.0965,2.3138,-4.0568
953.9555,-2.9297,1.0847,42.2280,6.8078,-5.1777,114.1252,-665.8011,16.6912,-194.7699,1500,1500,1.0000,-0.3864,-0.7346,9.6759,6.2214,2.8533,-3.8510,-0.4683,-0.6593,9.5446,7.3942,3.3673,-4.1102
953.9740,-2.7838,1.2204,42.1489,9.7086,0.0000,0.0000,-320.3380,15.8878,-97.6385,1500,1500,1.0000,-0.5325,-0.6509,9.8052,9.4199,3.5021,-4.0876,-0.4826,-0.5994,9.6644,9.9973,3.5657,-4.0797
953.9925,-2.5629,1.3304,42.0523,11.8765,0.0000,0.0000,-294.9161,14.6542,-89.9036,1500,1500,1.0000,-0.4822,-0.4641,9.7765,11.6947,3.2044,-5.9807,-0.4946,-0.3241,9.6835,12.0583,2.7642,-4.2552
954.0110,-2.3029,1.4437,41.9751,12.9910,0.0000,0.0000,-264.9963,13.1952,-80.7966,1500,1500,1.0000,-0.5875,-0.3324,9.6184,13.1145,2.2273,-3.9578,-0.5018,-0.3935,9.5375,12.8675,1.7489,-4.2476
954.0298,-2.0276,1.5154,41.8931,13.3880,3.1432,96.0316,-509.8825,11.6460,-148.5901,1500,1500,1.0000,-0.4631,-0.2702,9.4915,13.3512,1.2960,-4.1792,-0.5138,-0.2714,9.4393,13.4247,1.2222,-4.4919
954.0484,-1.7726,1.5591,41.8170,13.5139,4.6988,83.8560,-445.4759,10.2103,-129.8384,1500,1500,1.0000,-0.4008,-0.3109,9.5035,13.8397,0.9296,-4.0113,-0.3749,-0.1781,9.1448,13.1881,0.4589,-4.1484
954.0669,-1.5182,1.5581,41.7468,12.9986,5.9438,67.0603,-367.8344,8.7756,-107.3815,1500,1500,1.0000,-0.2164,-0.2271,9.4484,13.2825,0.4563,-3.9502,-0.3557,-0.1805,9.5351,12.7148,0.5581,-3.6140
954.0855,-1.2693,1.5344,41.6870,12.1284,6.8715,50.0279,-290.1363,7.3694,-84.9229,1500,1500,1.0000,-0.1446,-0.1409,9.6208,12.5268,-0.7879,-3.2174,-0.1810,-0.0344,9.3627,11.7301,1.1230,-3.2629
