timestamp,roll_deg,pitch_deg,yaw_deg,omega_raw,omega_filtered,alpha,tau_ff,tau_pid,tau_total,pwm_left,pwm_right,deadzone_factor,accel1_x,accel1_y,accel1_z,gyro1_x,gyro1_y,gyro1_z,accel2_x,accel2_y,accel2_z,gyro2_x,gyro2_y,gyro2_z
311.4814,-1.2865,0.9416,126.6138,2.1340,0.5668,-2.2056,-141.6855,22.5662,-50.9551,1471,1528,1.0000,-0.1025,-0.1955,9.7766,1.6473,-0.2087,2.6400,-0.0646,-0.0651,9.7540,2.6206,-0.4397,2.5741
311.5017,-1.2335,0.9929,126.6684,1.1149,0.1220,-0.7071,-139.9015,21.7040,-50.0244,1472,1527,1.0000,-0.3491,-0.1213,9.9442,2.0595,0.4935,2.8079,-0.1268,-0.2135,9.3996,0.1702,0.1558,2.4367
311.5205,-1.2256,0.9760,126.7191,-0.5073,0.0000,-0.0000,-141.0284,21.5858,-50.2809,1472,1527,1.0000,-0.0690,-0.1620,9.8460,0.3648,0.3790,2.7087,-0.1747,-0.0746,9.7085,-1.3794,-0.1343,2.6352
311.5390,-1.1652,0.9407,126.7694,-0.4615,0.0000,-0.0000,-134.0795,20.6010,-47.8428,1473,1526,1.0000,0.0196,0.1253,9.6665,-1.2229,-0.3080,2.7698,0.1389,0.1385,11.7029,0.3000,1.3008,2.4673
311.5576,-1.1605,0.9015,126.8215,-3.3164,0.0000,-0.0000,-133.5364,20.5348,-47.6576,1473,1526,1.0000,0.0794,0.1086,10.7630,-2.9939,1.1042,2.8156,0.7710,-0.1608,9.3542,-3.6389,0.0336,2.6657
311.5761,-1.2642,0.8846,126.8710,-4.9882,0.0000,-0.0000,-145.4747,22.2593,-51.8625,1471,1528,1.0000,-0.1696,-0.2769,9.6593,-4.0092,-1.0103,2.6171,-0.0478,-0.1967,9.7372,-5.9672,-1.3939,2.7344
311.5946,-1.3740,0.8419,126.9208,-5.1370,0.0000,-0.0000,-158.1019,24.0836,-56.3103,1469,1530,1.0000,0.0052,-0.2913,9.6066,-4.7955,-0.7278,2.5942,-0.1771,-0.3332,9.7899,-5.4786,-0.3252,2.9024
311.6131,-1.5274,0.8272,126.9721,-6.2439,0.0000,-0.0000,-175.7614,26.6311,-62.5287,1465,1534,1.0000,-0.0834,-0.4038,9.5875,-6.4519,-0.4912,2.8461,-0.1220,-0.1895,10.4722,-6.0359,0.4000,2.7115
311.6317,-1.6330,0.7851,127.0226,-6.2210,0.0000,-0.0000,-187.9125,28.3898,-66.8104,1463,1536,1.0000,0.0411,-0.2362,9.7311,-5.4672,-0.2316,2.6324,-0.0095,-0.2374,9.6869,-6.9748,-0.1801,2.8489
311.6502,-1.7514,0.7411,127.0731,-6.8470,0.0000,-0.0000,-201.5344,30.3605,-71.6099,1460,1539,1.0000,0.0531,-0.2410,9.6066,-6.7649,-0.6286,2.6476,0.0647,-0.2733,9.6965,-6.9290,0.4000,2.8413
311.6686,-1.8695,0.7664,127.1240,-6.6981,-0.1035,-1.0093,-212.2161,32.3277,-75.5843,1458,1541,1.0000,-0.2606,-0.2841,9.8173,-6.4214,-0.5523,2.8003,-0.0718,-0.3117,9.6582,-6.9748,0.3237,2.6810
311.6872,-1.9983,0.7657,127.1733,-6.4500,-0.6454,-4.3203,-217.5071,34.4736,-78.1388,1457,1542,1.0000,-0.1049,-0.3822,9.9322,-6.0550,0.0813,2.7392,-0.0789,-0.2686,9.2560,-6.8450,0.4229,2.5741
311.7057,-2.1083,0.7609,127.2242,-5.8508,-1.2422,-5.0738,-227.9903,36.3090,-81.9918,1454,1545,1.0000,-0.1576,-0.3559,9.5803,-5.4290,-0.8194,2.7392,-0.0813,-0.2973,9.4810,-6.2725,-0.4702,2.7344
311.7241,-2.2121,0.7430,127.2869,-5.2019,-1.6293,-3.4334,-244.6639,38.0445,-87.5281,1451,1548,1.0000,-0.1313,-0.3774,9.7479,-6.2229,-1.2927,2.6476,-0.1125,-0.3117,9.8330,-4.1809,-0.7984,4.5894
311.7426,-2.2499,0.7338,127.3388,-3.0225,-1.1980,2.9589,-267.4200,38.6902,-94.2227,1448,1551,1.0000,-0.1720,-0.2865,9.6832,-3.2993,-0.9492,2.6171,-0.1196,-0.3691,9.5648,-2.7458,-1.4778,2.9940
311.7611,-2.3069,0.7168,127.3916,-3.0722,-0.8910,1.8499,-270.7796,39.6530,-95.6448,1447,1552,1.0000,-0.1672,-0.3583,9.7024,-4.2687,-1.2774,2.6705,-0.1125,-0.3428,9.7660,-1.8756,-1.9511,3.0092
311.7795,-2.3108,0.7310,127.4418,-0.8126,-0.2180,1.5973,-270.5095,39.7417,-95.6135,1447,1552,1.0000,-0.2677,-0.3415,9.9155,-1.2229,-1.0637,2.6476,-0.1172,-0.3236,9.7731,-0.4023,-0.7832,2.7268
311.7980,-2.2779,0.7334,127.5068,0.5996,0.0000,0.0000,-262.1188,39.2210,-93.0037,1448,1551,1.0000,-0.1792,-0.2984,9.8724,0.4946,-0.7049,2.8843,-0.1867,-0.2829,10.1754,0.7046,-0.4931,4.5207
311.8165,-2.2173,0.7404,127.5569,2.3401,0.0000,0.0000,-255.1455,38.2432,-90.5624,1450,1549,1.0000,-0.2175,-0.2889,9.8149,1.4030,-0.8194,2.7850,-0.1101,-0.3835,9.7636,3.2771,-0.6916,2.4444
311.8349,-2.1548,0.7260,127.6078,2.5614,0.0000,0.0000,-247.9511,37.2332,-88.0429,1451,1548,1.0000,-0.0762,-0.3200,9.9203,2.6320,-0.6286,2.8461,-0.0646,-0.1465,9.8019,2.4908,0.3313,2.5818
311.8534,-2.1199,0.6948,127.6606,2.4164,0.0000,0.0000,-243.9316,36.6781,-86.6399,1452,1547,1.0000,0.0531,-0.4062,10.0136,1.6015,0.0737,3.0522,-0.2609,-0.3428,9.8785,3.2313,0.3924,2.5512
311.8719,-2.0273,0.7003,127.7191,4.1759,0.0000,0.0000,-233.2764,35.1705,-82.9026,1454,1545,1.0000,-0.1744,-0.2841,9.8077,3.7847,-0.5828,2.3881,-0.3303,-0.2662,9.8378,4.5672,-0.3481,4.6047
311.8903,-1.9207,0.7362,127.7639,4.7065,0.0000,0.0000,-221.0109,33.4310,-78.5985,1456,1543,1.0000,-0.3348,-0.2482,9.7168,4.4106,-0.5294,2.4492,-0.1986,-0.1919,10.1299,5.0023,-0.8900,2.2688
311.9089,-1.7868,0.7470,127.8086,4.7523,0.0000,0.0000,-205.6037,31.2396,-73.1889,1459,1540,1.0000,-0.2031,-0.1237,10.0184,4.7618,-0.0255,2.2812,-0.0454,-0.2183,9.7229,4.7427,-0.9282,2.5436
311.9274,-1.6584,0.7150,127.8647,5.0462,0.0000,0.0000,-190.8261,29.1372,-67.9999,1462,1537,1.0000,-0.0187,-0.1548,9.8077,5.2580,-0.6591,2.3652,0.0432,-0.0890,9.9862,4.8344,-0.2412,4.4749
311.9459,-1.5421,0.6954,127.9093,5.1187,0.0000,0.0000,-177.4476,27.2343,-63.3025,1465,1534,1.0000,-0.0331,-0.1931,9.9921,5.2045,-0.3003,2.4492,-0.1125,-0.1058,9.9695,5.0328,0.3924,2.3146
311.9644,-1.4430,0.6611,127.9536,4.9469,0.0000,0.0000,-166.0405,25.6131,-59.2979,1467,1532,1.0000,0.0196,-0.2386,10.0256,4.9297,-0.0561,2.4186,-0.1532,-0.1273,9.9886,4.9641,-1.0503,2.2840
311.9829,-1.3510,0.6184,127.9980,4.5385,0.0000,0.0000,-155.4621,24.1098,-55.5843,1469,1530,1.0000,0.1297,-0.2242,10.0902,4.6168,0.1195,2.4415,-0.2370,-0.0962,9.8234,4.4603,0.9268,2.3222
312.0013,-1.2507,0.6202,128.0407,4.2637,0.0346,0.1122,-144.2391,22.4667,-51.6203,1471,1528,1.0000,-0.0690,-0.1356,9.9562,4.3419,0.2722,2.4110,-0.2681,-0.2183,9.8258,4.1855,0.8657,2.0779
312.0199,-1.1607,0.6324,128.0849,3.5462,0.0582,0.0525,-133.7069,20.9927,-47.9343,1473,1526,1.0000,-0.0571,-0.1069,9.8724,3.5786,0.6539,2.4034,-0.1340,-0.1010,9.7588,3.5137,2.5603,2.3604
312.0384,-1.0776,0.5841,128.1278,3.0652,0.0461,-0.0202,-123.9423,19.6333,-44.5205,1475,1524,1.0000,0.1704,-0.0734,9.7598,2.9679,0.6081,2.3270,-0.1963,-0.1417,10.0724,3.1626,0.3008,2.2993
312.0570,-1.0234,0.5945,128.1663,2.3439,0.0068,-0.0156,-117.7144,18.7486,-42.3344,1476,1523,1.0000,-0.0786,-0.1237,9.8221,1.9679,1.0661,1.9759,-0.0670,-0.0411,10.0293,2.7198,0.0031,2.3680
312.0755,-0.9728,0.6093,128.2086,1.9546,0.0000,-0.0000,-111.9379,17.9236,-40.3044,1477,1522,1.0000,-0.1792,-0.0973,9.4702,1.6473,0.1424,2.2125,0.2515,-0.0411,9.9671,2.2618,-0.8366,2.4138
312.0942,-0.9344,0.5896,128.2474,2.2256,0.0000,-0.0000,-107.5226,17.2999,-38.7562,1478,1521,1.0000,-0.0307,-0.1668,9.4007,1.9526,-0.1858,2.1056,-0.0095,-0.0722,10.1083,2.4985,-0.3939,2.0092
312.1126,-0.9074,0.5460,128.2872,2.0156,0.0000,-0.0000,-104.4100,16.8626,-37.6661,1479,1520,1.0000,0.1345,-0.2051,9.8197,1.8610,0.3790,2.2278,0.0767,-0.1081,10.1275,2.1702,0.2168,2.0092
312.1311,-0.8689,0.5257,128.3244,2.0271,0.0000,-0.0000,-99.9849,16.2368,-36.1142,1480,1519,1.0000,0.0435,-0.1596,9.7886,2.2045,0.4630,2.0293,-0.0095,-0.1201,9.8569,1.8496,0.4535,1.9787
312.1496,-0.8164,0.5093,128.3626,1.6454,0.0000,-0.0000,-93.9465,15.3791,-33.9946,1481,1518,1.0000,0.0076,-0.0518,9.9250,1.7847,0.1653,2.0751,-0.0287,-0.1153,9.6462,1.5061,0.3313,2.0550
312.1681,-0.7866,0.4973,128.4049,1.4927,0.0000,-0.0000,-75.4240,14.8940,-28.5657,1484,1515,1.0000,-0.0259,-0.1500,9.9203,1.9526,-0.1858,2.3499,-0.1364,-0.1177,9.6247,1.0328,0.4916,2.1314
312.1866,-0.7620,0.5044,128.4456,0.9889,0.0000,-0.0000,-73.0719,14.4969,-27.7086,1484,1515,1.0000,-0.0930,-0.1189,9.7096,1.3343,0.0508,2.2354,-0.0358,-0.1081,9.5601,0.6435,0.7741,2.1008
312.2051,-0.7398,0.4899,128.4871,1.0042,0.0000,-0.0000,-70.9355,14.1367,-26.9303,1485,1514,1.0000,-0.0068,-0.1213,9.7958,1.1740,-0.0408,2.2507,0.0240,-0.0962,9.5457,0.8344,0.5222,2.2306
312.2236,-0.7216,0.4761,128.5276,2.2523,0.0000,0.0000,-69.1911,13.8438,-26.2954,1485,1514,1.0000,-0.0307,-0.2027,9.7958,1.3038,-0.2774,2.2125,-0.1484,-0.2111,9.6223,3.2008,0.0489,2.1619
312.2422,-0.6987,0.5135,128.5695,2.2294,0.0000,0.0000,-67.0002,13.4738,-25.4969,1485,1514,1.0000,-0.2246,-0.2051,9.7263,2.1129,0.3714,2.2049,-0.1077,-0.1967,9.6462,2.3458,0.1939,2.4062
312.2607,-0.6661,0.5297,128.6103,2.7561,0.0000,0.0000,-63.8684,12.9415,-24.3539,1486,1513,1.0000,-0.1552,-0.1931,9.7072,2.5710,0.1119,2.2202,-0.0358,-0.3859,9.4810,2.9412,-0.0122,2.2382
312.2792,-0.6311,0.5207,128.6493,3.1263,0.0000,0.0000,-60.5135,12.3705,-23.1290,1487,1512,1.0000,-0.0523,-0.2170,9.5946,3.1206,-0.1095,2.0751,-0.0646,-0.1943,9.9982,3.1321,0.0031,2.2230
312.2977,-0.6133,0.5040,128.6898,2.2561,0.0000,-0.0000,-58.8141,12.0843,-22.5101,1487,1512,1.0000,0.0267,-0.2482,9.8053,3.0442,0.5165,2.1285,0.0049,-0.2159,9.7444,1.4679,0.2168,2.3604
312.3162,-0.5797,0.4930,128.7353,2.8897,0.0000,0.0000,-55.5872,11.5348,-21.3318,1488,1511,1.0000,0.0028,-0.1955,9.7646,2.7694,0.3638,2.5789,-0.0933,-0.1034,9.8234,3.0099,0.4687,2.2306
312.3347,-0.5627,0.5125,128.7785,3.1950,0.0000,0.0000,-53.9619,11.2608,-20.7397,1488,1511,1.0000,-0.1409,-0.2889,9.6545,3.1740,0.2722,2.3576,-0.2106,-0.3787,9.6941,3.2160,0.4687,2.3756
312.3532,-0.5313,0.5282,128.8239,3.4889,0.0000,0.0000,-50.9460,10.7471,-19.6384,1489,1510,1.0000,-0.1337,-0.2458,9.7072,3.3801,0.2798,2.5331,-0.1005,-0.2231,9.7229,3.5977,0.2703,2.3451
312.3717,-0.5183,0.5597,128.8742,4.3859,0.0000,0.0000,-49.7028,10.5384,-19.1860,1489,1510,1.0000,-0.2270,-0.4062,9.7096,4.3267,0.0355,2.7240,-0.1077,-0.2422,9.6199,4.4450,0.2016,2.8184
312.3901,-0.4468,0.5616,128.9237,4.5423,0.0230,0.0974,-43.0808,9.3632,-16.7442,1490,1509,1.0000,-0.1121,-0.1524,9.7838,4.6778,-0.1324,2.6400,-0.1484,-0.1177,9.7300,4.4069,-0.1114,2.8031
312.4088,-0.3667,0.5649,128.9748,4.5500,0.1339,0.4487,-36.2358,8.0440,-14.1680,1492,1507,1.0000,-0.1241,-0.1069,9.8101,4.7160,-0.2164,2.7316,-0.1125,-0.0315,9.6702,4.3840,-0.0580,2.7726
312.4284,-0.2868,0.5803,129.0292,4.2561,0.2539,0.4975,-28.6973,6.7295,-11.4000,1493,1506,1.0000,-0.1552,-0.0854,9.7575,4.3877,0.0050,2.7240,-0.1292,-0.0579,9.7061,4.1244,0.2474,2.8947
312.4478,-0.2112,0.5936,129.0838,3.8019,0.3038,0.2040,-20.7389,5.4835,-8.5486,1495,1504,1.0000,-0.1624,-0.0470,9.8101,3.9068,-0.0561,2.8232,-0.1316,0.0044,9.8809,3.6969,-0.0503,2.8184
312.4666,-0.1707,0.5818,129.1365,2.3973,0.1407,-0.3795,-15.4614,4.8180,-0.0000,1500,1500,0.0000,-0.0762,-0.0351,9.8125,1.5786,-0.3843,2.7850,-0.0885,-0.0148,9.7516,3.2160,-0.2412,2.7955
312.4858,-0.1077,0.5728,129.1918,3.1874,0.1205,-0.0515,-10.2033,1.7780,-0.0000,1500,1500,0.0000,-0.0906,-0.0255,9.8532,3.2274,-0.4759,2.8690,-0.1196,0.0762,9.6247,3.1473,-0.1725,2.9558
312.5055,0.0026,0.5378,129.2504,4.3591,0.2537,0.5611,-1.0953,-0.0432,-0.0000,1500,1500,0.0000,0.0387,0.1110,9.8053,3.5023,-0.2774,3.0064,-0.1508,0.1265,9.7827,5.2160,-0.1114,2.8413
312.5251,0.1007,0.5223,129.3067,2.8706,0.1661,-0.2326,10.2131,-1.6623,0.0000,1500,1500,0.0000,-0.0571,0.1756,9.8652,3.0671,-0.3996,2.9148,-0.0598,0.1217,9.8354,2.6740,-0.3099,2.7039
312.5444,0.1561,0.5037,129.3623,2.2523,0.0534,-0.1478,15.3276,-2.5780,0.0000,1500,1500,0.0000,-0.0307,0.0607,9.9681,2.5252,-0.3309,2.7545,-0.1867,0.0594,9.8809,1.9794,-0.2565,3.1466
312.5633,0.2171,0.5059,129.4167,2.1034,0.0036,-0.0106,20.8398,-3.5837,7.6270,1504,1495,1.0000,-0.0954,0.1205,9.9897,2.2045,-0.1553,2.8690,-0.0095,0.1145,9.9551,2.0023,0.5298,2.9100
312.5824,0.2698,0.5169,129.4729,1.9240,0.0000,-0.0000,25.8690,-4.4562,9.4714,1505,1494,1.0000,-0.1265,0.1062,9.7024,1.9984,0.0279,2.9988,-0.1316,-0.0531,9.7827,1.8496,0.2855,2.7955
312.6019,0.3149,0.5214,129.5298,1.8706,0.0000,-0.0000,30.1957,-5.2038,11.0567,1506,1493,1.0000,-0.1049,0.0870,9.8460,1.8000,0.0432,2.9224,0.0551,-0.0579,9.7588,1.9412,0.2092,2.8795
312.6217,0.3594,0.5148,129.5852,2.6301,0.0000,-0.0000,34.4646,-5.9420,12.6211,1506,1493,1.0000,-0.0594,0.0176,9.9155,2.6473,0.5165,2.7774,-0.0550,0.0882,9.8593,2.6130,-1.1190,2.8718
312.6410,0.4534,0.5543,129.6416,3.3515,0.0000,0.0000,43.4768,-7.4972,15.9221,1508,1491,1.0000,-0.2414,0.1948,9.7168,3.2732,0.3790,2.8995,-0.0957,-0.0651,9.6965,3.4298,0.0260,2.8947
312.6603,0.5176,0.5394,129.6970,4.3019,0.0015,0.0056,49.6231,-8.5623,18.1756,1509,1490,1.0000,-0.0403,0.0008,9.4199,4.1358,-0.2393,2.8843,-0.1843,-0.0794,10.0772,4.4679,0.0413,2.9100
312.6793,0.5790,0.5193,129.7516,5.3286,0.1504,0.8028,53.5901,-9.5799,19.7952,1510,1489,1.0000,0.0291,-0.0734,9.7263,4.8229,0.1653,2.8614,-0.3495,-0.0339,9.8737,5.8344,0.6901,2.9558
312.6989,0.6852,0.5211,129.7945,6.1836,0.6701,3.7894,56.6107,-11.3399,21.5210,1511,1488,1.0000,-0.0714,0.0415,9.7431,5.9908,0.3561,2.6782,-0.0765,0.0523,9.6510,6.3763,0.1787,0.7115
312.7185,0.8125,0.4985,129.8433,7.1569,1.7359,10.3328,63.7335,-13.4481,24.5694,1513,1486,1.0000,0.0339,0.0727,9.5276,6.7847,0.2798,2.5484,-0.0287,0.0738,9.8569,7.5290,0.4306,2.2917
312.7380,0.9590,0.4962,129.8926,8.2141,3.3819,20.7761,50.5144,-15.8749,22.0815,1512,1487,1.0000,-0.0618,0.0918,9.5252,7.8305,0.1958,2.5713,-0.0574,0.1193,9.7109,8.5977,0.1100,2.4062
312.7570,1.1257,0.4725,129.9368,8.9431,5.0910,29.6590,44.1170,-18.6372,21.6713,1511,1488,1.0000,0.0267,0.1565,9.7622,8.7923,0.0432,2.3499,-0.0502,0.1456,9.7492,9.0939,0.2016,2.2993
312.7758,1.2949,0.4570,129.9808,8.9889,6.0228,27.8584,68.7687,-21.4414,29.9759,1516,1483,1.0000,-0.0235,0.1876,9.6737,9.0595,-0.0866,2.3499,-0.1939,0.1313,9.7420,8.9183,-0.4015,2.3527
312.7952,1.4713,0.4259,130.0236,8.3668,6.3744,18.0688,117.2604,-24.3666,45.0162,1524,1475,1.0000,0.0172,0.2690,9.8053,8.6091,-0.4377,2.1973,-0.0143,0.2199,9.9000,8.1244,-0.4397,2.2840
312.8149,1.6408,0.4047,130.0691,7.9317,6.6080,11.8632,154.6396,-27.1801,56.8892,1531,1468,1.0000,-0.0140,0.3001,9.7742,8.0748,-0.3156,2.3957,-0.0454,0.3084,9.6031,7.7885,-0.4244,2.0321
312.8346,1.7948,0.3803,130.1143,6.8515,6.6445,1.8579,201.1806,-29.7397,71.2004,1539,1460,1.0000,-0.0164,0.3456,9.6832,7.1358,-0.5294,2.3194,0.0240,0.3037,9.6343,6.5672,-0.6229,2.2917
312.8536,1.8759,0.3594,130.1533,5.0767,6.4093,-12.3585,251.4474,-31.0954,85.9530,1547,1452,1.0000,-0.0187,0.2091,9.6880,5.5328,-0.5065,2.0675,0.0695,0.2462,9.5696,4.6206,-0.3328,2.1161
312.8723,1.9586,0.3775,130.1957,3.5118,5.9734,-23.2128,292.2250,-32.4796,98.0628,1553,1446,1.0000,-0.2031,0.3767,9.8077,3.8763,-0.6210,2.2736,0.0767,0.4569,9.4906,3.1473,-0.2335,2.3069
312.8917,2.0139,0.3539,130.2432,1.6569,4.6431,-29.1077,315.5749,-33.4136,105.0677,1557,1442,1.0000,-0.0475,0.4031,9.8436,2.3114,-1.0713,2.5026,0.0336,0.4617,9.5720,1.0023,-0.2565,2.3833
312.9114,2.0104,0.3158,130.2838,-1.3699,1.7794,-21.0341,291.9181,-33.3756,98.4249,1554,1445,1.0000,0.0315,0.3863,9.8724,-0.2535,-1.0026,2.4186,-0.0454,0.5239,9.6367,-2.4863,0.0184,0.7115
312.9311,1.9558,0.3359,130.3311,-4.9348,0.0000,-0.0000,225.0583,-32.4944,79.2635,1543,1456,1.0000,-0.1911,0.4869,9.9681,-3.9787,-0.5141,2.3652,0.0192,0.3898,9.5409,-5.8908,0.0184,2.5970
312.9502,1.8180,0.3816,130.3789,-7.9691,0.0000,-0.0000,209.1933,-30.2378,73.6930,1540,1459,1.0000,-0.3037,0.3456,9.9514,-6.9405,-0.4759,2.5179,0.0216,0.4066,9.4667,-8.9977,0.6367,2.5436
312.9689,1.6278,0.3290,130.4221,-9.7057,0.0000,-0.0000,187.3133,-27.1167,66.0061,1536,1463,1.0000,0.1321,0.2427,9.6856,-9.2764,-1.1400,2.3118,-0.0023,0.3037,9.7851,-10.1351,2.7283,2.4215
312.9882,1.4058,0.2587,130.4663,-11.1485,0.0000,-0.0000,161.7631,-23.4671,57.0272,1531,1468,1.0000,0.2279,0.1924,9.8029,-10.1313,-0.8958,2.2431,0.1629,0.2175,9.8761,-12.1656,2.7206,2.5818
313.0079,1.1833,0.2948,130.5146,-10.2172,-0.0443,-0.8675,138.6574,-19.8075,48.7279,1526,1473,1.0000,-0.1768,0.1732,9.8532,-10.6657,0.3638,2.4797,0.0288,0.1456,9.6917,-9.7687,0.5985,2.3451
313.0278,1.0306,0.3624,130.5598,-9.2973,-1.2980,-14.4710,160.2707,-17.2992,53.5254,1529,1470,1.0000,-0.3108,0.3384,9.5851,-9.3527,0.4248,2.2812,-0.2202,0.1792,9.9359,-9.2420,-0.0122,2.2153
313.0470,0.8349,0.4432,130.5988,-8.8546,-3.2042,-24.5416,138.9600,-14.0781,45.9478,1525,1474,1.0000,-0.3827,0.0535,9.8077,-8.7649,0.7073,1.9835,0.0671,0.1121,9.8928,-8.9443,0.1787,2.3222
313.0657,0.6518,0.4266,130.6620,-9.4806,-5.1630,-34.7227,145.8395,-11.0639,46.3670,1525,1474,1.0000,-0.0092,0.0775,9.9083,-8.6733,-0.0561,3.7621,-0.0334,0.0594,9.9216,-10.2878,-0.0961,1.9711
313.0850,0.4356,0.4109,130.6707,-6.9882,-5.6330,-11.1286,68.4799,-7.5006,22.9246,1512,1487,1.0000,-0.0283,-0.2506,9.9586,-7.2153,-0.4454,-0.0928,-0.0646,-0.0531,9.7276,-6.7611,0.0871,1.8947
313.1047,0.3165,0.4267,130.7058,-4.6065,-5.2749,8.2311,10.5927,-5.5380,5.7350,1503,1496,1.0000,-0.1409,-0.0423,10.0280,-4.8642,-0.2240,1.8079,-0.2274,-0.0555,9.7372,-4.3489,0.5603,1.7802
313.1245,0.2622,0.5067,130.7685,-1.9767,-3.8123,20.6613,-24.4485,-4.6444,-4.5234,1497,1502,1.0000,-0.3563,-0.0016,9.7575,-2.3756,-0.0255,3.7392,-0.1843,0.0690,9.6343,-1.5779,2.6596,1.8413
313.1438,0.2600,0.5138,130.8031,-0.1370,-1.7270,15.2195,-11.5917,-4.6120,-0.9397,1499,1500,1.0000,-0.1385,0.0631,9.8628,-0.6428,-0.3690,1.8308,-0.0957,0.0882,9.7492,0.3687,0.1558,1.6657
313.1627,0.2606,0.5247,130.8319,1.7485,-0.1604,2.2770,19.5240,-4.6238,7.7786,1504,1495,1.0000,-0.1241,-0.0973,9.8963,1.4946,0.1729,1.5637,-0.1172,-0.0363,10.0126,2.0023,0.1939,1.4978
313.1819,0.2912,0.5194,130.8593,3.3057,0.0000,0.0000,27.9243,-5.1318,10.3847,1505,1494,1.0000,-0.0355,-0.0830,9.5468,2.7771,0.4172,1.3957,-0.1556,-0.1010,9.9671,3.8344,0.1176,1.5512
313.2015,0.3878,0.5605,130.8884,5.6912,0.0000,0.0000,37.1850,-6.7292,13.7764,1507,1492,1.0000,-0.2151,0.0320,9.8341,4.1358,0.9363,1.4415,-0.0694,-0.0339,9.8138,7.2466,0.1023,1.5512
313.2213,0.5098,0.5806,130.9196,6.0309,0.0000,0.0000,48.8878,-8.7480,18.0626,1509,1490,1.0000,-0.1361,0.0846,9.9155,5.7160,0.6004,1.5866,-0.1675,0.1361,9.9910,6.3458,0.4916,1.5436
313.2409,0.6701,0.5701,130.9489,6.5958,0.0000,0.0000,64.2518,-11.3984,23.6897,1513,1486,1.0000,-0.0307,0.2259,9.9035,6.5557,0.2798,1.5942,-0.0813,0.2246,9.8952,6.6359,0.2550,1.2688
313.2597,0.8045,0.5656,130.9755,6.2141,0.0000,0.0000,92.5702,-13.6244,32.7319,1518,1481,1.0000,-0.0858,0.1708,9.7886,6.9603,-0.1477,1.4263,-0.0741,0.1959,9.7276,5.4679,0.0413,1.3833
313.2787,0.9451,0.5674,131.0045,6.9851,0.0000,0.0000,108.7575,-15.9550,38.4296,1521,1478,1.0000,-0.0762,0.1636,9.8413,7.3419,0.2187,1.6705,-0.1556,0.1576,9.6534,6.6282,0.5985,1.2230
313.2983,1.0841,0.5995,131.0332,6.4164,0.0071,0.0695,124.5466,-18.2586,44.0023,1524,1475,1.0000,-0.2318,0.2020,9.8317,6.9984,0.7226,1.5331,-0.1986,0.2869,9.6798,5.8344,-1.1267,1.3222
313.3180,1.2007,0.6151,131.0639,5.3515,0.1860,0.9370,135.4661,-20.1946,48.0278,1526,1473,1.0000,-0.1289,0.2163,9.6617,5.7160,0.6386,1.5713,-0.1556,0.3515,9.7276,4.9870,0.1863,1.4902
313.3375,1.3169,0.5927,131.0922,3.6187,0.2127,0.0922,151.2658,-22.1244,53.4166,1529,1470,1.0000,0.0459,0.3983,9.8221,3.9145,0.6615,1.4034,-0.0622,0.3731,9.7396,3.3229,0.5374,1.4520
313.3564,1.3493,0.6244,131.1174,1.7637,0.0407,-0.1707,155.7546,-22.6730,54.9478,1530,1469,1.0000,-0.2055,0.1996,9.6689,2.3190,0.5470,1.3194,-0.1412,0.4042,9.5864,1.2084,0.3542,1.3375
313.3754,1.3921,0.6145,131.1447,-0.8317,0.0000,-0.0000,160.1915,-23.3936,56.5504,1531,1468,1.0000,-0.0523,0.4725,9.6521,-0.1771,0.0126,1.3957,-0.2058,0.3491,9.5648,-1.4863,0.2703,1.3985
313.3950,1.3477,0.5916,131.1736,-3.1065,0.0000,-0.0000,155.0755,-22.6735,54.7579,1530,1469,1.0000,0.0243,0.2929,9.8269,-2.4443,0.2569,1.4950,-0.0239,0.2582,9.5337,-3.7687,0.5527,1.4215
313.4146,1.2912,0.6074,131.2017,-5.5569,0.0000,-0.0000,148.5792,-21.7549,52.4796,1528,1471,1.0000,-0.1600,0.4438,9.7886,-4.8642,0.0737,1.3805,-0.2178,0.3180,9.4451,-6.2496,0.2397,1.4444
313.4340,1.1471,0.6314,131.2287,-7.5836,0.0000,-0.0000,131.9978,-19.3888,46.6538,1525,1474,1.0000,-0.2342,0.2163,9.6306,-7.0321,-0.4835,1.3957,-0.2920,0.2606,9.5744,-8.1351,-0.0198,1.4062
313.4530,0.9781,0.6424,131.2551,-9.3355,0.0000,-0.0000,112.5509,-16.6100,39.8193,1521,1478,1.0000,-0.1816,0.2139,9.6114,-8.7878,-0.3538,1.2583,-0.1077,0.1624,9.5984,-9.8832,-0.1343,1.6581
313.4719,0.7544,0.6282,131.2798,-10.6905,-0.0491,-1.0658,74.8942,-12.9256,27.4332,1515,1484,1.0000,-0.0858,0.0631,9.5851,-10.5588,-0.3919,1.2736,-0.1412,0.0020,9.8354,-10.8221,-0.6534,1.4596
313.4913,0.5120,0.6242,131.3072,-11.3890,-2.0998,-29.7895,120.5934,-8.9322,38.2323,1521,1478,1.0000,-0.1265,0.0368,9.5827,-11.4672,-0.1782,1.2736,-0.0502,0.0068,9.7276,-11.3107,-0.8671,1.7268
313.5114,0.2549,0.6357,131.3369,-11.8813,-5.2370,-52.2502,149.8427,-4.6921,44.3020,1524,1475,1.0000,-0.1648,0.0104,9.9107,-11.8336,-0.1400,1.3652,-0.2824,-0.1393,9.5840,-11.9290,-0.0427,1.7497
313.5315,-0.0743,0.7067,131.3645,-13.2477,-6.7134,-57.2403,130.2502,0.7407,36.0997,1519,1480,1.0000,-0.4305,-0.2314,9.5755,-12.3680,-0.3003,1.2965,-0.7302,-0.6014,9.6989,-14.1275,-0.6152,1.6810
313.5508,-0.3256,0.6598,131.3932,-12.3355,-7.5567,-43.8708,74.0632,5.3765,18.0495,1509,1490,1.0000,0.0507,-0.0806,9.4749,-11.9939,-0.6820,1.5713,-0.4405,-0.2063,9.5648,-12.6771,-0.2794,1.4062
313.5696,-0.5880,0.7077,131.4251,-11.7783,-8.1900,-33.6688,29.3016,9.7117,3.3486,1501,1498,1.0000,-0.4401,-0.2506,9.8053,-11.4443,-1.1248,1.6782,-0.0861,-0.2925,9.0333,-12.1122,-1.3328,1.8337
313.5889,-0.8550,0.6732,131.4577,-10.2477,-8.4986,-15.9994,-52.3069,14.1253,-21.7086,1488,1511,1.0000,-0.0427,-0.3607,9.5539,-12.0397,-1.5370,1.6476,-0.3231,-0.3715,9.7683,-8.4557,-0.0045,1.8566
313.6086,-1.0366,0.6895,131.4923,-8.8279,-8.5480,-2.4969,-112.0927,17.1324,-39.9522,1478,1521,1.0000,-0.2438,-0.1715,9.7503,-9.1084,-0.7431,1.6476,-0.1268,-0.1584,9.5146,-8.5473,-0.6076,1.9253
313.6284,-1.1686,0.6731,131.5252,-6.7325,-8.2757,13.8157,-174.2593,19.3216,-58.4534,1467,1532,1.0000,-0.0810,-0.1739,10.0448,-7.0245,-0.5294,1.5713,-0.1364,-0.1848,9.9144,-6.4405,-0.2488,1.8108
313.6476,-1.2674,0.6811,131.5615,-4.6370,-7.7299,28.3107,-227.3770,20.9650,-74.1481,1459,1540,1.0000,-0.1720,-0.2362,9.8317,-5.1924,-0.2851,1.7774,-0.1196,-0.0962,9.9120,-4.0817,-0.2412,2.0550
313.6664,-1.3427,0.6694,131.5990,-3.1409,-7.0415,36.7829,-260.4383,22.2204,-84.0329,1453,1546,1.0000,-0.0547,-0.2865,9.8508,-3.5970,-0.1019,2.0293,-0.2920,-0.3140,10.1658,-2.6847,0.1710,1.9940
313.6855,-1.4036,0.6968,131.6370,-2.1370,-6.3059,38.3714,-272.0167,23.2386,-87.7840,1451,1548,1.0000,-0.1863,-0.3032,9.7144,-2.8794,0.6920,1.9682,-0.2370,-0.3212,10.1897,-1.3947,0.2321,2.0703
313.7052,-1.3992,0.6770,131.6772,-0.9004,-5.0804,38.1758,-270.9494,23.1804,-87.4560,1451,1548,1.0000,0.0291,-0.1308,9.9107,-1.8871,0.9439,1.9530,0.0025,-0.1752,10.3046,0.0863,0.2550,2.1848
313.7248,-1.3496,0.6399,131.7216,0.9660,-2.3215,25.3426,-228.2810,22.3753,-75.1063,1458,1541,1.0000,0.0986,-0.0997,10.0041,0.3343,0.6691,2.2125,0.0767,-0.0962,10.1610,1.5977,0.3313,2.3298
313.7441,-1.2821,0.6829,131.7679,2.3133,-0.2593,3.9282,-158.8379,21.2740,-55.1116,1469,1530,1.0000,-0.2438,-0.1261,9.8796,1.8229,0.5928,2.3194,-0.1172,-0.0938,9.9671,2.8038,0.7283,2.5054
313.7629,-1.1729,0.7227,131.8164,3.4202,0.0000,0.0000,-134.9666,19.4850,-47.5331,1473,1526,1.0000,-0.2606,-0.0111,9.9442,3.2045,0.3638,2.5637,-0.0837,-0.0818,9.8474,3.6359,0.6367,2.5818
313.7819,-1.0936,0.6999,131.8696,3.8591,0.0000,0.0000,-125.8347,18.1865,-44.3270,1475,1524,1.0000,0.0387,-0.1859,10.0831,4.1893,0.4248,2.8690,-0.0574,-0.1943,9.8330,3.5290,0.8504,2.7268
313.8015,-1.0047,0.7120,131.9096,3.1110,0.0000,0.0000,-115.6075,16.7301,-40.7351,1477,1522,1.0000,-0.0858,-0.0782,9.8341,3.8305,0.8065,2.9988,-0.0071,-0.0148,9.8521,2.3916,1.2703,0.7497
313.8212,-0.8894,0.6956,131.9676,1.5881,0.0000,0.0000,-102.3428,14.8369,-36.0745,1480,1519,1.0000,0.0555,0.1900,9.8173,1.9145,1.2111,2.9072,-0.0239,0.0068,9.7564,1.2618,1.1100,2.9176
313.8405,-0.7994,0.7323,132.0216,0.6645,0.0000,0.0000,-76.6538,13.3596,-28.1429,1484,1515,1.0000,-0.1839,0.1852,9.6354,0.7313,1.1577,2.5866,-0.2274,0.0140,9.9096,0.5977,0.9115,2.9634
313.8593,-0.7499,0.7734,132.0732,-0.0760,0.0000,0.0000,-71.9094,12.5508,-26.4100,1485,1514,1.0000,-0.2246,0.0942,9.7958,-0.1237,1.3332,2.5713,-0.0933,0.0283,10.0341,-0.0282,0.6596,2.9176
313.8782,-0.7069,0.7579,132.1252,-1.0569,0.0000,-0.0000,-67.7820,11.8476,-24.9028,1486,1513,1.0000,0.0124,0.1541,9.9203,-1.0626,1.2035,2.5331,0.0480,0.2199,9.7899,-1.0511,0.4382,2.9176
313.8979,-0.6971,0.7372,132.1789,-1.8279,0.0000,-0.0000,-66.8443,11.6933,-24.5630,1486,1513,1.0000,0.0267,0.0727,9.9322,-1.3756,0.4706,2.7469,-0.0215,0.1049,9.6582,-2.2802,1.0184,2.6657
313.9175,-0.7035,0.7498,132.2310,-2.1828,0.0000,-0.0000,-67.4621,11.8066,-24.7927,1486,1513,1.0000,-0.1193,0.0224,9.9610,-0.3909,0.1653,2.7163,-0.1005,0.2031,9.4739,-3.9748,1.3390,2.5589
313.9370,-0.7299,0.7619,132.2794,-4.7821,0.0000,-0.0000,-69.9881,12.2485,-25.7209,1485,1514,1.0000,-0.1289,0.1732,9.9538,-4.1924,0.2722,2.3805,-0.0933,0.0068,9.4403,-5.3718,0.9955,2.5360
313.9555,-0.8119,0.7569,132.3244,-5.6141,0.0000,-0.0000,-93.4257,13.6103,-32.9643,1481,1518,1.0000,-0.0786,-0.0279,9.6473,-5.2077,-0.0561,2.4339,0.0240,-0.0339,9.6606,-6.0206,0.7359,2.4062
313.9740,-0.8965,0.7310,132.3680,-5.7783,0.0000,-0.0000,-103.1598,15.0150,-36.3923,1479,1520,1.0000,0.0220,-0.0351,9.6593,-5.9023,0.1042,2.1285,-0.0023,-0.1225,9.5624,-5.6542,0.5985,2.5970
313.9925,-0.9705,0.7326,132.4112,-5.3202,-0.0004,-0.0026,-111.6673,16.2457,-39.3897,1478,1521,1.0000,-0.1073,-0.0399,9.5803,-5.4061,0.3256,2.2431,-0.0765,-0.0938,9.4978,-5.2344,0.1252,2.3985
314.0110,-1.0289,0.7376,132.4493,-4.6561,-0.0716,-0.2912,-117.5560,17.2196,-41.5255,1477,1522,1.0000,-0.1289,-0.0375,9.4486,-4.4901,0.2035,2.0064,-0.2010,-0.1369,9.5194,-4.8221,0.0336,2.0856
314.0294,-1.0852,0.7315,132.4877,-4.1065,-0.1576,-0.3188,-123.9593,18.1600,-43.7886,1475,1524,1.0000,-0.1121,-0.0830,9.4773,-4.3222,-0.2164,1.9759,-0.1819,-0.1752,9.6439,-3.8908,-0.3175,2.1772
314.0480,-1.1550,0.7103,132.5242,-3.8279,-0.2156,-0.2203,-132.2714,19.3227,-46.6974,1474,1525,1.0000,-0.0762,-0.1739,9.5635,-4.0092,-0.3614,2.0217,-0.1412,-0.3021,9.6630,-3.6466,-0.9740,1.8795
314.0665,-1.2282,0.6874,132.5427,-3.2897,-0.1924,0.0756,-141.5507,20.5434,-49.9059,1472,1527,1.0000,-0.0834,-0.2482,9.5755,-3.4901,-0.9645,-0.0776,-0.0622,-0.2805,9.6726,-3.0893,-0.6763,2.1314
314.0850,-1.2648,0.6881,132.5813,-1.7057,-0.0303,0.1341,-145.9272,21.1594,-51.4393,1471,1528,1.0000,-0.1361,-0.2314,9.6689,-2.7878,-0.3996,2.0293,-0.3136,-0.1704,9.7061,-0.6237,-0.1648,2.1619
314.1034,-1.2958,0.6782,132.6181,-1.9691,0.0000,0.0000,-149.1063,21.6836,-52.5916,1471,1528,1.0000,-0.1217,-0.1931,9.5779,-2.2000,-0.6057,1.9530,-0.1891,0.0403,9.6175,-1.7382,-0.7526,2.0016
314.1221,-1.2941,0.6475,132.6533,-1.2439,0.0000,0.0000,-148.9153,21.6692,-52.5309,1471,1528,1.0000,-0.0523,-0.1069,9.6425,-1.4443,-1.0484,1.7240,-0.0861,-0.1297,9.7755,-1.0435,-0.8671,1.9787
314.1405,-1.2835,0.6459,132.7067,0.1034,0.0000,0.0000,-147.6900,21.5063,-52.1064,1471,1528,1.0000,-0.0810,-0.1811,9.6665,-0.2306,1.1042,3.7545,-0.1723,-0.1752,9.8282,0.4374,-0.7908,2.0169
314.1590,-1.2622,0.6403,132.7424,0.8401,0.0000,0.0000,-145.2457,21.1685,-51.2530,1471,1528,1.0000,-0.1337,-0.1907,9.6856,0.6244,-0.3614,1.9301,-0.1723,-0.2662,9.8091,1.0557,-0.9358,1.9176
314.1776,-1.2226,0.6626,132.7810,1.4393,0.0000,0.0000,-140.6873,20.5271,-49.6560,1472,1527,1.0000,-0.2031,-0.1572,9.6617,1.2122,-0.7202,2.0140,-0.1651,-0.1297,9.8474,1.6664,0.7970,2.1237
314.1960,-1.1762,0.6390,132.8209,1.5538,0.0000,0.0000,-135.3441,19.7726,-47.7827,1473,1526,1.0000,-0.0355,-0.1308,9.8580,1.4794,-0.3538,2.0751,-0.0670,-0.0651,9.9192,1.6282,-0.4855,2.2153
314.2144,-1.0997,0.6327,132.8599,2.0347,0.0000,0.0000,-126.5424,18.5216,-44.6926,1475,1524,1.0000,-0.1217,-0.0207,9.8460,1.8458,-0.3843,1.8766,-0.0095,-0.0770,9.9096,2.2237,-0.6076,2.2993
314.2331,-1.0170,0.6189,132.8999,2.5004,0.0000,0.0000,-117.0244,17.1669,-41.3503,1477,1522,1.0000,-0.0762,-0.0231,9.7910,2.3267,-0.3996,2.0675,-0.1963,-0.0459,9.7971,2.6740,-0.4778,2.1772
314.2515,-0.9187,0.5615,132.9412,2.8248,0.0000,0.0000,-105.7170,15.5547,-37.3781,1479,1520,1.0000,0.1560,0.0391,10.0472,2.8687,-0.4377,2.1285,-0.0933,0.0020,9.9407,2.7809,0.0794,2.2917
314.2700,-0.8545,0.5818,132.9822,3.1950,0.0000,0.0000,-98.3321,14.5044,-34.7852,1480,1519,1.0000,-0.1480,-0.1356,9.8891,3.0900,0.4325,2.1820,-0.3495,-0.1273,9.9934,3.3000,0.4229,2.2764
314.2885,-0.7759,0.5933,133.0213,3.4088,0.0000,0.0000,-74.3977,13.2137,-27.4382,1484,1515,1.0000,-0.1289,-0.0758,9.9179,3.3954,0.4477,2.0675,-0.0670,-0.1081,9.8617,3.4221,0.1023,2.1619
314.3069,-0.7076,0.5893,133.0622,2.9278,0.0000,0.0000,-67.8552,12.0950,-25.0470,1486,1513,1.0000,-0.0475,-0.0686,9.9993,3.0977,0.3714,2.2202,-0.0454,-0.1441,9.9958,2.7580,0.4229,2.2077
314.3253,-0.6438,0.6123,133.1011,2.2675,0.0000,0.0000,-61.7311,11.0477,-22.8086,1487,1512,1.0000,-0.1432,-0.0183,9.8700,2.2351,0.7455,2.1667,-0.0191,-0.1058,9.9790,2.3000,0.7970,2.0627
314.3437,-0.5949,0.6214,133.1376,2.4660,0.0000,0.0000,-57.0461,10.2475,-21.0967,1488,1511,1.0000,-0.0714,-0.0949,9.6880,2.2503,0.9134,1.8766,-0.1412,-0.1177,9.8498,2.6817,0.7588,2.0856
314.3622,-0.5392,0.6270,133.1731,2.5691,0.0000,0.0000,-51.7036,9.3336,-19.1438,1489,1510,1.0000,-0.0547,-0.0686,9.9346,2.5328,0.8981,1.8843,-0.1603,0.0547,10.0030,2.6053,0.8504,1.9711
314.3806,-0.4990,0.6766,133.1893,2.5767,0.0000,0.0000,-47.8480,8.6752,-17.7350,1490,1509,1.0000,-0.1744,-0.1284,9.8891,2.5862,3.0661,-0.0699,-0.2034,-0.0866,9.8641,2.5672,0.9802,1.6963
314.3991,-0.4719,0.6959,133.2219,2.3439,0.0000,0.0000,-45.2488,8.2326,-16.7860,1490,1509,1.0000,-0.1361,-0.1644,9.8939,2.3343,0.8829,1.7698,-0.0885,-0.1369,9.8234,2.3534,0.7665,1.7879
314.4176,-0.4562,0.7312,133.2551,1.8668,0.0000,-0.0000,-43.7413,7.9778,-16.2364,1491,1508,1.0000,-0.2246,-0.1692,9.8939,2.1511,0.5394,1.7469,-0.1053,-0.1321,9.9240,1.5824,0.8504,1.8718
314.4360,-0.4548,0.7576,133.2866,1.4965,0.0000,-0.0000,-43.6127,7.9602,-16.1917,1491,1508,1.0000,-0.1576,-0.2027,9.8269,1.5481,0.8829,1.7698,-0.1963,-0.1584,9.7636,1.4450,1.1558,1.7115
314.4544,-0.4666,0.7798,133.3171,1.1683,0.0000,-0.0000,-44.7466,8.1600,-16.6090,1490,1509,1.0000,-0.1744,-0.2386,9.9418,1.3190,0.5623,1.7163,-0.1675,-0.1321,9.7540,1.0176,0.8123,1.6657
314.4729,-0.4628,0.7856,133.3472,1.0271,0.0000,-0.0000,-44.3782,8.1012,-16.4765,1490,1509,1.0000,-0.0978,-0.1500,9.8891,1.2351,0.5546,1.5789,-0.0287,-0.1967,9.9359,0.8191,0.8810,1.6886
314.4913,-0.4781,0.7767,133.3796,0.3706,0.0000,-0.0000,-45.8491,8.3591,-17.0173,1490,1509,1.0000,0.0172,-0.1811,9.9705,0.5175,1.3943,1.8537,0.1844,-0.4026,10.0413,0.2237,1.2474,1.7344
314.5098,-0.4922,0.7790,133.4127,0.7332,0.0000,-0.0000,-47.1952,8.5957,-17.5125,1490,1509,1.0000,-0.0714,-0.2122,9.9131,0.8152,1.0584,1.6705,-0.0382,-0.2494,9.8091,0.6511,0.6825,1.9253
314.5286,-0.5394,0.7731,133.4638,-0.1370,0.0000,-0.0000,-51.7278,9.3810,-19.1743,1489,1510,1.0000,-0.0571,-0.2841,9.5875,-0.0626,0.5165,3.7621,-0.1053,-0.2470,10.0173,-0.2115,0.5374,2.0398
314.5472,-0.5825,0.7482,133.4994,-1.3546,0.0000,-0.0000,-55.8530,10.0966,-20.6872,1488,1511,1.0000,0.0196,-0.1763,9.9442,-1.1161,0.5165,1.8156,0.0743,-0.1728,9.8019,-1.5931,0.3542,2.0245
314.5657,-0.6534,0.7039,133.5390,-2.6981,0.0000,-0.0000,-62.6504,11.2728,-23.1785,1487,1512,1.0000,0.1129,-0.1955,9.8604,-2.4748,0.4477,2.0293,0.0527,-0.2303,9.8474,-2.9214,0.3390,2.2459
314.5842,-0.7450,0.6650,133.5817,-3.9500,0.0000,-0.0000,-71.4355,12.7919,-26.3979,1485,1514,1.0000,0.0507,-0.1955,9.7766,-3.5970,-0.2164,2.0675,-0.0358,-0.0914,9.9024,-4.3031,-0.0961,2.4825
314.6027,-0.8602,0.6400,133.6262,-5.2630,0.0000,-0.0000,-98.9786,14.7013,-35.0646,1480,1519,1.0000,0.0148,-0.2051,9.8891,-4.8031,-0.1095,2.3881,0.0695,-0.1800,9.9695,-5.7229,0.2855,2.4291
314.6212,-0.9760,0.6506,133.6731,-6.2325,0.0000,-0.0000,-112.3067,16.6222,-39.7570,1478,1521,1.0000,-0.1289,-0.1500,9.8604,-5.9558,0.1577,2.5866,-0.0023,-0.1824,9.8186,-6.5092,0.4764,2.5360
314.6395,-1.1375,0.6288,133.7220,-7.3851,0.0000,-0.0000,-130.8861,19.2977,-46.2969,1474,1525,1.0000,-0.0044,-0.2865,9.8820,-7.0321,0.0050,2.5560,0.0839,-0.2374,9.6750,-7.7382,0.0565,2.7650
314.6580,-1.3207,0.5844,133.7744,-8.4157,-0.3269,-4.2588,-139.7078,22.3346,-50.2855,1472,1527,1.0000,0.1081,-0.3224,9.8101,-8.0855,-0.1248,2.7011,0.1509,-0.2662,9.8474,-8.7458,0.1939,2.9634
314.6766,-1.4919,0.5468,133.8306,-9.0378,-1.9342,-19.5153,-115.4640,25.1736,-44.9167,1475,1524,1.0000,0.1441,-0.2458,9.8460,-8.9100,0.7455,2.9682,0.0671,-0.0962,9.8067,-9.1656,0.7283,3.1008
314.6951,-1.6544,0.5176,133.8867,-9.1180,-3.9773,-29.8817,-104.3086,27.8715,-43.1421,1476,1523,1.0000,0.1034,-0.2266,9.7598,-9.2077,0.6004,2.9988,0.0671,-0.2542,9.8067,-9.0282,0.6748,3.0703
314.7137,-1.7969,0.5034,133.9450,-8.8890,-5.4630,-29.6895,-121.2617,30.2410,-49.0738,1473,1526,1.0000,0.0267,-0.1787,9.5803,-8.8642,0.3714,3.0064,0.0049,-0.2255,9.6702,-8.9137,0.5756,3.2611
314.7321,-1.9276,0.5177,134.0010,-8.0073,-6.0140,-19.0704,-166.8913,32.4178,-62.9385,1465,1534,1.0000,0.0100,-0.2338,9.7311,-8.3145,0.6157,3.0675,0.0001,-0.2159,9.8641,-7.7000,2.6977,3.1085
314.7506,-2.0606,0.4858,134.0589,-6.6943,-6.1160,-5.5168,-221.2207,34.6315,-79.2576,1456,1543,1.0000,0.1010,-0.3703,9.6689,-6.6657,0.3790,3.1438,-0.0071,-0.3164,9.7276,-6.7229,0.3695,3.1619
314.7692,-2.1607,0.4300,134.1187,-5.4958,-6.0230,4.9990,-263.0316,36.3057,-91.8017,1449,1550,1.0000,0.1895,-0.3391,9.5731,-5.6962,0.0432,3.0980,0.0815,-0.3428,9.6462,-5.2954,0.1405,3.3146
314.7877,-2.2158,0.4557,134.1770,-3.5264,-5.4340,19.5206,-311.1869,37.2360,-105.7503,1441,1558,1.0000,-0.1217,-0.3248,9.7215,-3.6657,0.6004,3.1591,-0.2274,-0.2781,9.6008,-3.3870,0.7359,3.2001
314.8061,-2.2133,0.4746,134.2345,-1.1752,-3.6370,26.6277,-331.3752,37.2179,-111.3940,1438,1561,1.0000,-0.0954,-0.2697,9.6066,-1.5283,1.0813,3.1744,-0.0694,-0.1584,9.7229,-0.8221,0.3695,3.1161
314.8245,-2.1329,0.4506,134.2908,0.9660,-1.2186,14.3929,-286.8875,35.9127,-98.2849,1445,1554,1.0000,0.0722,-0.0925,9.5252,0.2656,0.6920,2.9759,0.0623,-0.1991,9.6175,1.6664,0.1634,3.0932
314.8432,-2.0153,0.4305,134.3482,3.6950,0.0000,0.0000,-231.8948,33.9912,-81.9261,1454,1545,1.0000,0.0315,-0.1476,9.4989,2.6397,0.1500,2.9530,-0.1747,-0.1824,9.5888,4.7504,-0.0503,3.1543
314.8617,-1.8558,0.4508,134.4055,7.1492,0.0000,0.0000,-213.5488,31.3792,-75.4833,1458,1541,1.0000,-0.1959,-0.2194,9.6449,6.2580,-0.2087,3.1133,-0.2633,-0.3835,9.8330,8.0405,-0.7145,3.0550
314.8805,-1.6757,0.4567,134.4669,10.1874,0.0000,0.0000,-192.8280,28.4248,-68.2042,1462,1537,1.0000,-0.1480,-0.3703,9.5635,9.6168,-0.5446,3.2965,-0.2729,-0.2662,9.6630,10.7580,-0.7984,3.2230
314.8990,-1.4733,0.4590,134.5265,11.2828,0.0000,0.0000,-169.5327,25.0992,-60.0187,1466,1533,1.0000,-0.1289,-0.3128,9.5396,11.1816,-0.4377,3.2965,-0.2777,-0.3212,9.6822,11.3840,-0.7984,3.1314
314.9175,-1.2700,0.4695,134.5866,11.0958,0.1203,2.6755,-153.8447,21.7575,-53.9553,1470,1529,1.0000,-0.1863,-0.2529,9.6617,11.3267,-0.2240,3.2278,-0.1508,-0.2757,9.8186,10.8649,-1.2641,3.2688
314.9359,-1.0140,0.5210,134.6457,10.9278,2.1947,30.2405,-203.7708,17.5432,-65.8274,1463,1536,1.0000,-0.3779,0.0391,9.7096,10.9908,0.0508,3.0751,-0.0287,-0.2039,9.8426,10.8649,-1.3710,3.2611
314.9543,-0.7938,0.5790,134.7066,10.4202,4.7613,42.8502,-178.9618,13.9186,-57.0686,1468,1531,1.0000,-0.4138,-0.0447,9.8053,10.2122,-0.1248,3.1056,-0.3016,-0.1297,9.6558,10.6282,-1.1725,3.4367
314.9727,-0.5929,0.5881,134.7621,10.5271,6.1443,42.0328,-157.7366,10.6099,-49.4712,1472,1527,1.0000,-0.1624,-0.1045,9.8317,10.6549,0.2187,2.9606,-0.3830,-0.1201,9.8450,10.3992,-0.8595,3.0703
314.9913,-0.3821,0.5609,134.8212,10.8210,6.8458,37.7161,-127.1581,7.1347,-39.1716,1478,1521,1.0000,0.0267,-0.0614,9.7383,10.8687,0.1882,3.1973,-0.3040,0.0451,9.7971,10.7733,-0.3404,3.1695
315.0098,-0.1729,0.5364,134.8838,9.7828,7.2863,23.9046,-73.9461,3.6840,-22.5469,1487,1512,1.0000,0.0196,0.0655,9.7455,9.5404,-0.1629,3.4721,-0.1963,0.0690,9.7803,10.0252,0.0565,3.3146
315.0281,-0.0439,0.5236,134.9468,7.4546,7.3116,1.3727,-7.5015,0.7243,-2.4626,1498,1501,1.0000,-0.0427,-0.0710,9.7479,7.8076,-0.4301,3.6324,-0.2082,0.0786,9.7468,7.1015,0.0718,3.2535
315.0466,0.0503,0.5359,135.0101,4.4698,6.8853,-23.1327,60.3445,-0.8309,17.3119,1509,1490,1.0000,-0.1959,0.0463,9.6832,4.9450,-0.8042,3.4950,-0.1005,0.0331,9.6534,3.9947,-0.3786,3.3680
315.0650,0.1025,0.5405,135.0713,2.5500,6.2350,-35.2735,94.4834,-1.6920,27.3014,1515,1484,1.0000,-0.1456,0.0320,9.8580,2.7923,-0.7736,3.3270,-0.1053,-0.0148,9.9838,2.3076,0.0184,3.3146
315.0834,0.1164,0.5287,135.1326,1.6034,5.1898,-35.3970,96.1161,-1.9220,22.8732,1512,1487,0.8206,-0.0523,-0.0590,9.9155,2.0900,-0.6668,3.2583,-0.1196,0.0810,9.8713,1.1168,0.2703,3.4215
315.1019,0.1698,0.5043,135.1939,1.0767,3.3199,-24.5884,75.2941,-2.8033,0.7123,1500,1499,0.0317,-0.0451,0.1684,9.6306,1.1893,-0.8881,3.1896,0.0767,0.1959,9.9551,0.9641,-0.6381,3.3756
315.1205,0.2099,0.4898,135.2522,0.5462,1.5310,-12.6441,50.4738,-3.4655,15.8654,1508,1491,1.0000,-0.0714,0.1612,9.6593,0.2809,-0.3385,3.0751,-0.0406,0.1528,9.6941,0.8115,-0.8366,3.1695
315.1390,0.2280,0.5031,135.3047,-0.4615,0.2801,-3.0346,29.1458,-3.7663,10.0440,1505,1494,1.0000,-0.1959,0.1636,10.1142,-0.2687,-0.3690,2.8537,-0.1627,0.1361,9.8186,-0.6542,-0.6229,2.8260
315.1573,0.1975,0.5033,135.3551,-1.5035,0.0000,-0.0000,18.9409,-3.2655,0.0000,1500,1500,0.0000,-0.1097,0.0272,9.8700,-1.1237,-0.2927,2.6858,-0.1603,-0.0459,9.7588,-1.8832,-0.2259,2.8031
315.1759,0.1262,0.5181,135.4027,-2.6943,0.0000,-0.0000,12.1012,-2.0835,0.0000,1500,1500,0.0000,-0.1552,-0.0686,9.7886,-2.4214,-0.0942,2.5789,-0.1005,0.0690,9.7755,-2.9672,0.1023,2.5818
315.1945,0.0497,0.4993,135.4478,-3.0951,0.0000,-0.0000,4.7653,-0.8205,0.0000,1500,1500,0.0000,-0.0307,-0.0638,9.6856,-2.8413,-0.4377,2.5331,-0.1077,-0.0531,9.8665,-3.3489,-0.2641,2.3298
315.2130,-0.0170,0.4664,135.4909,-3.0798,0.0000,-0.0000,-1.6327,0.2811,-0.0000,1500,1500,0.0000,0.0124,-0.0399,9.8891,-3.0626,-0.7431,2.2507,-0.1172,-0.0315,9.8952,-3.0969,-0.6152,2.4291
315.2314,-0.0726,0.4745,135.5328,-2.8660,0.0000,-0.0000,-6.9630,1.1989,-0.0000,1500,1500,0.0000,-0.1744,-0.0183,10.0711,-2.9023,-0.6515,2.2507,-0.1723,-0.0028,9.7875,-2.8298,-0.5847,2.2917
315.2502,-0.1643,0.4789,135.5717,-3.3317,0.0000,-0.0000,-15.7553,2.7127,-0.0000,1500,1500,0.0000,-0.1121,-0.1428,9.9562,-2.2764,-0.4072,1.9835,-0.1340,-0.0914,9.8809,-4.3870,0.1405,2.1772
315.2686,-0.2518,0.4991,135.6127,-2.2897,0.0000,-0.0000,-24.1418,4.1566,-8.8380,1495,1504,1.0000,-0.1432,-0.2410,9.8939,-2.1924,0.1271,2.2125,-0.2010,-0.2039,9.8833,-2.3870,0.5680,2.2688
315.2870,-0.3325,0.4795,135.6530,-1.3851,0.0000,-0.0000,-31.8797,5.4914,-11.6720,1493,1506,1.0000,0.0291,-0.2960,9.8748,-0.3985,0.4172,2.1285,0.0384,-0.2949,9.7923,-2.3718,0.1405,2.2917
315.3055,-0.4108,0.4603,135.6949,-2.0493,0.0000,-0.0000,-39.3880,6.7875,-14.4224,1492,1507,1.0000,-0.0092,-0.2506,9.9849,-2.1161,-0.3080,2.1744,-0.0478,-0.2470,9.9671,-1.9824,-0.1267,2.3756
315.3241,-0.4709,0.4874,135.7395,-1.6943,0.0000,-0.0000,-45.1595,7.7853,-16.5373,1490,1509,1.0000,-0.2270,-0.2099,9.9155,-1.8184,-0.4072,2.3805,-0.1867,-0.1201,9.8474,-1.5702,-0.1267,2.4367
315.3425,-0.5005,0.5076,135.7847,-0.9271,0.0000,0.0000,-47.9971,8.2786,-17.5785,1490,1509,1.0000,-0.1911,-0.1428,9.8389,-1.1390,-0.2774,2.4415,-0.0837,-0.1488,9.8905,-0.7153,-0.0427,2.4749
315.3609,-0.5142,0.4953,135.8288,0.3782,0.0000,0.0000,-49.3117,8.5099,-18.0622,1490,1509,1.0000,0.0148,-0.1859,9.8221,0.2198,0.3103,2.3194,0.2467,-0.1608,9.8641,0.5366,0.7512,2.4902
315.3793,-0.4987,0.4850,135.8736,1.9469,0.0000,0.0000,-47.8237,8.2589,-17.5201,1490,1509,1.0000,0.0387,-0.1907,9.8580,1.5557,0.7149,2.5026,0.0815,-0.0962,9.8234,2.3382,0.9878,2.4062
315.3979,-0.4504,0.4971,135.9206,3.4927,0.0000,0.0000,-43.1849,7.4651,-15.8243,1491,1508,1.0000,-0.0618,-0.1644,9.7575,3.2503,0.7607,2.5102,-0.1268,-0.1393,9.7971,3.7351,0.9497,2.5894
315.4163,-0.3813,0.5447,135.9900,4.4240,0.0000,0.0000,-36.5607,6.3291,-13.4016,1492,1507,1.0000,-0.2390,-0.1380,9.8700,4.3190,0.5546,2.9148,-0.1244,-0.1991,9.7779,4.5290,1.0107,4.5360
315.4347,-0.2853,0.5741,136.0214,4.8973,0.0000,0.0000,-27.3542,4.7478,-10.0331,1494,1505,1.0000,-0.1552,-0.0399,9.7742,4.8381,0.9668,2.7850,0.0911,0.0092,9.6199,4.9565,0.8733,0.7192
315.4532,-0.1620,0.5592,136.0707,5.7103,0.0000,0.0000,-15.5300,2.7148,-0.0000,1500,1500,0.0000,0.0459,0.0296,9.6449,5.4641,0.7913,2.8232,0.0240,0.0307,9.6367,5.9565,0.9420,2.5131
315.4717,-0.0125,0.5381,136.1194,6.7828,0.0000,0.0000,-1.2026,0.2071,-0.0000,1500,1500,0.0000,0.0459,0.0798,9.6808,6.6855,0.5470,2.5637,-0.0263,0.0906,9.6295,6.8802,0.4458,2.6886
315.4901,0.1309,0.5332,136.1678,7.0920,0.1722,1.7857,8.2682,-2.1615,0.0000,1500,1500,0.0000,-0.0523,0.0559,9.7239,7.2045,0.1958,2.5789,-0.0813,0.0642,9.5864,6.9794,0.1863,2.6734
315.5086,0.2683,0.5389,136.2149,6.2599,0.7278,4.3888,15.1935,-4.4295,6.4689,1503,1496,1.0000,-0.1145,0.1182,9.5803,7.1969,-0.0713,2.6782,-0.1460,0.1839,9.6798,5.3229,0.0718,2.4062
315.5270,0.4315,0.5370,136.2608,6.9851,1.7438,10.3504,16.5391,-7.1273,8.1946,1504,1495,1.0000,-0.1025,0.1996,9.6282,7.1740,-0.1935,2.4797,-0.0334,0.1887,9.5217,6.7962,-0.2412,2.4749
315.5455,0.5793,0.5108,136.3058,6.1225,2.4745,7.9587,36.4490,-9.5713,14.9914,1508,1491,1.0000,0.0076,0.2307,9.7383,6.5023,-0.1858,2.5408,0.0575,0.2869,9.6319,5.7427,-0.2565,2.3146
315.5641,0.7030,0.4788,136.3476,4.9011,2.6113,1.4627,76.6753,-11.6185,27.2784,1515,1484,1.0000,0.0339,0.2450,9.6234,5.1129,-0.2698,2.3347,-0.0071,0.2127,9.6271,4.6893,-0.3023,2.1543
315.5825,0.8164,0.4780,136.3915,4.3897,2.5092,-1.0611,96.9955,-13.4982,33.9078,1518,1481,1.0000,-0.1001,0.2642,9.5970,4.4565,-0.4148,2.4339,-0.1915,0.2294,9.6199,4.3229,-0.1419,2.3146
315.6009,0.9277,0.5124,136.4307,3.6301,2.1094,-3.7216,117.4632,-15.3436,40.5615,1522,1477,1.0000,-0.2510,0.3432,9.6593,3.7465,-0.2545,2.2049,-0.2896,0.2031,9.6869,3.5137,-0.0045,2.0169
315.6194,1.0369,0.5169,136.4699,4.1187,1.9775,-1.2012,122.7710,-17.1559,42.9538,1523,1476,1.0000,-0.0954,0.3073,9.6761,3.1435,-0.1324,2.0522,-0.1148,0.1839,10.2807,5.0939,0.4687,2.1543
315.6381,1.1154,0.4598,136.5042,2.2485,1.1977,-5.0683,142.9428,-18.4626,49.2553,1527,1472,1.0000,0.1177,0.3624,10.2243,2.4183,-0.3003,1.7927,0.3592,0.1337,9.3901,2.0786,-0.9053,1.8718
315.6566,1.1394,0.4601,136.5355,1.7523,0.5517,-2.7879,139.1341,-18.8695,48.3923,1526,1473,1.0000,-0.1576,0.1493,9.8006,2.0290,-1.1095,1.7469,0.0647,0.2630,9.6893,1.4756,-0.5618,1.6734
315.6750,1.1524,0.5113,136.5628,1.6187,0.1749,-0.8804,135.1440,-19.0967,47.3887,1526,1473,1.0000,-0.3539,0.1229,9.9179,2.2885,-0.4835,1.5637,-0.1220,-0.0459,9.4763,0.9489,-0.1343,1.4367
315.6935,1.1467,0.5460,136.5889,1.0805,0.0038,-0.0237,132.0175,-19.0136,46.4717,1525,1474,1.0000,-0.2677,0.0775,9.6928,1.1893,-0.6210,1.6171,-0.1268,0.0283,9.8569,0.9718,0.1939,1.2459
315.7121,1.1350,0.5287,136.6111,0.8706,0.0000,-0.0000,130.6066,-18.8324,45.9861,1525,1474,1.0000,-0.0451,0.0679,9.9514,1.1740,-0.4072,1.2889,-0.0430,0.0858,9.6439,0.5672,-0.2641,1.1543
315.7306,1.1195,0.4948,136.6308,1.0614,0.0000,-0.0000,128.8251,-18.5882,45.3651,1524,1475,1.0000,0.0627,0.0296,9.8915,1.1282,-0.2469,1.2049,-0.0694,0.1145,9.8091,0.9947,0.1252,0.9634
315.7491,1.1033,0.4805,136.6482,1.1454,0.0000,-0.0000,126.9506,-18.3304,44.7114,1524,1475,1.0000,-0.0116,0.0176,9.8939,1.5023,-0.1248,1.1591,-0.1460,0.0044,9.7947,0.7885,0.2626,0.7497
315.7675,1.0414,0.5246,136.6705,0.7065,0.0000,-0.0000,119.8335,-17.3203,42.2135,1523,1476,1.0000,-0.2869,-0.1620,9.8604,0.9450,-0.0942,1.2125,-0.2322,-0.1225,9.8019,0.4679,0.2168,1.2840
315.7860,0.9585,0.5742,136.6894,0.1721,0.0000,-0.0000,110.2943,-15.9621,38.8635,1521,1478,1.0000,-0.3084,-0.2266,9.9227,0.4106,0.1729,1.1056,-0.0622,-0.0914,9.8450,-0.0664,0.3161,1.0169
315.8044,0.8963,0.5533,136.7123,-0.1256,0.0000,-0.0000,103.1407,-14.9453,36.3520,1519,1480,1.0000,0.0004,-0.1141,9.9849,0.1053,0.2035,1.2049,0.1174,-0.2303,10.0580,-0.3565,-0.0580,1.3375
315.8229,0.8130,0.5412,136.7389,-0.6103,0.0000,-0.0000,93.5562,-13.5791,32.9853,1518,1481,1.0000,-0.0475,-0.1835,9.8915,-0.2764,0.1119,1.4339,0.0934,-0.2374,9.9335,-0.9443,-0.2030,1.5436
315.8414,0.7102,0.5568,136.7714,-1.7172,0.0000,-0.0000,68.0976,-11.8885,25.0116,1513,1486,1.0000,-0.1839,-0.1907,9.8580,-1.3909,-0.2469,1.6400,-0.1747,-0.2015,10.0078,-2.0435,-0.1343,1.9405
315.8599,0.5967,0.5724,136.8086,-2.6370,0.0000,-0.0000,57.2184,-10.0225,21.0324,1511,1488,1.0000,-0.1720,-0.1835,10.0376,-2.1161,-0.1935,2.0446,-0.1556,-0.1872,9.9599,-3.1580,0.2397,2.0474
315.8783,0.4596,0.5728,136.8474,-3.3508,0.0000,-0.0000,44.0760,-7.7657,16.2241,1508,1491,1.0000,-0.0714,-0.2577,10.0663,-2.8184,0.2416,2.1285,-0.0263,-0.2135,9.9168,-3.8832,0.5298,2.1695
315.8968,0.3000,0.5396,136.8925,-4.6447,0.0000,-0.0000,28.7703,-5.1350,10.6232,1505,1494,1.0000,0.1081,-0.2721,10.0567,-4.1542,0.2951,2.4644,0.0791,-0.2183,9.7588,-5.1351,0.8886,2.4825
315.9153,0.1547,0.5446,136.9464,-4.8928,0.0000,-0.0000,14.8341,-2.7386,0.0000,1500,1500,0.0000,-0.0547,-0.2099,10.1070,-5.2306,0.3485,2.7621,0.0839,-0.2303,9.8498,-4.5550,1.2321,3.1466
315.9337,-0.0227,0.5409,137.0051,-7.4271,0.0000,-0.0000,-2.1727,0.3741,-0.0000,1500,1500,0.0000,0.0028,-0.1715,10.0017,-6.9023,0.6768,2.9835,-0.0454,-0.1345,9.6055,-7.9519,1.1787,3.4596
315.9522,-0.2237,0.5536,137.0680,-9.0111,-0.1802,-2.8115,-14.7071,3.6939,-5.9650,1496,1503,1.0000,-0.0618,-0.1692,9.9466,-8.4519,0.7378,3.3728,-0.0143,-0.2279,9.7923,-9.5702,1.4306,3.4825
315.9708,-0.4158,0.5515,137.1347,-10.2973,-2.1125,-26.4125,23.5181,6.8672,3.1515,1501,1498,1.0000,0.0243,-0.0494,9.8867,-9.8718,1.1195,3.5026,-0.0478,-0.0315,9.6127,-10.7229,1.3848,3.7268
315.9892,-0.6220,0.5426,137.2068,-11.4691,-5.0986,-53.0217,81.1238,10.2764,17.5765,1509,1490,1.0000,0.0315,-0.0542,9.6904,-11.2840,0.9058,3.8385,0.0144,0.0092,9.6415,-11.6542,1.0107,4.0398
316.0076,-0.8393,0.5235,137.2811,-12.8890,-6.6104,-60.2473,76.9305,13.8701,14.6055,1508,1491,1.0000,0.0651,-0.0183,9.7287,-12.6581,0.5241,3.8308,-0.1556,-0.0794,9.8043,-13.1198,0.9420,4.2917
316.0261,-1.0709,0.5173,137.3552,-13.9996,-7.7188,-59.8828,49.2402,17.7008,4.9368,1502,1497,1.0000,-0.0092,-0.0207,9.7048,-13.8107,0.5775,3.8843,0.0839,-0.0172,9.6103,-14.1885,0.5451,4.1466
316.0446,-1.2938,0.5309,137.4281,-14.9119,-8.7978,-58.4489,19.4517,21.3930,-5.2500,1497,1502,1.0000,-0.1169,0.0535,9.6354,-14.5512,0.2493,3.8003,-0.1412,-0.0100,9.5265,-15.2725,0.3619,4.1161
316.0630,-1.5286,0.5382,137.5016,-15.6218,-9.8214,-55.5471,-15.9209,25.2820,-17.0989,1490,1509,1.0000,-0.1265,0.0200,9.6497,-15.4061,-0.2622,3.8308,-0.1172,0.0092,9.6846,-15.8374,0.0184,4.1314
316.0815,-1.7851,0.5180,137.5693,-15.2248,-10.6319,-43.8365,-79.1579,29.5313,-36.9299,1479,1520,1.0000,0.0076,-0.1524,9.7335,-15.0932,0.0279,3.6705,0.0168,0.0259,9.4978,-15.3565,-0.0885,3.6428
316.0999,-1.9845,0.4849,137.6382,-14.5187,-11.2149,-31.5468,-137.5008,32.8418,-54.9211,1469,1530,1.0000,0.0267,0.0104,9.4965,-14.6046,-0.7813,3.5866,-0.1053,0.0211,9.6367,-14.4328,-0.3404,3.7879
316.1184,-2.1650,0.4845,137.7001,-13.8241,-11.6063,-21.2651,-187.8779,35.8410,-70.5263,1461,1538,1.0000,-0.1385,0.0032,9.6282,-13.9481,-1.1171,3.2660,-0.1220,-0.0411,9.5481,-13.7000,-0.4702,3.3680
316.1368,-2.3166,0.4796,137.7587,-12.6103,-11.7569,-8.1451,-243.1177,38.3669,-87.2564,1452,1547,1.0000,-0.1289,0.0056,9.6330,-12.6199,-1.2469,2.9759,-0.0119,-0.0651,9.4715,-12.6008,-0.5465,3.2459
316.1553,-2.4425,0.4719,137.8142,-10.6981,-11.5981,8.6014,-305.8281,40.4676,-105.8657,1441,1558,1.0000,-0.1169,-0.0662,9.7311,-10.9634,-1.1706,2.8232,-0.0670,0.0068,9.6271,-10.4328,-0.6992,3.0627
316.1737,-2.5217,0.4819,137.8644,-9.4882,-11.2816,17.1782,-339.6516,41.8009,-116.0029,1436,1563,1.0000,-0.1959,0.0224,9.6234,-8.8184,-1.2469,2.5102,-0.1436,-0.0507,9.6702,-10.1580,-0.6152,2.7955
316.1922,-2.5565,0.4435,137.9074,-6.1790,-10.5162,41.4617,-413.5913,42.4004,-137.0058,1424,1575,1.0000,0.0220,-0.0638,9.5156,-6.5359,-1.1171,2.2583,-0.1723,0.0092,9.6750,-5.8221,-0.8748,2.2459
316.2106,-2.5228,0.4211,137.9505,-3.3584,-9.4425,58.2438,-458.0425,41.8691,-149.1865,1417,1582,1.0000,-0.0283,0.0080,9.5707,-4.1161,-1.3385,2.0522,-0.1196,-0.0315,9.8881,-2.6008,-0.1954,2.4978
316.2291,-2.4498,0.3978,137.9909,-0.4653,-8.0960,73.0291,-492.2187,40.6884,-158.1654,1413,1586,1.0000,-0.0355,-0.0447,9.5324,-1.3222,-1.3461,2.0140,-0.2705,-0.0507,9.7324,0.3916,-0.5694,2.2459
316.2476,-2.3350,0.3744,138.0337,2.0614,-6.5723,82.2053,-505.4412,38.8184,-160.9327,1411,1588,1.0000,-0.0235,-0.0590,9.6210,1.3343,-1.1706,2.2278,-0.1484,-0.0674,9.6726,2.7885,-0.5007,2.2764
316.2661,-2.1871,0.3799,138.0733,3.7446,-3.7771,63.0152,-433.1586,36.4004,-139.4846,1423,1576,1.0000,-0.1504,-0.0303,9.6737,3.0519,-1.1629,2.0217,-0.2106,0.0211,9.6031,4.4374,-0.4397,2.1695
316.2845,-2.0362,0.4027,138.1173,4.1874,-0.4303,8.8539,-259.8092,33.9309,-89.7120,1450,1549,1.0000,-0.2558,-0.0375,9.6904,4.9068,-1.3996,2.4339,-0.1172,-0.0794,9.8162,3.4679,-0.7068,2.1848
316.3029,-1.8370,0.4530,138.1810,6.2866,0.0000,0.0000,-211.3835,30.6619,-74.5183,1459,1540,1.0000,-0.3635,0.0391,9.6497,5.9679,-1.1935,2.4186,-0.3806,-0.0052,9.8976,6.6053,-0.5542,4.5818
316.3215,-1.6521,0.4607,138.2151,6.9317,0.0000,0.0000,-190.1117,27.6282,-67.0454,1463,1536,1.0000,-0.1768,-0.0494,9.6473,6.6473,-0.6362,2.6476,-0.1484,-0.1465,10.0509,7.2160,-1.0580,0.7268
316.3411,-1.4970,0.4970,138.2652,6.2866,0.0000,0.0000,-172.2601,25.0835,-60.7746,1466,1533,1.0000,-0.2749,-0.1476,9.8317,6.2885,-0.3843,2.4644,-0.1292,-0.1728,10.0485,6.2847,-0.5923,2.5894
316.3598,-1.3925,0.5247,138.3299,4.9813,0.0000,0.0000,-160.2292,23.3723,-56.5503,1468,1531,1.0000,-0.2558,-0.2122,9.7910,5.4335,-0.4835,2.5866,-0.2298,-0.1560,9.9264,4.5290,-0.7450,4.6047
316.3784,-1.2812,0.5459,138.3844,3.8591,0.0000,0.0000,-147.4320,21.5501,-52.0560,1471,1528,1.0000,-0.2103,-0.0758,9.8077,5.3801,-0.3919,2.8079,-0.2777,-0.1919,9.8426,2.3382,-0.3023,3.0550
316.3968,-1.2096,0.5391,138.4398,1.9278,0.0000,0.0000,-139.1863,20.3798,-49.1621,1472,1527,1.0000,-0.0978,-0.0590,10.0807,2.0290,-0.6897,2.9759,-0.2154,0.0475,9.8306,1.8267,-0.2030,2.9787
316.4153,-1.1675,0.5839,138.4951,1.6149,0.0000,0.0000,-134.3449,19.6973,-47.4652,1473,1526,1.0000,-0.3061,-0.1620,9.8891,2.1206,-0.1095,3.1056,-0.1316,-0.1297,9.7947,1.1092,-0.0122,2.8108
316.4339,-1.1543,0.6314,138.5513,0.9889,0.0000,-0.0000,-132.8284,19.4914,-46.9377,1474,1525,1.0000,-0.3156,-0.2314,9.8724,1.1893,0.1653,2.8843,-0.0622,-0.1943,9.6127,0.7885,-0.0732,3.2382
316.4523,-1.1366,0.6883,138.6081,0.7943,0.0000,-0.0000,-130.7877,19.2101,-46.2256,1474,1525,1.0000,-0.3707,-0.2027,10.1333,1.4794,0.1119,3.1362,-0.1747,-0.1584,9.6606,0.1092,0.1787,3.0092
316.4708,-1.1206,0.7169,138.6678,0.9889,0.0000,-0.0000,-128.9516,18.9581,-45.5855,1474,1525,1.0000,-0.2773,-0.2122,10.0615,0.6778,0.2951,3.2736,-0.2681,-0.0890,9.8857,1.3000,-1.1267,3.1543
316.4893,-1.1528,0.7212,138.7277,-1.5302,0.0000,-0.0000,-132.6506,19.5000,-46.8922,1474,1525,1.0000,-0.1600,-0.2218,9.9442,-1.0168,0.3714,3.1896,-0.1843,-0.3069,9.6486,-2.0435,-1.1114,3.3146
316.5078,-1.2225,0.7491,138.7831,-1.8775,0.0000,-0.0000,-140.6734,20.6626,-49.7199,1472,1527,1.0000,-0.1768,-0.3751,9.9298,-1.5970,0.5394,3.1209,-0.2034,-0.2470,9.8186,-2.1580,1.2932,2.9482
316.5263,-1.2685,0.7657,138.8436,-1.4844,0.0000,-0.0000,-145.9615,21.4336,-51.5860,1471,1528,1.0000,-0.1049,-0.3032,9.9634,-1.3603,1.1271,3.2889,-0.0981,-0.3691,9.8402,-1.6084,1.1023,3.3069
316.5448,-1.3188,0.7598,138.9057,-1.1370,0.0000,-0.0000,-151.7573,22.2778,-53.6310,1470,1529,1.0000,-0.0092,-0.3583,9.8197,-1.1237,0.9058,3.3423,-0.1364,-0.3356,9.8498,-1.1504,1.1252,3.5054
316.5632,-1.3683,0.7762,138.9705,-0.6676,0.0000,-0.0000,-157.4467,23.1073,-55.6387,1469,1530,1.0000,-0.1648,-0.4014,9.8915,-1.0626,0.5317,3.4034,-0.0718,-0.3571,9.9814,-0.2725,0.3237,3.7650
316.5817,-1.4065,0.7877,139.0370,-0.5874,0.0000,-0.0000,-161.8426,23.7517,-57.1918,1468,1531,1.0000,-0.1337,-0.3679,9.9610,-0.5665,0.6233,3.5484,-0.2202,-0.5391,9.9862,-0.6084,0.4077,3.7421
316.6002,-1.4637,0.7841,139.1069,-1.2935,0.0000,-0.0000,-168.4319,24.7112,-59.5165,1467,1532,1.0000,-0.1265,-0.3894,9.6210,-1.4825,-0.8042,3.6171,-0.1196,-0.4577,9.9216,-1.1046,0.5374,4.0474
316.6187,-1.5193,0.8040,139.1796,-1.8584,0.0000,-0.0000,-174.8286,25.6436,-61.7738,1466,1533,1.0000,-0.1528,-0.3511,9.8221,-2.0474,1.0126,3.7087,0.0288,-0.4170,9.8665,-1.6695,0.5451,4.3069
316.6372,-1.5631,0.8144,139.2575,-1.1027,0.0000,-0.0000,-179.8655,26.3815,-63.5531,1465,1534,1.0000,-0.1648,-0.3798,9.9897,-1.1695,1.0279,4.0751,-0.1939,-0.3883,9.8641,-1.0359,-0.9282,4.4367
316.6556,-1.5986,0.8059,139.3377,-0.1523,0.0000,0.0000,-183.9463,26.9826,-64.9963,1464,1535,1.0000,-0.0786,-0.4229,9.7503,-0.2077,1.0508,4.2736,-0.1651,-0.3763,9.8378,-0.0969,-1.0809,4.5283
316.6741,-1.6179,0.8069,139.4200,-0.0073,0.0000,0.0000,-186.1699,27.3176,-65.7864,1463,1536,1.0000,-0.0714,-0.3751,9.9705,-0.0321,0.5317,4.3805,-0.0263,-0.3069,9.9048,0.0176,0.9802,4.6123
316.6925,-1.6157,0.8150,139.5028,0.8973,0.0000,0.0000,-185.9227,27.2983,-65.7075,1463,1536,1.0000,-0.0834,-0.3559,9.9634,1.0213,0.6310,4.5255,-0.1603,-0.3595,9.6271,0.7733,1.3619,4.5436
316.7109,-1.6155,0.8045,139.5897,1.4202,0.0000,0.0000,-185.8964,27.3107,-65.7064,1463,1536,1.0000,-0.0140,-0.4110,9.8676,1.6702,0.6615,4.9072,-0.0598,-0.2494,9.6415,1.1702,0.8581,4.5894
316.7295,-1.6172,0.7902,139.6791,1.2943,0.0000,0.0000,-186.0906,27.3547,-65.7827,1463,1536,1.0000,-0.0164,-0.4110,9.9681,1.2122,0.3256,4.8614,-0.1508,-0.2015,9.6750,1.3763,0.6825,4.8489
316.7480,-1.6049,0.7614,139.7685,0.5118,0.0000,0.0000,-184.6747,27.1678,-65.2928,1464,1535,1.0000,0.0483,-0.2769,9.7263,1.5252,0.1653,5.0064,-0.0646,-0.1872,9.6151,-0.5015,0.7359,4.6734
316.7663,-1.5446,0.7919,139.8564,2.0385,0.0000,0.0000,-177.7402,26.1889,-62.8617,1465,1534,1.0000,-0.2390,-0.1715,9.7215,1.9450,0.1042,4.6782,-0.1819,-0.1943,9.7133,2.1321,0.4077,4.8871
316.7848,-1.4698,0.8201,139.9450,3.0347,0.0000,0.0000,-169.1334,24.9695,-59.8421,1467,1532,1.0000,-0.2270,-0.1835,9.7168,2.9603,0.5165,4.7927,-0.1747,-0.0842,9.5744,3.1092,0.0871,4.7802
316.8033,-1.3627,0.8198,140.0488,3.7332,0.0000,0.0000,-156.8102,23.2160,-55.5149,1469,1530,1.0000,-0.0738,-0.0830,9.8508,3.7236,0.7226,4.7469,-0.1627,-0.0459,9.6271,3.7427,0.4687,6.5589
316.8217,-1.2523,0.8019,140.1510,4.1988,0.0000,0.0000,-144.1065,21.4070,-51.0533,1471,1528,1.0000,-0.0092,-0.0854,9.7790,4.0366,0.5470,4.7011,-0.2393,-0.0363,9.8067,4.3611,0.1863,6.4749
316.8402,-1.1375,0.7967,140.2329,3.8515,0.0000,0.0000,-130.8893,19.5231,-46.4106,1474,1525,1.0000,-0.0714,-0.0159,9.5659,3.5252,0.6386,4.3194,-0.1005,-0.0603,9.8928,4.1779,0.0718,4.4825
316.8587,-1.0080,0.7986,140.3123,3.1110,0.0000,0.0000,-115.9904,17.3968,-41.1757,1477,1522,1.0000,-0.1409,0.1349,9.6497,2.8152,0.0966,4.2889,-0.0263,0.0211,9.7564,3.4069,-0.1648,4.2077
316.8771,-0.9279,0.7861,140.3922,2.7103,0.0000,0.0000,-106.7716,16.0842,-37.9381,1479,1520,1.0000,-0.0858,-0.0399,9.9466,2.9679,0.0355,4.2049,0.0120,0.0331,9.4595,2.4527,-0.2946,4.4367
316.8956,-0.8442,0.7696,140.4718,2.5729,0.0000,0.0000,-97.1461,14.7124,-34.5571,1480,1519,1.0000,-0.0834,0.0008,9.8580,2.8152,-0.4072,4.2583,-0.1125,0.0714,9.7229,2.3305,-0.3252,4.2840
316.9141,-0.7687,0.7438,140.5468,2.4813,0.0000,0.0000,-73.7109,13.4736,-27.3759,1484,1515,1.0000,-0.0475,-0.0135,9.7551,2.4870,-0.6133,4.0598,-0.2441,0.0618,9.7612,2.4756,-0.4091,3.9940
316.9326,-0.6878,0.7207,140.6207,2.2103,0.0000,-0.0000,-65.9579,12.1464,-24.5414,1486,1513,1.0000,-0.0475,0.0511,9.6138,2.0748,-0.4530,3.9988,-0.1244,-0.0004,9.7181,2.3458,-0.3481,3.9634
316.9510,-0.6027,0.7057,140.6941,1.8553,0.0000,-0.0000,-57.7905,10.7471,-21.5549,1488,1511,1.0000,-0.0738,0.1158,9.6784,1.6397,-0.2393,3.9148,0.0791,0.0307,9.7061,2.0710,-0.2717,3.9787
316.9695,-0.5369,0.6887,140.7663,1.4775,0.0000,-0.0000,-51.4857,9.6676,-19.2498,1489,1510,1.0000,-0.0714,0.0727,9.8317,1.5862,-0.4072,3.8766,-0.0191,-0.0100,9.6486,1.3687,-0.3328,3.8871
316.9879,-0.4969,0.6573,140.8350,1.4011,0.0000,-0.0000,-47.6469,9.0120,-17.8471,1490,1509,1.0000,-0.0020,-0.0303,9.7239,1.7313,-0.3080,3.6858,0.0336,-0.0100,9.7875,1.0710,-0.4549,3.7650
317.0065,-0.4545,0.6196,140.9007,1.5843,0.0000,-0.0000,-43.5848,8.3176,-16.3625,1491,1508,1.0000,-0.0044,-0.0279,9.5635,1.5099,-0.8576,3.4721,-0.0334,-0.0291,9.6199,1.6588,-0.7450,3.5818
317.0250,-0.4240,0.5862,140.9649,0.9393,0.0000,-0.0000,-40.6551,7.8177,-15.2923,1491,1508,1.0000,0.0220,-0.0159,9.6449,-0.3298,-0.4454,3.4263,0.0168,-0.0243,9.7516,2.2084,-0.2183,3.4902
317.0434,-0.3802,0.5585,141.0299,2.7561,0.0000,0.0000,-36.4580,7.0993,-13.7579,1492,1507,1.0000,-0.0044,-0.1093,9.7215,2.4488,-0.6362,3.5713,-0.1172,0.0331,9.7564,3.0634,-0.2183,3.4825
317.0620,-0.3232,0.5298,141.0944,3.3973,0.0000,0.0000,-30.9913,6.1619,-11.7585,1493,1506,1.0000,0.0124,-0.0949,9.9777,3.1053,-0.3080,3.5026,0.0144,-0.1704,9.8761,3.6893,-0.3099,3.4520
317.0804,-0.2672,0.5190,141.1577,4.3172,0.0000,0.0000,-25.6266,5.2415,-9.7962,1494,1505,1.0000,-0.0858,-0.1692,9.8077,4.1587,-0.5523,3.4263,0.0934,-0.0722,9.9288,4.4756,-0.4549,3.4596
317.0988,-0.1812,0.5042,141.2208,4.7523,0.0000,0.0000,-17.3731,3.8231,-0.0000,1500,1500,0.0000,-0.0259,-0.0518,10.0902,4.4565,0.0203,3.4644,0.0743,-0.2231,9.9431,5.0481,-0.1343,3.3985
317.1174,-0.0886,0.4798,141.2861,5.4393,0.0502,0.3284,-9.2829,1.4626,-0.0000,1500,1500,0.0000,0.0172,-0.0686,9.6976,5.1358,-0.1477,3.3652,0.0049,-0.1656,9.7923,5.7427,-0.0809,3.6963
317.1359,-0.0043,0.4596,141.3543,5.8820,0.4009,2.3837,-6.1339,0.0711,-0.0000,1500,1500,0.0000,0.0052,-0.1332,9.9945,5.6473,-0.0790,3.6476,0.0144,-0.1560,9.8857,6.1168,-0.0656,3.7344
317.1544,0.0811,0.4411,141.4223,6.6072,1.1812,7.0219,-9.0778,-1.3386,-0.0000,1500,1500,0.0000,0.0172,-0.1739,9.8149,6.6015,0.0890,3.7087,0.0408,-0.1872,10.0269,6.6130,0.1634,3.6810
317.1730,0.1669,0.4167,141.4952,6.8973,2.2308,11.3672,-11.2757,-2.7558,-0.0000,1500,1500,0.0000,0.0555,-0.1859,9.9777,6.8076,0.2951,3.9224,0.0240,-0.1536,9.7588,6.9870,0.1023,3.9863
317.1915,0.2603,0.4057,141.5684,7.0462,3.3355,14.1516,-9.0064,-4.2971,-0.3733,1499,1500,1.0000,-0.0044,-0.1428,9.7168,6.9832,0.1119,4.0140,0.0575,-0.1872,9.8881,7.1092,0.3237,3.9253
317.2099,0.3284,0.3899,141.6443,7.4164,4.4495,17.4986,-10.5083,-5.4241,-0.2303,1499,1500,1.0000,0.0339,-0.2745,9.7479,7.3572,0.3180,4.0827,0.0599,-0.2805,9.8498,7.4756,0.4458,4.2077
317.2285,0.3698,0.3672,141.7253,7.2943,5.2424,15.4811,-1.6929,-6.1115,2.5817,1501,1498,1.0000,0.0794,-0.3822,9.8389,7.5328,0.4172,4.4873,0.0767,-0.3619,9.6989,7.0557,0.5985,4.2840
317.2470,0.3766,0.3498,141.8152,6.3591,5.5042,6.2446,21.1219,-6.2266,9.0275,1504,1495,1.0000,0.0579,-0.4541,9.8293,6.6168,0.3561,4.8079,0.0336,-0.4673,9.6558,6.1015,0.6443,4.9711
317.2655,0.3513,0.3609,141.9111,5.6263,5.4870,-0.4381,34.7395,-5.8136,12.6339,1506,1493,1.0000,-0.0762,-0.5331,9.7120,5.7618,0.3180,5.2354,0.0743,-0.5128,9.6415,5.4908,0.6214,5.2230
317.2840,0.3065,0.3438,142.0132,4.6340,5.1359,-7.8513,48.2324,-5.0770,16.0436,1508,1491,1.0000,0.0387,-0.5379,9.6186,4.7160,0.3027,5.4644,0.0767,-0.5247,9.7276,4.5519,0.2932,5.6734
317.3024,0.2469,0.3232,142.1240,4.0309,4.5545,-10.4002,48.6395,-4.0969,15.6675,1508,1491,1.0000,0.0555,-0.5666,9.6880,4.1740,0.1119,5.9835,-0.0119,-0.5439,9.6702,3.8878,0.3695,6.1237
317.3208,0.1805,0.3061,142.2427,3.5385,3.7964,-10.8015,43.2325,-3.0025,2.3673,1501,1498,0.1740,0.0124,-0.5666,9.6880,3.6473,-0.1477,6.3270,0.0216,-0.5822,9.6869,3.4298,-0.0656,6.6581
317.3394,0.1317,0.2647,142.3698,3.2370,2.9990,-9.1469,34.5828,-2.1746,0.0000,1500,1500,0.0000,0.0746,-0.4708,9.7072,3.3725,-0.7202,6.7545,0.0839,-0.4481,9.6846,3.1015,-0.7145,7.0321
317.3579,0.0912,0.2393,142.5065,2.5614,2.0656,-8.2970,28.6571,-1.5055,0.0000,1500,1500,0.0000,0.0243,-0.3846,9.7383,2.8839,-0.7355,7.3423,0.0073,-0.3595,9.7133,2.2389,-0.3481,7.4596
317.3764,0.0712,0.2452,142.6450,2.4584,1.3300,-5.1599,19.2122,-1.1757,0.0000,1500,1500,0.0000,-0.0403,-0.2889,9.7311,2.3954,0.0279,7.4797,-0.0215,-0.2518,9.6462,2.5214,0.6443,7.5665
317.3948,0.0801,0.2482,142.7865,2.5996,0.8527,-2.7343,14.2463,-1.3230,0.0000,1500,1500,0.0000,-0.0164,-0.1692,9.7168,2.5557,0.4477,7.7316,-0.0454,-0.2159,9.7348,2.6435,0.4840,7.6657
317.4133,0.1145,0.2508,142.9334,3.0118,0.6200,-1.1905,13.8384,-1.8907,0.0000,1500,1500,0.0000,-0.0116,-0.0877,9.8029,2.8992,0.4401,7.9759,-0.0143,-0.1010,9.8737,3.1244,0.5832,7.9176
