timestamp,roll_deg,pitch_deg,yaw_deg,omega_raw,omega_filtered,alpha,tau_ff,tau_pid,tau_total,pwm_left,pwm_right,deadzone_factor,accel1_x,accel1_y,accel1_z,gyro1_x,gyro1_y,gyro1_z,accel2_x,accel2_y,accel2_z,gyro2_x,gyro2_y,gyro2_z
84.6045,-1.6888,0.0810,-18.5186,-5.5439,0.0000,-0.0000,-194.3334,34.4377,-19.6385,1489,1510,0.2742,0.0773,0.0317,9.9014,-5.0110,-1.1418,1.2742,-0.0466,0.0149,10.2012,-6.0767,-0.9411,1.5863
84.6236,-1.7869,0.0545,-18.4888,-7.7271,0.0000,-0.0000,-205.6239,36.4179,-25.9657,1485,1514,0.3426,0.0127,-0.0665,9.8033,-7.3164,-0.9357,1.4421,0.0611,-0.1599,10.0575,-8.1377,-1.2999,1.6016
84.6425,-1.9472,0.0473,-18.4607,-8.9904,0.0000,-0.0000,-224.0608,39.6419,-38.0109,1479,1520,0.4604,-0.0352,-0.2676,9.9158,-8.6294,-0.8670,1.5414,-0.0442,-0.3562,9.9570,-9.3515,-0.5900,1.3879
84.6618,-2.1545,0.0501,-18.4365,-10.7385,-1.3474,-19.5682,-191.5567,43.8090,-46.4511,1474,1525,0.6149,-0.0759,-0.3251,9.7937,-10.4767,-0.5235,1.2284,0.0635,-0.7082,10.0049,-11.0003,-0.8190,1.2276
84.6803,-2.4312,0.0054,-18.4133,-9.8263,-3.6919,-34.0468,-181.7038,49.3682,-60.7023,1466,1533,0.8034,0.0582,-0.8494,10.2270,-10.1713,-1.6685,1.1368,-0.0969,-0.5166,9.9259,-9.4813,-1.8419,1.2352
84.6988,-2.6579,-0.0426,-18.3975,-10.7996,-5.8328,-46.7256,-171.2785,53.9291,-74.2501,1459,1540,0.9910,0.2210,-0.5358,9.6788,-9.8813,-0.5540,0.7169,0.1090,-0.5861,9.6505,-11.7179,0.5398,0.9756
84.7173,-2.9360,-0.0622,-18.3703,-12.9942,-6.9357,-57.7857,-171.4303,59.5210,-77.7610,1457,1542,1.0000,0.1468,-0.6052,9.4513,-12.8431,0.7666,0.5643,-0.0921,-0.7584,9.6410,-13.1454,0.2039,2.5253
84.7358,-3.2465,-0.0339,-18.3627,-9.8645,-7.3750,-23.7536,-305.1731,65.7633,-118.3301,1434,1565,1.0000,-0.2172,-1.1511,10.2989,-10.8355,-0.7449,0.4421,-0.3124,-1.0218,9.6864,-8.8935,-1.3839,0.2352
84.7543,-3.4880,-0.0335,-18.3617,-7.1355,-7.3391,1.9457,-406.9794,70.6284,-149.2684,1417,1582,1.0000,-0.0807,-1.0864,9.9804,-7.2858,-1.3861,0.0452,-0.0107,-1.1128,10.0552,-6.9851,-0.4679,-0.0625
84.7727,-3.7099,-0.0413,-18.3670,-6.0171,-7.1408,10.7632,-457.9047,75.1026,-165.7646,1408,1591,1.0000,-0.0280,-1.1080,9.7434,-6.3316,-0.5846,-0.2602,-0.1041,-1.1271,9.5332,-5.7026,-1.0785,-0.4518
84.7911,-3.9064,-0.0534,-18.3794,-2.4599,-6.4387,38.1914,-559.5126,79.0719,-196.1995,1392,1607,1.0000,-0.1190,-1.3666,9.9900,-3.5530,-2.1724,-0.6342,-0.3220,-1.3402,9.4279,-1.3668,-1.9946,-1.0320
84.8095,-3.9994,-0.0407,-18.4166,3.4790,-3.5583,58.0000,-627.2681,80.9726,-216.1214,1381,1618,1.0000,-0.1070,-1.4695,10.2845,2.7218,-1.1113,-1.0998,-0.3172,-1.4551,9.2603,4.2363,0.1810,-3.1694
84.8279,-3.9467,0.0459,-18.4403,5.1775,-0.1928,4.6406,-467.5214,79.9569,-170.8844,1406,1593,1.0000,-0.4566,-0.8710,9.6069,5.5233,0.1406,-1.2602,-0.5494,-0.7656,9.4997,4.8317,-1.7350,-1.4518
84.8463,-3.7326,0.1157,-18.4605,5.8531,0.0000,0.0000,-429.5249,75.7135,-158.1237,1413,1586,1.0000,-0.4949,-0.1718,9.6931,5.5310,-1.9510,-1.2067,-0.9301,-0.4424,10.0935,6.1752,-2.0098,-1.3068
84.8648,-3.4604,0.1378,-18.4791,10.2233,0.0000,0.0000,-398.1960,70.3033,-146.6465,1419,1580,1.0000,-0.1645,-0.2413,9.7003,9.7676,-0.8747,-0.9548,-0.1424,-0.5334,9.3441,10.6790,0.0512,-1.1694
84.8833,-3.1983,0.2189,-18.4985,11.0058,0.0000,0.0000,-368.0337,65.0932,-135.5960,1425,1574,1.0000,-0.2650,-0.3155,9.6979,11.0500,0.6292,-0.8250,-0.4728,-0.2987,9.3177,10.9615,2.6772,-1.1847
84.9017,-2.9834,0.1879,-18.5191,10.1050,0.0000,0.0000,-343.3034,60.8249,-126.5114,1430,1569,0.9998,0.0989,-0.4161,9.8224,10.3554,-0.8289,-1.0235,-0.4489,-0.4544,10.1988,9.8546,0.6772,-1.2763
84.9201,-2.8157,0.2491,-18.5380,9.2157,0.5718,8.0097,-347.0702,57.4986,-122.9172,1432,1567,0.9761,-0.4183,-0.5310,10.0116,8.8439,-1.4395,-0.9777,-0.2430,-0.3802,9.5859,9.5874,-0.4373,-1.2152
84.9386,-2.6566,0.2209,-18.5574,9.9638,2.7427,29.6756,-391.1670,54.3444,-125.9951,1430,1569,0.9217,0.0797,-0.6028,9.8823,9.6149,0.0643,-1.0082,-0.1759,-0.4017,9.8301,10.3126,-0.3381,-1.1083
84.9571,-2.4441,0.1964,-18.5769,7.7691,4.1107,20.0413,-338.9641,50.1183,-97.3172,1446,1553,0.8112,0.0151,-0.1407,9.4130,8.5615,-0.9586,-1.0464,-0.3914,-0.0857,10.0216,6.9768,-0.4755,-1.1694
84.9756,-2.3041,0.1728,-18.5991,5.1775,4.1277,0.2536,-265.8582,47.3402,-70.7387,1461,1538,0.7210,0.0390,-0.2078,9.5974,5.3401,-0.4166,-1.2831,0.0731,-0.3251,9.9737,5.0149,-0.2999,-1.1541
84.9941,-2.1173,0.2095,-18.6218,4.4523,3.8237,-4.2666,-231.3555,43.6273,-50.8827,1472,1527,0.5876,-0.2028,0.0891,10.0906,5.2943,-0.0808,-1.0998,0.0563,-0.0450,10.1270,3.6103,0.4024,-1.4289
85.0125,-1.9597,0.1974,-18.6371,1.1966,2.1516,-15.1151,-181.9655,40.4929,-33.4451,1481,1518,0.4698,-0.0280,0.2591,9.6022,2.3706,-0.2258,-0.7869,-0.0706,0.0245,10.1054,0.0226,-0.9564,-0.9938
85.0309,-1.8755,0.1907,-18.6497,-2.2194,0.2205,-3.4608,-205.8449,38.8284,-31.3672,1482,1517,0.4071,-0.0041,0.2424,9.7530,-1.5530,-0.0731,-0.7182,0.1090,0.0388,10.0575,-2.8858,0.1657,-0.6885
85.0494,-1.8355,0.1829,-18.6588,-3.5133,0.0000,-0.0000,-211.2076,38.0465,-29.5230,1483,1516,0.3777,0.0797,0.1633,9.6764,-3.3774,0.7284,-0.3899,-0.0059,0.0987,9.8900,-3.6492,1.1047,-0.5969
85.0678,-1.8629,0.1807,-18.6591,-5.5706,0.0000,-0.0000,-214.3631,38.6136,-31.5581,1482,1517,0.3978,0.0797,0.0293,9.7482,-4.7820,1.0872,-0.1991,-0.0011,-0.0378,9.9498,-6.3591,1.2573,0.2581
85.0864,-2.0114,0.1597,-18.6593,-7.6049,0.0000,-0.0000,-231.4564,41.6046,-43.5396,1476,1523,0.5086,0.0582,-0.3562,9.7650,-7.4309,0.7971,-0.1380,0.0635,-0.1479,9.5188,-7.7790,-1.1702,0.1436
85.1050,-2.1328,0.1532,-18.6554,-7.2652,0.0000,-0.0000,-245.4261,44.0539,-54.3610,1470,1529,0.5990,0.0725,-0.2892,10.2486,-7.4309,0.5147,0.2284,0.1090,-0.4903,9.6266,-7.0996,1.1047,0.2352
85.1234,-2.2893,0.1701,-18.6555,-5.7729,0.0000,-0.0000,-263.4298,47.2059,-69.2173,1461,1538,0.7109,-0.0136,-0.5813,9.6309,-5.9576,1.5376,0.1139,0.0132,-0.8207,9.4446,-5.5881,0.5016,-0.0396
85.1418,-2.4519,0.1699,-18.6559,-5.6545,0.0000,-0.0000,-282.1356,50.4815,-85.0405,1453,1546,0.8158,-0.0328,-0.6650,9.8559,-5.5377,-0.2105,0.0528,0.0372,-0.8398,9.7128,-5.7713,0.1734,-0.1007
85.1603,-2.6361,0.1619,-18.6616,-3.5477,0.0000,-0.0000,-303.3355,54.1925,-102.2522,1443,1556,0.9127,0.0989,-0.9763,9.9421,-4.4156,0.8658,-0.2373,0.0348,-1.0769,9.5236,-2.6797,1.2497,-0.2610
85.1787,-2.7998,0.1907,-18.6719,0.2233,0.0000,0.0000,-322.1750,57.4948,-115.6190,1436,1563,0.9719,-0.1118,-1.2349,9.8559,-0.6141,0.9803,-0.4281,-0.1161,-1.3211,9.5165,1.0607,0.1886,-0.6045
85.1971,-2.8889,0.1862,-18.6857,2.9371,0.0000,0.0000,-332.4280,59.3056,-121.6384,1433,1566,0.9911,-0.0520,-1.1583,9.8799,2.6302,-0.4701,-0.7029,-0.0778,-1.0386,9.5212,3.2439,-0.3915,-0.7953
85.2156,-2.9247,0.1577,-18.7244,5.9523,0.0000,0.0000,-336.5437,60.0502,-123.7416,1431,1568,0.9958,0.0797,-1.1630,9.7937,4.8821,-0.1113,-1.1304,0.2095,-1.1535,9.3704,7.0226,-0.0938,-3.2457
85.2341,-2.8808,0.1177,-18.7519,10.0974,0.0000,0.0000,-331.4941,59.2014,-121.1659,1433,1566,0.9898,0.1516,-1.1846,9.9421,9.6455,-0.0273,-1.3365,0.1856,-0.8901,9.4877,10.5493,-0.0404,-1.6274
85.2525,-2.7201,0.1027,-18.7880,11.7233,0.0000,0.0000,-312.9998,56.0143,-109.4843,1439,1560,0.9467,0.0462,-0.7345,9.6237,11.5386,0.1330,-1.6571,-0.0107,-0.7920,9.7966,11.9081,-0.0556,-2.3068
85.2710,-2.4860,0.0721,-18.8290,13.7233,2.1377,42.3448,-408.0134,51.3570,-116.9438,1435,1564,0.8358,0.1156,-0.5525,9.8081,13.1264,-0.0960,-2.0006,-0.0586,-0.5789,9.7056,14.3203,0.0283,-2.4824
85.2895,-2.2167,0.0658,-18.8716,15.7920,6.1588,92.1956,-520.5981,45.9938,-168.7644,1407,1592,1.0000,0.0247,-0.5358,9.9804,15.5081,0.3009,-2.1991,0.2048,-0.4616,9.8085,16.0760,0.1123,-2.4442
85.3079,-1.9194,0.0377,-18.9151,15.2539,7.5231,74.1138,-434.3169,40.0679,-141.6427,1422,1577,1.0000,0.1132,-0.3035,9.7482,15.2943,-0.0197,-2.3212,-0.0107,-0.1862,9.7870,15.2134,-0.0098,-2.4213
85.3263,-1.6343,-0.0047,-18.9639,14.8187,8.6174,59.2936,-358.8215,34.3812,-117.6606,1435,1564,1.0000,0.2090,-0.2676,9.5686,14.5539,0.3238,-2.6037,-0.0778,-0.1766,9.7032,15.0836,0.2497,-2.6808
85.3448,-1.3325,-0.0129,-19.0121,14.2462,9.4617,45.7353,-285.0491,28.3591,-93.9933,1448,1551,1.0000,0.0630,-0.1024,9.7578,14.3859,0.3238,-2.4128,0.0922,-0.0019,9.9570,14.1065,0.3795,-2.8411
85.3632,-1.0714,-0.0359,-19.0601,12.5248,9.9212,24.9904,-162.7174,23.1482,-57.1350,1468,1531,1.0000,0.1204,-0.0880,9.6860,12.6378,0.2704,-2.5121,0.1473,0.0987,9.8301,12.4119,0.1276,-2.7190
85.3817,-0.7577,-0.0463,-19.1068,11.0248,10.0868,8.9510,-94.1348,16.8803,-34.7979,1480,1519,1.0000,0.0582,0.3285,9.8895,11.5310,-0.0731,-2.4510,0.1018,0.1418,9.8804,10.5187,0.2650,-2.6121
85.4001,-0.5138,-0.0859,-19.1513,9.8149,10.0460,-2.2085,-43.9717,10.2818,-17.4530,1490,1509,1.0000,0.2306,0.1610,9.9206,9.9279,0.2627,-2.3747,-0.0466,0.1969,9.7631,9.7019,0.5245,-2.4366
85.4185,-0.2953,-0.0924,-19.1888,8.1088,9.7554,-15.7932,9.5876,5.9088,-0.2699,1499,1500,1.0000,0.0223,0.2304,9.8152,8.6226,-0.1571,-1.9853,0.1401,0.3070,10.0264,7.5951,-0.3152,-2.1007
85.4369,-0.1200,-0.1026,-19.2227,5.1470,9.0641,-37.5639,78.6422,2.4021,20.8188,1511,1488,1.0000,0.0390,0.3190,9.7051,5.7523,-0.0960,-1.7945,0.2933,0.2328,9.9857,4.5416,-0.3457,-1.8793
85.4554,-0.0135,-0.1270,-19.2515,2.4218,8.0678,-53.9672,128.2292,0.2696,35.7694,1519,1480,1.0000,0.1252,0.2639,9.8152,2.8210,0.1024,-1.4663,0.2143,0.2735,9.9259,2.0226,-0.2160,-1.6579
85.4738,0.0374,-0.1556,-19.2615,0.4905,6.9312,-61.6024,151.4301,-0.7480,42.7744,1523,1476,1.0000,0.1180,0.1897,9.7338,0.7142,-0.2563,-1.4739,0.1856,0.1442,9.5979,0.2668,-0.5671,0.5329
85.4923,0.0323,-0.1884,-19.2858,-1.0591,5.6042,-63.5652,155.6563,-0.6468,41.8158,1522,1477,0.9524,0.2090,0.0676,9.7865,-0.8507,0.1330,-1.2754,0.2455,0.2854,9.7870,-1.2675,0.6314,-1.3602
85.5107,0.0103,-0.1809,-19.3028,-2.7881,2.1260,-33.0492,80.3079,-0.2066,0.0000,1500,1500,0.0000,0.0342,0.1370,9.7123,-2.3698,0.6750,-1.0846,0.1664,0.2040,9.9905,-3.2065,0.2268,-0.7266
85.5291,-0.0387,-0.1594,-19.3171,-4.4484,0.0144,-0.3336,-2.9065,0.7736,-0.0000,1500,1500,0.0000,-0.0711,0.1538,9.7578,-4.0721,-0.0579,-0.8021,0.1114,0.0580,9.9235,-4.8248,0.0894,-0.7266
85.5475,-0.1097,-0.1823,-19.3306,-4.7156,0.0000,-0.0000,-10.5193,2.1951,-0.0000,1500,1500,0.0000,0.1396,0.0652,9.7003,-4.6523,0.0337,-0.7105,0.1114,0.0460,9.9426,-4.7790,0.1276,-0.7648
85.5659,-0.1832,-0.1797,-19.3385,-5.2423,0.0000,-0.0000,-17.5716,3.6667,-0.0000,1500,1500,0.0000,0.0151,0.0867,9.8272,-4.9500,0.0108,-0.5731,0.1018,0.0388,9.9307,-5.5347,-0.0633,-0.2534
85.5843,-0.2661,-0.2272,-19.3422,-6.0858,0.0000,-0.0000,-25.5168,5.3247,-0.0000,1500,1500,0.0000,0.2569,0.1059,9.8799,-5.8278,-0.1953,-0.3212,0.0252,0.0125,9.7631,-6.3439,0.2039,-0.0549
85.6027,-0.3710,-0.2280,-19.3435,-6.9523,0.0000,-0.0000,-35.5768,7.4240,-0.0000,1500,1500,0.0000,0.0318,0.0604,9.7147,-6.5683,-0.1418,-0.1609,0.0348,-0.0282,9.9737,-7.3362,-0.1015,0.0367
85.6212,-0.5424,-0.2184,-19.3418,-7.1393,0.0000,-0.0000,-52.0134,10.8539,-0.0000,1500,1500,0.0000,-0.0232,-0.2532,9.9230,-7.1255,-0.1266,-0.0082,-0.0323,-0.1599,9.8780,-7.1530,-0.2999,0.1894
85.6397,-0.6943,-0.2186,-19.3377,-7.1584,0.0000,-0.0000,-66.5729,13.8921,-0.0000,1500,1500,0.0000,-0.0065,-0.1838,9.8751,-7.0874,-0.5388,0.1292,0.0898,-0.2293,9.7607,-7.2294,-0.4602,0.3039
85.6581,-0.8643,-0.2269,-19.3324,-6.1584,-0.1210,-0.9751,-96.6495,17.2953,-0.0000,1500,1500,0.0000,0.0438,-0.3825,9.8990,-6.5683,-0.4701,0.2971,0.0300,-0.3586,9.8205,-5.7484,-0.2923,0.2276
85.6766,-1.0165,-0.2333,-19.3297,-4.1164,-0.2181,-0.3954,-115.8255,20.3395,-0.0086,1499,1500,0.0002,0.0247,-0.5070,9.9589,-4.4919,-0.4548,0.0605,0.0491,-0.4185,9.7032,-3.7408,-0.5824,0.1970
85.6950,-1.1325,-0.2286,-19.3292,-2.8034,-0.1340,0.2130,-130.9271,22.6711,-0.6039,1499,1500,0.0126,-0.0424,-0.4759,9.8919,-2.9042,-0.5769,0.0605,0.0036,-0.5549,9.8828,-2.7026,-0.8190,-0.0778
85.7134,-1.2388,-0.2410,-19.3302,-1.3912,-0.0043,0.0224,-142.6067,24.8089,-2.0593,1498,1501,0.0393,0.0271,-0.5693,9.8775,-1.7210,-0.7907,0.0528,-0.0442,-0.6507,9.7104,-1.0614,-0.8801,-0.2457
85.7319,-1.3245,-0.2838,-19.3339,0.8035,0.0000,0.0000,-152.4119,26.5376,-3.9408,1497,1502,0.0704,0.1611,-0.6818,9.9062,0.1035,-0.9968,-0.1533,-0.0730,-0.7058,9.6098,1.5035,-0.9869,-0.3602
85.7505,-1.3578,-0.3094,-19.3418,3.2386,0.0000,0.0000,-156.2425,27.2169,-4.8506,1497,1502,0.0846,0.0558,-0.6698,9.9972,2.8668,-1.2411,-0.3899,-0.0371,-0.6028,9.6984,3.6103,-1.3992,-0.5892
85.7691,-1.3572,-0.3261,-19.3564,5.0287,0.0000,0.0000,-156.1739,27.2186,-4.8340,1497,1502,0.0843,0.0366,-0.6650,9.8847,4.5920,-1.0579,-0.7334,-0.0011,-0.6052,9.7822,5.4653,-1.1091,-0.9556
85.7877,-1.3134,-0.3477,-19.3740,6.8455,0.0000,0.0000,-151.1294,26.3549,-3.6603,1497,1502,0.0660,0.0438,-0.6220,9.9469,6.3477,-1.2258,-0.9014,-0.0131,-0.6938,9.7104,7.3432,-1.3839,-1.1083
85.8063,-1.1991,-0.3618,-19.3951,8.5935,0.0000,0.0000,-137.9759,24.0808,-1.4061,1499,1500,0.0277,0.0079,-0.4376,9.9924,8.3096,-1.3327,-1.1151,0.0779,-0.5238,9.8038,8.8775,-1.3152,-1.2686
85.8248,-1.0292,-0.3944,-19.4204,10.2233,0.0000,0.0000,-118.4240,20.6928,-0.0275,1499,1500,0.0006,0.1061,-0.2963,9.8823,9.1187,-1.1953,-1.3594,-0.0419,-0.1024,9.8397,11.3279,-1.3305,-1.4366
85.8437,-0.8563,-0.4185,-19.4487,9.1317,0.8559,10.7301,-129.4308,17.2433,-0.0000,1500,1500,0.0000,0.0702,-0.1742,9.8105,9.2180,-1.1953,-1.4128,-0.0538,-0.1144,9.8181,9.0455,-1.3305,-1.6656
85.8625,-0.6788,-0.4302,-19.4789,8.6203,2.5701,20.9610,-115.3984,13.5831,-0.0000,1500,1500,0.0000,0.0151,-0.0785,9.7769,8.8668,-1.2716,-1.4815,0.0372,-0.0761,9.8708,8.3737,-1.2389,-1.7801
85.8813,-0.4880,-0.4513,-19.4924,7.7577,3.9566,19.4497,-93.4725,9.7645,-7.4593,1495,1504,0.2402,0.1156,0.0843,9.9182,8.0348,-0.6075,0.2971,-0.0059,0.0508,9.6769,7.4806,-0.7350,-1.9709
85.9001,-0.3003,-0.4622,-19.5239,6.0745,4.3847,6.6012,-44.6403,6.0093,-6.8599,1496,1503,0.4425,0.0725,0.2447,9.7267,6.3172,-0.7067,-1.5884,0.0515,0.2447,9.7870,5.8317,-0.5213,-1.7266
85.9189,-0.1287,-0.4538,-19.5523,4.4676,4.0541,-4.8470,-0.7122,2.5761,-0.4219,1499,1500,0.2836,0.0390,0.3381,9.7123,4.7981,-0.1037,-1.4892,-0.0179,0.4722,9.7726,4.1371,0.0741,-1.4595
85.9375,-0.0080,-0.4365,-19.5772,2.3340,2.8211,-13.5185,31.6737,0.1608,0.0000,1500,1500,0.0000,-0.0017,0.3214,9.5567,2.9279,0.1024,-1.2373,-0.1544,0.2974,9.9259,1.7401,-0.1931,-1.4137
85.9559,0.0122,-0.4095,-19.6039,-0.1011,0.9986,-9.8146,24.7278,-0.2447,0.0000,1500,1500,0.0000,-0.0520,0.0939,9.6309,0.4623,0.0032,-1.3976,-0.1616,0.0604,9.8995,-0.6645,-0.1167,-1.4900
85.9743,-0.0333,-0.3446,-19.6320,-2.5782,0.0000,-0.0000,-3.1884,0.6653,-0.0000,1500,1500,0.0000,-0.2195,0.0053,9.5998,-2.0874,0.0261,-1.4205,-0.2789,0.0125,9.8325,-3.0690,0.1276,-1.6579
85.9927,-0.0737,-0.2787,-19.6632,-3.0439,0.0000,-0.0000,-7.0632,1.4739,-0.0000,1500,1500,0.0000,-0.2363,0.0724,9.7554,-3.6981,0.0719,-1.6113,-0.2166,0.0676,9.8516,-2.3897,0.2039,-1.7877
86.0111,-0.1428,-0.2121,-19.6954,-5.0782,0.0000,-0.0000,-13.6914,2.8571,-0.0000,1500,1500,0.0000,-0.2219,0.0939,9.6117,-4.7744,0.2704,-1.7487,-0.2669,0.1466,9.6864,-5.3820,0.5856,-1.7343
86.0295,-0.2510,-0.1574,-19.7264,-6.5706,0.0000,-0.0000,-24.0718,5.0232,-0.0000,1500,1500,0.0000,-0.1717,0.0293,9.6309,-6.1484,0.4841,-1.6800,-0.1592,0.0221,9.7678,-6.9927,0.5550,-1.6732
86.0479,-0.4139,-0.0930,-19.7594,-7.1774,0.0000,-0.0000,-39.6908,8.2825,-0.0000,1500,1500,0.0000,-0.1956,-0.1886,9.7290,-7.1103,0.8658,-1.8861,-0.2238,-0.1359,9.7511,-7.2446,0.9367,-1.6808
86.0663,-0.5536,-0.0315,-19.7678,-6.9599,0.0000,-0.0000,-53.0864,11.0778,-0.0000,1500,1500,0.0000,-0.1836,-0.1240,9.8009,-6.8813,0.9498,0.3124,-0.2023,-0.1886,9.8085,-7.0385,1.0818,-1.4213
86.0847,-0.6910,0.0219,-19.7933,-6.8874,0.0000,-0.0000,-66.2631,13.8274,-0.0000,1500,1500,0.0000,-0.1693,-0.1431,9.7458,-6.7668,0.8505,-1.4739,-0.1209,-0.1479,9.6074,-7.0080,0.8833,-1.2534
86.1031,-0.8279,0.0366,-19.8183,-6.7652,-0.1429,-1.3787,-91.2922,16.5658,-0.0000,1500,1500,0.0000,-0.0113,-0.1766,9.8871,-6.8507,0.5299,-1.4357,-0.0730,-0.1623,9.8301,-6.6797,0.9673,-1.2381
86.1216,-0.9659,0.0580,-19.8412,-5.8606,-0.5789,-3.1281,-102.1394,19.3282,-0.0000,1500,1500,0.0000,-0.0184,-0.2748,9.8128,-6.1942,1.0032,-1.3136,0.0659,-0.3993,9.6194,-5.5271,1.1276,-1.1083
86.1400,-1.1024,0.0926,-19.8639,-4.7576,-0.8374,-1.7722,-121.7435,22.0582,-0.3424,1499,1500,0.0076,-0.1022,-0.3921,9.8320,-4.8202,0.9650,-1.2144,0.0324,-0.4328,9.6864,-4.6950,0.7306,-1.2228
86.1584,-1.2336,0.1024,-19.8852,-3.0706,-0.6229,1.1134,-145.1609,24.6962,-2.0006,1498,1501,0.0378,0.0055,-0.5286,9.7171,-3.3622,0.7284,-1.0769,0.0467,-0.5765,9.6410,-2.7790,0.9215,-1.2152
86.1768,-1.3542,0.1091,-19.9067,-0.5858,-0.0894,0.7022,-157.8484,27.1207,-4.7928,1497,1502,0.0830,0.0510,-0.7249,9.8895,-1.1408,1.2017,-1.0540,0.0228,-0.5310,9.6601,-0.0309,1.1505,-1.2152
86.1953,-1.3946,0.1138,-19.9266,0.9943,0.0000,0.0000,-160.4751,27.9427,-5.9740,1496,1503,0.1014,0.0606,-0.5022,9.8607,0.5768,1.2475,-1.1533,-0.0083,-0.5358,9.6218,1.4119,1.1047,-0.9098
86.2137,-1.3862,0.1177,-19.9462,2.7195,0.0000,0.0000,-159.5088,27.7886,-5.7070,1496,1503,0.0975,0.0606,-0.4352,9.8727,2.5157,1.1177,-0.9166,0.1018,-0.3442,9.8708,2.9233,1.2497,-1.1847
86.2322,-1.3583,0.1162,-19.9660,2.9371,0.0000,0.0000,-156.2961,27.2438,-4.8648,1497,1502,0.0848,0.0797,-0.3610,9.8751,2.9126,1.1711,-1.0922,0.0803,-0.3802,9.8684,2.9615,1.0283,-0.9785
86.2506,-1.2534,0.1213,-19.9833,2.8951,0.0000,0.0000,-144.2308,25.1593,-2.3357,1498,1501,0.0441,0.0127,0.0101,9.8152,2.7905,0.7818,-0.9319,0.1018,-0.1288,9.8277,2.9997,0.5932,-0.9251
86.2690,-1.1657,0.1077,-19.9982,2.6699,0.0000,0.0000,-134.1408,23.4173,-0.9590,1499,1500,0.0195,0.0989,-0.0378,9.8631,2.7905,0.7360,-0.9014,0.0396,0.0173,9.7535,2.5493,0.5474,-0.6656
86.2875,-1.0517,0.1018,-20.0095,2.1699,0.0000,0.0000,-121.0170,21.1468,-0.0875,1499,1500,0.0020,0.0318,0.1298,9.7626,3.5920,0.2627,-0.6724,0.1042,0.1346,9.9666,0.7477,0.3413,-0.5511
86.3060,-0.9924,0.0913,-20.0160,-0.3110,0.0000,-0.0000,-114.1992,19.9717,-0.0000,1500,1500,0.0000,0.0797,0.1179,9.7578,-0.1790,0.5452,-0.3518,0.2095,0.1585,9.7942,-0.4431,0.6924,-0.3373
86.3245,-0.9479,0.0870,-20.0180,-1.3874,0.0000,-0.0000,-109.0747,18.9676,-0.0000,1500,1500,0.0000,0.0486,0.1514,9.7745,-1.1255,0.5223,-0.2220,0.0372,0.1921,9.8828,-1.6492,0.5092,0.0444
86.3429,-0.9349,0.0858,-20.0172,-3.2461,0.0000,-0.0000,-107.5791,18.7075,-0.0000,1500,1500,0.0000,0.0342,0.1705,9.6692,-2.8813,0.4689,-0.0769,0.0276,0.1633,9.9594,-3.6110,0.5627,0.2047
86.3613,-0.9639,0.0690,-20.0107,-4.9026,0.0000,-0.0000,-110.9199,19.2885,-0.0000,1500,1500,0.0000,0.0821,0.1226,9.8895,-4.5377,0.3849,0.2971,0.1952,0.0915,9.9474,-5.2675,0.0360,0.4184
86.3797,-1.0177,0.0702,-20.0008,-6.4255,0.0000,-0.0000,-117.1048,20.3640,-0.0100,1499,1500,0.0002,-0.0041,0.1322,9.9014,-5.9729,0.1711,0.4956,0.0587,0.1226,9.9426,-6.8782,0.1505,0.5863
86.3981,-1.1093,0.0844,-19.9877,-7.9217,0.0000,-0.0000,-127.6443,22.2069,-0.4043,1499,1500,0.0086,-0.0879,0.0772,9.8392,-7.5530,-0.0808,0.4956,-0.0466,-0.0928,10.0025,-8.2904,-0.1549,0.9680
86.4165,-1.2412,0.0743,-19.9728,-9.0362,-0.6430,-8.5551,-118.1821,24.8571,-1.8261,1498,1501,0.0401,0.0223,-0.0330,9.9062,-8.8660,-0.1953,0.8009,0.0036,0.0005,9.9737,-9.2065,-0.0862,0.8077
86.4349,-1.4044,0.0647,-19.9556,-9.9255,-2.8366,-30.1630,-74.7297,28.1349,-3.7127,1497,1502,0.1061,0.0151,-0.1264,9.8895,-9.5377,-0.2487,0.8238,0.0156,-0.1671,10.0192,-10.3133,-0.1778,1.0596
86.4533,-1.5872,0.0572,-19.9367,-10.7042,-5.3420,-46.5869,-48.4732,31.8085,-25.8444,1485,1514,0.8768,0.0031,-0.1790,9.9349,-10.5454,-0.2563,1.0299,0.0419,-0.1766,9.9785,-10.8629,-0.2694,0.9985
86.4717,-1.8015,0.0693,-19.9165,-10.7652,-6.3801,-42.0501,-86.1938,36.1116,-42.1901,1476,1523,1.0000,-0.0950,-0.3490,9.8272,-10.6752,-0.3556,0.9841,-0.0371,-0.3347,9.9737,-10.8553,-0.3610,1.2123
86.4901,-2.0016,0.0637,-19.8965,-10.5591,-7.0070,-34.0551,-132.2396,40.1326,-57.0934,1468,1531,1.0000,-0.0304,-0.3370,9.9158,-10.5301,-0.5617,1.1063,-0.1879,-0.4352,9.8636,-10.5881,-0.6282,1.0138
86.5085,-2.2442,0.0627,-19.8760,-11.1469,-7.6280,-33.8016,-160.8868,45.0072,-67.5519,1462,1537,1.0000,-0.0903,-0.5334,9.8966,-10.2553,-1.0655,1.1292,-0.0610,-0.5406,9.8947,-12.0385,-0.9259,1.0138
86.5268,-2.4475,0.0364,-19.8569,-9.0668,-7.8438,-11.7519,-247.7935,49.0993,-93.9318,1448,1551,1.0000,0.0558,-0.5645,10.0403,-9.2706,-0.8670,0.9383,-0.0155,-0.7106,9.8133,-8.8629,-0.5595,1.0978
86.5453,-2.6609,0.0555,-19.8396,-9.1011,-8.0324,-10.1949,-276.8315,53.3934,-104.2095,1442,1557,1.0000,-0.1597,-0.6291,9.9828,-10.0263,-0.7983,0.9154,-0.2334,-0.6698,9.9522,-8.1759,-0.7732,0.8840
86.5637,-2.8679,0.0531,-19.8204,-7.6240,-7.9711,3.3284,-339.5941,57.5611,-123.8669,1431,1568,1.0000,-0.1094,-0.7776,9.9733,-7.8889,-1.0884,1.0452,-0.0155,-0.7680,9.8756,-7.3591,-1.5671,0.9146
86.5821,-3.0458,0.0057,-19.8059,-5.4026,-7.5859,20.9571,-410.8390,61.1500,-145.6099,1419,1580,1.0000,0.0773,-0.8781,10.0331,-5.8126,-1.7067,0.6788,0.1042,-0.7225,9.8540,-4.9927,-1.5289,0.7390
86.6006,-3.1667,0.0128,-19.7910,-4.6240,-7.1416,24.0471,-433.6495,63.5994,-153.2216,1415,1584,1.0000,-0.1477,-0.6866,9.8200,-4.7133,-1.2792,0.6406,-0.0490,-0.7034,9.9187,-4.5347,-1.4144,0.8535
86.6190,-3.2519,0.0218,-19.7781,-3.3454,-6.5721,30.9029,-463.2046,65.3370,-162.3658,1410,1589,1.0000,-0.2555,-0.6603,9.9900,-3.8965,-2.4090,0.4421,0.0850,-0.6411,10.0073,-2.7942,-2.3228,0.7237
86.6374,-3.3650,0.1250,-19.7730,-1.8187,-5.8216,38.4776,-498.0371,67.6330,-173.2669,1404,1595,1.0000,-0.5547,-0.9117,9.5279,-1.9881,-1.0731,0.0834,-0.0610,-0.4496,9.8660,-1.6492,-0.6434,0.4184
86.6558,-3.5004,0.0354,-19.7627,-4.1087,-5.3202,13.5461,-441.8079,70.3746,-158.8935,1412,1587,1.0000,0.2066,-0.8901,10.1121,-3.7668,-2.7983,0.5337,0.5471,-0.5741,9.8397,-4.4507,-1.5671,0.3039
86.6743,-3.5161,0.0005,-19.7609,0.2844,-2.8592,29.0380,-488.2332,70.7241,-172.0673,1405,1594,1.0000,0.1156,-0.6794,9.8009,-0.6446,0.3315,0.0376,-0.5422,-1.1894,9.2004,1.2134,-1.7732,0.0902
86.6927,-3.4987,-0.0537,-19.7561,-1.8645,-1.6898,9.1495,-428.9549,70.4116,-155.3131,1414,1585,1.0000,-0.0328,-0.3825,10.0618,0.2256,-4.0121,0.1139,0.0419,-0.1910,10.5244,-3.9545,-2.5442,-0.0091
86.7111,-3.5192,0.0114,-19.7580,-2.7690,-1.1608,3.5327,-415.1396,70.8572,-151.6677,1416,1583,1.0000,-0.2890,-0.4448,9.8751,-3.9576,0.4918,-0.0540,0.0156,-1.0026,9.5811,-1.5805,-0.2160,-0.1312
86.7296,-3.5040,-0.0399,-19.7582,-1.9599,-0.5771,2.6270,-410.7741,70.5868,-150.3101,1417,1582,1.0000,0.0845,-0.3658,9.7530,-0.9423,-1.7678,-0.1685,-0.1759,-0.2413,9.8181,-2.9774,-1.8724,-0.0778
86.7481,-3.5833,-0.0664,-19.7544,-4.8148,-0.8515,-1.8936,-406.8884,72.2100,-150.0338,1417,1582,1.0000,0.0151,-0.5669,9.8942,-4.7515,-1.3327,0.1292,0.1377,-0.2461,9.6003,-4.8782,-1.2999,0.1207
86.7665,-3.6105,-0.0151,-19.7539,-5.9103,-1.4920,-5.7988,-398.7656,72.7891,-148.0489,1418,1581,1.0000,-0.2411,-0.2173,9.3532,-5.4156,-0.4319,-0.2525,-0.4082,-0.5477,9.6314,-6.4049,-0.2389,0.2810
86.7849,-3.7133,0.0317,-19.7524,-6.9141,-2.5637,-12.2517,-392.0102,74.8820,-147.2039,1419,1580,1.0000,-0.3297,-0.5166,10.0020,-6.6981,-1.5846,0.0299,0.0276,-0.3849,9.7271,-7.1301,-0.7732,-0.0091
86.8033,-3.7944,-0.0492,-19.7507,-7.7614,-3.9527,-19.9550,-379.1658,76.5434,-144.4381,1420,1579,1.0000,0.3407,-0.3418,9.7123,-7.1561,-0.2792,0.0528,0.1688,-0.5597,9.7224,-8.3668,-0.4526,0.0749
86.8217,-3.8121,-0.0996,-19.7476,-8.4523,-5.3043,-26.0639,-363.6065,76.9350,-140.2773,1422,1577,1.0000,0.1324,-0.0042,9.7769,-8.3393,-1.2182,-0.0311,0.0252,-0.1934,9.7846,-8.5652,-1.4221,0.2047
86.8401,-3.8195,-0.0846,-19.7450,-6.2996,-5.5325,-5.6137,-423.3478,77.1200,-157.0974,1413,1586,1.0000,-0.0615,-0.1455,9.5088,-6.6370,-0.3861,0.0910,-0.0419,0.0173,9.4829,-5.9622,0.1352,0.1970
86.8586,-3.8522,-0.0721,-19.7556,-8.4255,-6.1055,-22.1807,-379.3995,77.8128,-145.1383,1420,1579,1.0000,-0.0783,-0.0809,9.4465,-7.3545,-0.4243,0.1444,0.0276,-0.1647,10.1605,-9.4965,-0.3381,-1.3450
86.8770,-3.9646,-0.1124,-19.7651,-9.9065,-6.6756,-30.9890,-366.9691,80.1009,-142.8018,1421,1578,1.0000,0.2832,-0.3251,9.6117,-10.1408,0.7513,0.4192,0.1305,-0.4376,9.4303,-9.6721,1.3413,-1.3450
86.8954,-4.1733,-0.1093,-19.7519,-10.5744,-7.2604,-31.8569,-388.4850,84.3163,-150.9340,1416,1583,1.0000,0.0510,-0.7369,9.6022,-9.9881,0.6368,0.6788,-0.0035,-0.5525,9.8660,-11.1606,0.3184,0.8230
86.9138,-4.3035,-0.0753,-19.7425,-10.2729,-7.7123,-24.4877,-424.6970,86.9642,-162.3973,1410,1589,1.0000,-0.0304,-0.4376,9.8488,-10.3087,0.6902,0.5337,-0.1903,-0.5932,9.4446,-10.2370,1.7153,0.6779
86.9322,-4.4997,-0.0013,-19.7274,-10.7423,-8.1668,-24.7000,-446.6609,90.9325,-170.5313,1406,1593,1.0000,-0.1980,-0.7081,9.4801,-10.2706,1.5681,0.9231,-0.2334,-0.6698,9.5979,-11.2141,1.2421,0.9451
86.9507,-4.6807,0.0405,-19.7156,-8.7729,-8.2577,-4.9278,-524.4352,94.5993,-194.1415,1393,1606,1.0000,-0.0520,-0.8422,9.6309,-9.6523,1.4536,0.6711,0.0228,-0.9236,9.3249,-7.8935,1.7688,0.8611
86.9691,-4.8311,0.0582,-19.7030,-6.5858,-8.0069,13.5855,-595.0587,97.6550,-215.4439,1381,1618,1.0000,0.1013,-0.9284,9.7267,-6.5225,1.9956,0.9536,0.1760,-1.0170,9.7750,-6.6492,2.3795,0.7695
86.9875,-4.9860,0.1001,-19.6900,-5.4103,-7.6174,21.1549,-634.6912,100.8038,-228.1154,1374,1625,1.0000,-0.0759,-1.0721,9.6836,-5.9500,1.7208,0.9460,0.0467,-1.1391,9.5572,-4.8706,1.1810,0.7237
87.0060,-5.0663,0.1162,-19.6829,-2.2729,-6.8158,43.4237,-708.0700,102.4610,-249.4901,1362,1637,1.0000,0.1156,-1.0290,9.8105,-3.1408,1.8811,0.6177,-0.0059,-1.1511,9.3944,-1.4049,2.8527,0.5711
87.0244,-5.1091,0.1484,-19.6811,1.7195,-5.1784,65.1526,-775.5762,103.3683,-268.8455,1352,1647,1.0000,0.0031,-1.2205,9.8152,0.7065,2.4078,0.3429,-0.2310,-1.0601,9.5236,2.7325,1.4482,0.2123
87.0429,-5.0332,0.1498,-19.6843,5.3989,-0.8337,18.9451,-633.7616,101.9003,-228.4034,1374,1625,1.0000,0.0845,-1.0146,10.0786,4.4088,1.0108,-0.0082,0.0156,-0.8686,9.3153,6.3890,1.6619,-0.1083
87.0613,-4.9282,0.1723,-19.6903,8.9600,0.0000,0.0000,-567.1152,99.8495,-208.7170,1385,1614,1.0000,0.0199,-1.1798,10.0571,8.3783,2.0719,-0.2220,0.0731,-0.8542,9.5619,9.5416,1.4634,-0.0931
87.0797,-4.7137,0.1487,-19.6981,11.6279,0.0000,0.0000,-542.4312,95.6070,-199.6843,1390,1609,1.0000,0.2210,-0.8590,10.0331,10.7371,1.5147,-0.2678,0.0228,-0.8710,9.4255,12.5187,1.6085,-0.3221
87.0981,-4.4951,0.1142,-19.7121,14.3073,0.0000,0.0000,-517.2645,91.2784,-190.4733,1395,1604,1.0000,0.2808,-1.0194,9.7099,13.6684,1.8734,-0.3518,0.0180,-0.3275,9.6505,14.9462,1.5474,-0.8946
87.1165,-4.2617,0.0714,-19.7234,11.7806,0.4309,9.2316,-516.9906,86.6529,-188.0838,1396,1603,1.0000,0.2737,-0.7010,9.8057,12.0653,1.1330,-0.4739,-0.0802,-0.3251,9.9618,11.4958,0.9673,-0.5969
87.1349,-3.9511,0.0723,-19.7349,11.4676,3.1608,41.9272,-575.4200,80.4823,-201.3587,1389,1610,1.0000,0.0869,-0.2652,9.9828,11.5462,1.3696,-0.3823,0.2095,-0.4424,9.8804,11.3890,1.1428,-0.7266
87.1533,-3.6594,0.0900,-19.7429,10.3149,5.4196,43.1537,-545.3841,74.6849,-190.0500,1395,1604,1.0000,0.0271,-0.2006,10.0164,10.8745,1.5070,-0.2754,0.1497,-0.3993,10.1773,9.7554,1.4329,-0.4289
87.1717,-3.4015,0.0967,-19.7478,7.5516,5.9182,15.5204,-436.1162,69.5601,-156.8926,1413,1586,1.0000,0.0725,-0.0737,9.6740,8.1187,1.5452,-0.0540,0.0036,-0.1168,9.9307,6.9844,1.2421,-0.3373
87.1901,-3.1694,0.0790,-19.7493,5.9943,5.9307,0.5375,-366.2605,64.9505,-135.0282,1425,1574,1.0000,0.1300,-0.0114,9.9421,6.2256,0.7589,0.0452,-0.0706,-0.3203,9.9761,5.7630,0.6161,-0.1541
87.2085,-2.9932,0.0777,-19.7517,4.8722,5.6882,-8.5519,-319.7985,61.4550,-120.2669,1433,1566,1.0000,0.0486,-0.1383,9.8799,5.4470,0.7513,0.0528,0.0491,-0.3227,10.0097,4.2974,0.5627,-0.2686
87.2269,-2.8355,0.0903,-19.7533,4.8340,5.4085,-7.3924,-304.9986,58.3308,-112.3685,1438,1561,0.9808,0.0247,-0.1886,9.7626,4.2027,0.7284,0.1597,0.1066,-0.2557,9.9857,5.4653,1.6008,-0.2457
87.2453,-2.7117,0.1369,-19.7521,2.7729,4.3080,-19.2907,-256.4834,55.8816,-94.1362,1448,1551,0.9437,-0.0687,-0.1455,10.0547,3.4317,1.3391,0.3124,-0.0251,-0.5454,10.0719,2.1142,2.5703,-0.0244
87.2638,-2.6428,0.1627,-19.7466,1.0554,2.4852,-18.2680,-251.4951,54.5291,-89.4478,1450,1549,0.9157,-0.0903,-0.2341,9.9421,1.1493,0.3773,0.3963,0.0635,-0.4759,9.9905,0.9615,0.9444,0.2428
87.2824,-2.6740,0.1724,-19.7625,1.2691,1.2209,-7.9829,-284.7090,55.1803,-99.6851,1445,1554,0.9290,-0.0256,-0.7273,10.0810,1.3019,0.6292,-1.5655,0.0012,-0.6148,9.7990,1.2363,0.5703,-0.0167
87.3016,-2.7023,0.1573,-19.7608,0.5019,0.3134,-2.4746,-303.8294,55.7733,-106.1959,1441,1558,0.9401,0.0486,-0.6387,9.9996,0.7218,0.1864,0.2895,-0.0921,-0.7536,10.1892,0.2821,-0.0327,-0.1083
87.3201,-2.7515,0.1562,-19.7629,0.2844,0.0036,-0.0308,-316.5333,56.7856,-112.0528,1438,1561,0.9575,0.0055,-0.7201,9.9134,0.0958,0.2551,0.1368,-0.0730,-0.8422,9.6721,0.4729,0.3566,-0.3373
87.3386,-2.8382,0.1585,-19.7691,1.3302,0.0000,-0.0000,-326.5995,58.5480,-118.4806,1434,1565,0.9814,0.0079,-0.9978,9.8823,0.9737,0.4918,-0.1227,-0.1017,-0.9236,9.6984,1.6867,0.5398,-0.4824
87.3570,-2.8820,0.1842,-19.7793,2.5134,0.0000,-0.0000,-331.6294,59.4510,-121.3510,1433,1566,0.9900,-0.1238,-0.9069,9.8296,2.2332,0.3849,-0.3976,-0.0490,-0.9332,9.8397,2.7935,0.2497,-0.6656
87.3754,-2.9289,0.1674,-19.7959,3.5439,0.0000,0.0000,-337.0278,60.4186,-124.1155,1431,1568,0.9963,0.0366,-1.0290,9.9278,3.3248,-0.1342,-0.7182,-0.0945,-1.0721,9.6362,3.7630,-0.0862,-1.0702
87.3938,-2.9327,0.1417,-19.8206,5.2806,0.0569,0.3443,-338.4631,60.5250,-124.6172,1431,1568,0.9967,0.0654,-0.9811,9.8895,4.9050,-0.0655,-1.1838,-0.0873,-0.9548,9.7080,5.6561,-0.5060,-1.5205
87.4122,-2.8697,0.1347,-19.8498,6.6623,0.5858,4.3637,-342.7877,59.2934,-124.0972,1431,1568,0.9878,-0.0304,-0.7800,9.8033,6.3325,-0.4319,-1.3518,0.0324,-0.7153,9.8062,6.9920,-0.2770,-1.8640
87.4306,-2.7965,0.1182,-19.8842,7.7233,1.8393,13.7235,-361.3184,57.8571,-126.3307,1430,1569,0.9710,0.0151,-0.8159,9.8296,7.6302,-0.2563,-1.7182,-0.2238,-0.7369,9.8708,7.8165,-0.5976,-2.0778
87.4490,-2.6993,0.1108,-19.9196,7.7653,3.2845,18.8058,-364.7727,55.9405,-122.1683,1432,1567,0.9390,-0.0687,-0.7058,9.8703,7.7294,-0.8060,-1.7258,-0.0826,-0.2796,9.8804,7.8012,-0.9411,-2.2152
87.4675,-2.5581,0.0768,-19.9568,7.7539,4.5499,20.2296,-352.6186,53.1410,-109.6526,1439,1560,0.8751,0.0151,-0.4783,9.9349,7.6607,-1.2716,-2.0769,-0.1711,-0.3754,9.9450,7.8470,-1.5442,-2.0931
87.4859,-2.4239,0.0313,-19.9938,7.6012,5.4143,18.0522,-330.9083,50.4819,-106.1697,1441,1558,0.9005,0.0606,-0.4663,9.8200,7.3706,-1.4701,-2.0769,-0.0107,-0.3825,9.8349,7.8317,-1.6205,-2.0778
87.5043,-2.2642,-0.0061,-20.0380,8.8722,6.1242,26.3159,-336.3295,47.3103,-117.8274,1435,1564,1.0000,0.2425,-0.4328,9.8200,8.8745,0.1635,-2.1991,0.2455,-0.4448,9.6697,8.8699,1.8375,-2.5434
87.5227,-2.0979,0.0282,-20.0765,8.5859,6.4935,20.0518,-299.1490,44.0047,-105.7641,1441,1558,1.0000,-0.1645,-0.3466,9.8152,8.3554,0.8124,-2.0235,-0.2861,-0.4472,9.7271,8.8165,-0.9411,-2.1770
87.5411,-1.9581,-0.0061,-20.1148,7.2424,6.6058,6.1066,-242.9086,41.2298,-88.6293,1451,1548,1.0000,-0.0113,-0.3323,9.8033,7.6302,-2.1800,-2.0769,0.0946,-0.2341,9.9737,6.8546,-1.4755,-2.2305
87.5595,-1.8580,-0.0410,-20.1602,7.4218,6.7282,6.6614,-232.9796,39.2450,-84.8568,1453,1546,1.0000,0.1683,-0.5094,9.9086,6.6378,-0.0426,-2.2678,0.1952,-0.3538,9.6745,8.2058,0.2955,-2.6885
87.5779,-1.7315,-0.0453,-20.2036,9.2004,7.0990,20.1429,-257.2503,36.7324,-90.3963,1450,1549,1.0000,-0.0160,-0.5310,9.9996,9.2409,-0.4166,-2.3441,-0.0778,-0.3921,9.9187,9.1600,-0.4679,-2.4137
87.5964,-1.5853,-0.0677,-20.2507,7.4790,7.1560,3.0889,-191.3112,33.8242,-70.4792,1461,1538,1.0000,0.0965,-0.2556,9.7075,7.5997,-0.2411,-2.5044,0.1377,-0.2940,9.8205,7.3584,0.0818,-2.6045
87.6148,-1.4687,-0.0687,-20.2934,7.3607,7.1867,1.6676,-173.8033,31.5073,-64.4186,1464,1535,1.0000,-0.0184,-0.3610,9.8679,7.0348,-0.2563,-2.2678,0.1760,-0.3514,9.6266,7.6867,-0.3457,-2.3984
87.6332,-1.3329,-0.0949,-20.3364,9.4218,7.5220,18.2135,-205.8337,28.8055,-72.0362,1460,1539,1.0000,0.0582,-0.4376,10.0738,9.0653,-0.7449,-2.1609,0.1449,-0.4185,9.7008,9.7783,-0.9030,-2.5816
87.6516,-1.1840,-0.1150,-20.3806,9.6699,7.8442,17.4914,-155.5110,25.8382,-56.4622,1468,1531,1.0000,0.0486,-0.3634,9.7674,9.6607,-0.4472,-2.2525,0.0970,-0.3275,9.8995,9.6790,-0.8648,-2.5892
87.6700,-1.0165,-0.1422,-20.4219,9.6317,8.1123,14.5640,-132.4286,22.4994,-48.3297,1473,1526,1.0000,0.0702,-0.2437,9.6692,9.7829,-1.1342,-2.1609,0.0683,-0.3610,9.8445,9.4806,-0.5213,-2.3755
87.6884,-0.8742,-0.1604,-20.4644,9.9142,8.3826,14.6692,-119.0294,19.6608,-43.1586,1476,1523,1.0000,0.1109,-0.3586,9.7243,9.6455,0.1024,-2.1838,0.1449,-0.3275,9.6026,10.1829,0.0512,-2.4442
87.7069,-0.7054,-0.1720,-20.5037,10.6699,8.7257,18.6276,-112.3473,14.1150,-38.5147,1478,1521,1.0000,0.0725,-0.2772,9.7314,10.6149,-0.0273,-2.2067,0.1090,-0.2628,9.7463,10.7248,-0.1015,-2.0778
87.7253,-0.5182,-0.2113,-20.5426,10.2844,8.9595,12.7040,-80.1830,10.3697,-27.6361,1484,1515,1.0000,0.1923,-0.1287,9.6907,10.3859,-0.4014,-2.0082,0.1904,-0.1766,9.7008,10.1829,0.0360,-2.2305
87.7437,-0.3375,-0.2219,-20.5790,10.4752,9.1869,12.3192,-61.9329,6.7541,-20.7183,1488,1511,1.0000,0.1085,-0.1479,9.7745,10.1569,0.2551,-2.0311,0.0731,-0.0905,9.6338,10.7935,0.3031,-1.9098
87.7622,-0.1366,-0.2089,-20.6112,10.3493,9.3612,9.4324,-35.7356,2.7332,-11.3726,1493,1506,1.0000,0.0558,-0.0162,9.7051,10.6073,0.9727,-1.6800,0.1233,0.0963,9.7990,10.0913,0.8985,-1.8030
87.7806,0.0544,-0.1920,-20.6238,8.8035,9.2776,-4.5484,16.1314,-1.0883,5.0609,1502,1497,1.0000,0.1085,0.1059,9.5567,8.9813,0.9956,0.3353,0.1377,0.2304,9.7822,8.6256,2.6848,-1.7648
87.7990,0.2551,-0.2032,-20.6479,7.9103,9.0725,-11.1646,51.2590,-5.1050,16.9050,1509,1490,1.0000,0.1539,0.2687,9.7458,8.1111,0.7589,-1.3441,0.1952,0.0915,9.8947,7.7096,0.8756,-1.2610
87.8173,0.4213,-0.1893,-20.6676,6.9065,8.7476,-17.6820,99.4002,-8.4298,32.0470,1517,1482,1.0000,0.0678,0.2232,9.7769,7.0119,1.2322,-1.0464,-0.0490,0.3261,9.7176,6.8012,0.9749,-1.1007
87.8358,0.5690,-0.1826,-20.6845,6.0248,8.3392,-22.1644,129.3058,-11.3854,41.8983,1523,1476,1.0000,0.0510,0.2400,9.7147,6.2027,0.6750,-0.9701,-0.0011,0.2232,9.8038,5.8470,0.4482,-0.8640
87.8543,0.6875,-0.1850,-20.6937,4.7653,7.8031,-28.8611,162.2249,-13.7560,52.3010,1528,1471,1.0000,0.0342,0.2328,9.6931,4.8745,0.0643,-0.6189,0.0563,0.2136,9.8684,4.6561,-0.2465,-0.3526
87.8729,0.7981,-0.1846,-20.6990,4.2806,7.2747,-28.4300,173.7095,-15.9690,56.6232,1531,1468,1.0000,0.0606,0.2591,9.7506,4.3019,0.1635,-0.3670,0.1928,0.2591,9.8900,4.2592,0.6314,-0.1999
87.8914,0.8873,-0.1936,-20.7028,3.2348,6.6687,-32.8365,196.6723,-17.7553,63.9459,1535,1464,1.0000,0.1109,0.2711,9.7721,3.4928,0.4765,-0.2983,0.1066,0.3237,10.0504,2.9768,0.3947,-0.1083
87.9098,0.9517,-0.2165,-20.6997,2.2500,6.0059,-35.9786,213.1272,-19.0431,69.1971,1538,1461,1.0000,0.1851,0.2567,9.7626,2.3554,0.5147,0.1063,0.1353,0.2687,9.8373,2.1447,0.5474,0.2276
87.9283,0.9858,-0.2030,-20.6934,1.4638,4.6365,-32.1008,205.8875,-19.7262,38.3501,1521,1478,0.5681,0.0271,0.1921,9.6788,1.8516,0.5834,0.4574,0.0539,0.1945,9.9618,1.0760,0.6848,0.1970
87.9467,1.0074,-0.1683,-20.6654,-0.0095,2.3176,-22.2389,179.9681,-20.1580,0.0025,1500,1499,0.0000,-0.0400,0.2663,9.6117,0.3401,1.0032,0.6253,0.0372,0.1202,9.9953,-0.3591,1.0894,2.4871
87.9651,0.9747,-0.1541,-20.6531,-1.4294,0.4149,-5.5558,128.1549,-19.5132,0.0000,1500,1500,0.0000,0.0271,0.1418,9.7314,-1.0874,0.9040,0.8085,0.0635,0.0436,9.9426,-1.7713,0.6237,0.4871
87.9835,0.9087,-0.1460,-20.6394,-1.2919,0.0000,-0.0000,104.5670,-18.1837,0.0000,1500,1500,0.0000,0.0582,-0.0234,9.8799,-1.4080,0.6521,0.7475,0.1233,-0.2485,9.7990,-1.1759,1.0436,0.6932
88.0020,0.8281,-0.1939,-20.6279,-0.8187,0.0000,-0.0000,95.2863,-16.5699,0.0000,1500,1500,0.0000,0.2521,-0.1527,9.8488,-0.9729,1.0261,0.6101,0.0228,0.0388,9.5260,-0.6645,-1.1625,0.6092
88.0203,0.7826,-0.1733,-20.6176,0.0745,0.0000,-0.0000,75.0471,-15.6604,0.0000,1500,1500,0.0000,0.0223,-0.0761,9.9014,-0.0416,0.9192,0.5490,0.0276,-0.0857,9.8516,0.1905,1.0970,0.5253
88.0387,0.7317,-0.1604,-20.6113,0.9371,0.0000,-0.0000,70.1612,-14.6409,0.0000,1500,1500,0.0000,0.0294,-0.1838,9.8942,0.7600,0.8505,0.4879,-0.0323,-0.1838,9.8397,1.1142,0.5016,0.1360
88.0572,0.6730,-0.1612,-20.6096,0.8493,0.0000,-0.0000,64.5374,-13.4673,0.0000,1500,1500,0.0000,0.1085,-0.2149,9.8033,-0.2782,0.9116,0.1826,0.0850,-0.2102,9.8397,1.9768,0.8833,-0.0549
88.0755,0.6400,-0.1559,-20.6078,2.8035,0.0000,0.0000,61.3740,-12.8072,0.0000,1500,1500,0.0000,0.0725,-0.2796,9.8512,2.6455,0.9192,0.1826,0.0419,-0.2580,9.9019,2.9615,0.6695,-0.0473
88.0940,0.6475,-0.1250,-20.6091,3.6241,0.0000,0.0000,62.0863,-12.9558,0.0000,1500,1500,0.0000,-0.0735,-0.1623,9.9062,3.3859,0.5376,0.0986,0.0276,-0.3802,9.7511,3.8623,0.5321,-0.2915
88.1125,0.6629,-0.1271,-20.6158,4.7119,0.0000,0.0000,63.5657,-13.2645,0.0000,1500,1500,0.0000,0.0294,-0.2269,9.9421,4.5157,0.0719,-0.2296,-0.0802,-0.0474,9.7104,4.9081,-0.1931,-0.5205
88.1309,0.7253,-0.1371,-20.6259,5.2157,0.0000,0.0000,69.5542,-14.5142,0.0000,1500,1500,0.0000,0.0558,-0.0426,9.9062,5.3325,-0.2029,-0.5655,0.0803,-0.0737,9.8014,5.0989,-0.1015,-0.5434
88.1493,0.7872,-0.1572,-20.6411,4.5439,0.0261,0.1095,75.2196,-15.7512,0.0000,1500,1500,0.0000,0.1276,0.0197,9.8895,4.7294,-0.0044,-0.7487,0.1233,0.1131,10.0504,4.3584,0.2192,-0.9175
88.1677,0.8661,-0.1648,-20.6552,4.1394,0.0969,0.2336,98.9863,-17.3303,0.0000,1500,1500,0.0000,0.0797,0.1490,9.7697,4.1569,0.3009,-0.7640,0.0563,0.0173,9.8732,4.1218,0.0741,-0.7724
88.1861,0.9343,-0.1633,-20.6764,4.2844,0.2131,0.4913,106.0886,-18.6944,0.0000,1500,1500,0.0000,-0.0136,0.0987,9.9038,4.2027,-0.4701,-0.9777,-0.0203,0.1418,9.8804,4.3661,-0.3839,-1.3373
88.2050,0.9979,-0.1614,-20.6991,3.8035,0.2658,0.2110,114.2190,-19.9678,0.0000,1500,1500,0.0000,-0.0184,0.1226,9.7674,3.9126,-0.3098,-1.0388,0.0132,0.0939,9.8516,3.6943,-0.6205,-1.3755
88.2238,1.0627,-0.1942,-20.7280,3.6813,0.2943,0.1160,121.9450,-21.2638,0.1291,1500,1499,0.0029,0.0989,0.1514,9.9421,3.6378,-0.9357,-1.4739,-0.0419,0.1538,10.0408,3.7248,-1.0327,-1.5587
88.2434,1.1229,-0.1927,-20.7582,3.7653,0.3346,0.1673,128.7301,-22.4800,0.5138,1500,1499,0.0109,-0.0448,0.1226,9.8392,3.7600,-0.9815,-1.4281,-0.0419,0.1418,9.7774,3.7706,-0.7274,-1.6427
88.2619,1.1964,-0.1952,-20.7926,3.6928,0.3573,0.1013,137.3784,-23.9620,1.3640,1500,1499,0.0270,-0.0208,0.2136,9.8392,3.6836,-0.6838,-1.6037,-0.0131,0.3573,9.8492,3.7019,-0.9335,-2.1160
88.2804,1.2741,-0.1952,-20.8246,3.3302,0.3117,-0.1826,147.1343,-25.5283,2.7626,1501,1498,0.0512,-0.0520,0.2807,9.8057,3.3477,-0.9739,-1.6800,-0.0586,0.2040,9.8492,3.3126,-1.1091,-1.7343
88.2988,1.3425,-0.2017,-20.8613,2.8989,0.2100,-0.3220,155.4075,-26.9099,4.4398,1502,1497,0.0779,-0.0280,0.2878,9.8296,2.9737,-0.9892,-1.8327,-0.0107,0.2974,9.8971,2.8241,-1.2465,-2.1236
88.3172,1.3833,-0.2165,-20.8976,2.2157,0.0721,-0.2218,159.8145,-27.7398,5.6338,1503,1496,0.0961,0.0917,0.2280,9.8942,2.3096,-1.0273,-1.9548,-0.0035,0.3692,9.9737,2.1218,0.6924,-1.9785
88.3357,1.4323,-0.2597,-20.9373,2.1699,0.0103,-0.0295,164.8946,-28.7334,7.2612,1503,1496,0.1199,0.0702,0.2735,9.7554,2.1798,-1.1266,-2.0464,-0.0778,0.3668,9.7343,2.1600,-3.0709,-2.1541
88.3542,1.4675,-0.2994,-20.9779,0.6241,0.0000,-0.0000,168.8636,-29.4527,8.5800,1504,1495,0.1384,0.1468,0.3669,9.9589,-0.2706,-1.2258,-2.1304,0.0803,0.2711,9.9211,1.5187,-0.8572,-2.1999
88.3726,1.5130,-0.3065,-21.0151,1.6928,0.0000,-0.0000,174.1046,-30.3787,10.4634,1505,1494,0.1636,0.0271,0.3214,9.8847,1.5462,-0.5311,-1.9395,0.1760,0.2735,9.8612,1.8394,-0.8648,-2.0702
88.3910,1.5600,-0.3170,-21.0528,1.9294,0.0000,-0.0000,179.5058,-31.3331,12.6109,1506,1493,0.1913,0.0103,0.3166,9.9589,1.8745,-0.8747,-1.9472,0.0946,0.2878,9.9929,1.9844,-1.3610,-2.0854
88.4095,1.5960,-0.3516,-21.0884,2.2157,0.0000,-0.0000,183.6556,-32.0703,14.4031,1507,1492,0.2135,0.1156,0.2447,9.8559,2.1569,-1.1876,-2.0082,0.1545,0.2854,10.0504,2.2745,-1.2389,-1.7801
88.4279,1.6453,-0.3796,-21.1224,2.1813,0.0000,-0.0000,189.3234,-33.0718,17.0477,1509,1490,0.2451,0.0606,0.3166,9.8871,2.3019,-1.5540,-1.7487,0.0850,0.3118,9.8684,2.0607,-1.5824,-1.8564
88.4463,1.6951,-0.4274,-21.1520,2.1126,0.0000,-0.0000,195.0533,-34.0847,19.9496,1510,1489,0.2784,0.1516,0.3333,9.8224,1.9890,-1.6456,-1.6418,0.2024,0.2974,9.7894,2.2363,-1.5976,-1.4595
88.4647,1.7450,-0.4462,-21.1621,3.0554,0.0000,0.0000,200.7928,-35.0997,23.0811,1512,1487,0.3129,0.0318,0.2639,9.9086,2.7371,-1.5311,0.3200,0.1329,0.2711,9.7439,3.3737,-1.4679,-1.4366
88.4831,1.7969,-0.4716,-21.1865,3.6088,0.0000,0.0000,206.7704,-36.1566,26.5741,1514,1485,0.3498,0.0606,0.2304,9.8655,3.5157,-1.5540,-1.2373,0.0635,0.3285,9.8157,3.7019,-1.6740,-1.3297
88.5015,1.8486,-0.5013,-21.2106,3.7806,0.0000,0.0000,212.7214,-37.2094,30.2770,1516,1483,0.3873,0.0462,0.2184,9.6644,3.7752,-2.0044,-1.2754,0.0659,0.3453,9.8900,3.7859,-2.0938,-1.2381
88.5199,1.9299,-0.5373,-21.2311,3.9561,0.0000,0.0000,222.0766,-38.8547,36.5226,1520,1479,0.4475,0.1180,0.3525,9.7626,3.8745,-1.5693,-1.0235,0.0491,0.4339,9.7319,4.0378,-1.6969,-1.0931
88.5383,2.0255,-0.5491,-21.2490,3.7195,0.0081,0.0157,233.0237,-40.7855,44.4543,1524,1475,0.5191,0.0247,0.4483,9.6692,3.8897,-1.4166,-0.8327,0.1090,0.4387,10.0456,3.5493,-1.4602,-1.0091
88.5568,2.1065,-0.5659,-21.2648,2.5554,0.0001,-0.0001,242.3953,-42.4274,51.6308,1528,1471,0.5796,0.0318,0.4937,9.6812,2.8821,-1.6075,-0.7258,-0.0849,0.5057,9.8469,2.2287,-1.7808,-0.8335
88.5753,2.1648,-0.6002,-21.2762,1.9485,0.0000,-0.0000,249.1040,-43.6151,56.9924,1531,1468,0.6225,0.0797,0.4578,9.6548,1.9890,-1.9739,-0.5502,0.0994,0.4099,9.7655,1.9081,-2.1702,-0.5129
88.5937,2.2260,-0.6192,-21.2851,1.8302,0.0000,-0.0000,256.1468,-44.8614,62.7633,1534,1465,0.6666,0.0079,0.4914,9.7051,1.9813,-1.9357,-0.4739,0.0324,0.5177,9.8588,1.6790,-2.3992,-0.2763
88.6121,2.2645,-0.6061,-21.2920,1.6813,0.0000,-0.0000,260.5785,-45.6543,66.4548,1536,1463,0.6938,-0.1094,0.4099,9.6931,1.6073,-1.9434,-0.2678,0.0443,0.5105,9.6793,1.7554,-1.6205,-0.3373
88.6305,2.2887,-0.6117,-21.2971,2.5134,0.0000,-0.0000,263.3638,-46.1613,68.7947,1537,1462,0.7105,0.0031,0.2854,9.7314,2.2180,-1.5388,-0.1762,-0.0227,0.2447,9.6146,2.8088,-1.4526,-0.2992
88.6491,2.3292,-0.6362,-21.3021,3.4485,0.0000,0.0000,268.0204,-46.9939,72.7219,1539,1460,0.7380,0.0917,0.2807,9.7769,3.2409,-1.6304,-0.0846,0.0635,0.4171,9.6170,3.6561,-1.3076,-0.3908
88.6676,2.3881,-0.6052,-21.3052,3.9638,0.0000,0.0000,274.7977,-48.1957,78.4535,1543,1456,0.7765,-0.1238,0.3309,9.7338,3.6760,-1.0197,-0.1380,-0.2118,0.3573,9.7176,4.2516,-1.1549,-0.1236
88.6860,2.4500,-0.5500,-21.3075,5.2081,0.0495,0.2921,281.0868,-49.4595,84.2726,1546,1453,0.8147,-0.2459,0.2543,9.8488,4.9126,-1.1037,-0.0388,-0.2166,0.1873,9.6745,5.5035,-1.0480,-0.1694
88.7045,2.4857,-0.5190,-21.3094,6.1852,0.4604,3.0269,277.3100,-50.1968,85.8553,1547,1452,0.8356,-0.1477,0.0508,9.6548,6.0424,-1.1266,0.0147,-0.1927,0.2615,9.6146,6.3279,-1.2618,-0.2228
88.7229,2.5555,-0.5301,-21.3164,6.6813,1.2882,7.6716,271.9710,-51.6193,89.0920,1549,1450,0.8738,0.0247,0.1777,9.7937,6.3935,-1.4930,-0.2449,-0.1137,0.2352,9.6673,6.9691,-1.2923,-0.4595
88.7414,2.6296,-0.5278,-21.3252,7.7233,2.6965,16.9291,253.8295,-53.1265,88.8277,1548,1451,0.9098,0.0127,0.1179,9.7386,7.2867,-1.1266,-0.3976,-0.1640,0.2423,9.5093,8.1600,-0.5366,-0.5587
88.7599,2.7471,-0.4923,-21.3369,8.6470,4.4483,27.4390,237.0848,-55.5044,90.0004,1549,1450,0.9561,-0.0998,0.2519,9.7985,8.5157,-0.2334,-0.4739,-0.0658,0.4075,9.5596,8.7783,-0.4144,-0.8411
88.7783,2.8916,-0.4632,-21.3513,7.8951,5.4423,20.6675,273.2135,-58.4230,104.8128,1557,1442,0.9915,-0.0711,0.4554,9.5854,7.9813,-0.0731,-0.5884,-0.0323,0.3884,9.6457,7.8088,-0.5366,-0.9785
88.7967,3.0167,-0.4445,-21.3668,6.8226,5.7726,9.4335,319.9661,-60.9557,120.0684,1566,1433,1.0000,0.0055,0.4842,9.6668,7.0577,0.1940,-0.8021,0.0348,0.4626,9.7271,6.5874,0.0360,-0.9098
88.8152,3.1366,-0.4201,-21.3853,5.8035,5.7666,-0.1970,361.4955,-63.3843,132.9109,1573,1426,1.0000,-0.0136,0.5584,9.5208,5.9813,0.2551,-0.8785,0.0300,0.6015,9.7463,5.6256,0.1886,-1.1770
88.8336,3.2491,-0.3720,-21.4034,4.1432,5.2643,-12.9077,411.0531,-65.6676,147.9287,1581,1418,1.0000,-0.1118,0.6853,9.5782,4.4088,0.3620,-0.9548,-0.2166,0.7810,9.7726,3.8775,0.3413,-1.0320
88.8521,3.3691,-0.3443,-21.4230,1.9867,3.8051,-22.0472,451.1845,-68.1014,160.3824,1588,1411,1.0000,-0.0280,0.9199,9.5782,2.6149,0.5299,-1.1380,-0.0179,0.9606,9.7535,1.3584,0.1886,-0.9633
88.8705,3.4480,-0.2972,-21.4433,-0.6202,1.4456,-15.8743,442.4916,-69.7148,158.7550,1587,1412,1.0000,-0.1166,0.9558,9.3651,-0.6675,0.3696,-1.1380,0.0491,0.9151,9.7678,-0.5729,0.4711,-1.0625
88.8891,3.4558,-0.2488,-21.4621,-4.8034,0.0000,-0.0000,397.6642,-69.9041,146.2981,1580,1419,1.0000,-0.1334,1.0013,9.4729,-3.7820,0.1788,-1.1075,-0.0514,0.9438,9.8852,-5.8248,0.5932,-0.9022
88.9076,3.3789,-0.1914,-21.4775,-8.1316,0.0000,-0.0000,388.8133,-68.3997,143.0676,1578,1421,1.0000,-0.1286,0.8601,9.1401,-6.1713,0.6902,-0.9090,-0.1735,0.9438,10.0097,-10.0919,1.2115,-0.8182
88.9261,3.2072,-0.1538,-21.4919,-11.9408,0.0000,-0.0000,369.0569,-64.9982,135.8350,1574,1425,1.0000,-0.0543,0.7715,9.3627,-11.4767,0.8429,-0.7792,-0.1161,0.6039,9.8660,-12.4049,1.0360,-0.8793
88.9446,2.9797,-0.1141,-21.5049,-12.0668,0.0000,-0.0000,342.8788,-60.4783,126.2065,1569,1430,0.9997,-0.1525,0.5297,9.7458,-12.0950,1.0414,-0.8479,0.0060,0.2088,9.7056,-12.0385,-1.1091,-0.5511
88.9629,2.7407,-0.0896,-21.5188,-11.3912,-0.6817,-13.0369,352.9174,-55.7248,120.8419,1566,1433,0.9539,0.0079,0.3740,9.9230,-10.8813,0.9192,-1.0311,-0.0347,0.2591,9.7990,-11.9011,1.4176,-0.5740
88.9813,2.4739,-0.0355,-21.5322,-11.7576,-3.7077,-48.0061,422.9308,-50.4143,119.0415,1565,1434,0.8288,-0.0759,0.2328,9.7985,-11.7820,3.0948,-0.8937,-0.1759,0.3549,9.7439,-11.7332,0.3642,-0.7343
88.9998,2.2085,0.0035,-21.5444,-10.6469,-5.8048,-45.6188,385.5154,-45.1284,128.9222,1570,1429,0.9878,-0.1286,0.1059,9.9996,-10.6370,0.1940,-0.7487,-0.0442,0.0005,9.7822,-10.6568,0.9978,-0.6198
89.0181,1.9667,0.0260,-21.5596,-8.1011,-6.1861,-18.4006,279.3021,-40.3120,98.3606,1554,1445,1.0000,-0.0448,-0.0497,9.7985,-8.9500,0.8429,-0.7640,-0.1903,-0.0833,9.6505,-7.2523,0.4100,-0.9633
89.0365,1.7994,0.0339,-21.5741,-5.2271,-6.0423,7.8217,184.5293,-36.9838,70.1601,1538,1461,1.0000,0.0247,0.0053,9.9158,-5.4843,0.4918,-0.8098,-0.0538,0.0939,9.8277,-4.9698,0.9978,-0.8182
89.0549,1.6682,0.0539,-21.5907,-4.4065,-5.7208,13.1476,154.0886,-34.3756,58.8619,1532,1467,0.9756,-0.0136,0.0748,9.8799,-4.3927,1.1024,-0.8937,-0.0179,0.1250,9.9283,-4.4202,0.8069,-0.9785
89.0734,1.5626,0.0707,-21.6079,-3.4255,-4.9451,17.5641,129.2263,-32.2808,37.4657,1520,1479,0.7160,-0.0208,0.0915,9.9349,-3.6370,0.8582,-0.9090,-0.0778,0.0412,9.7894,-3.2141,0.6008,-1.0091
89.0917,1.4710,0.0952,-21.6259,-1.4599,-3.2405,21.7569,106.6098,-30.4634,6.3237,1503,1496,0.1403,-0.1070,-0.0354,10.0499,-1.7820,0.0948,-0.8556,0.0539,0.0532,9.7224,-1.1377,0.4634,-1.1236
89.1102,1.4486,0.1318,-21.6437,0.2768,-1.1966,12.2076,131.5260,-30.0285,6.6531,1503,1496,0.1283,-0.1262,0.1298,9.8631,-0.3087,0.9421,-0.9701,-0.1376,0.0317,9.4925,0.8623,0.3871,-0.9862
89.1286,1.4300,0.1466,-21.6831,1.0821,-0.0938,1.1925,161.1151,-29.6718,7.1218,1503,1496,0.1188,-0.0735,0.0772,10.0642,-0.2324,0.0414,-1.1380,0.0563,0.2088,9.8301,2.3966,0.3947,-3.2992
89.1470,1.4790,0.1120,-21.7099,3.0554,0.0000,0.0000,170.1935,-30.6675,9.1101,1505,1494,0.1446,0.1659,0.2136,9.9541,2.6684,0.4231,-1.4663,0.0396,0.3932,9.6960,3.4424,0.0589,-1.4595
89.1655,1.5901,0.0923,-21.7367,3.8913,0.0000,0.0000,182.9730,-32.9046,14.2001,1507,1492,0.2098,0.0917,0.4435,9.9158,3.7294,0.0490,-1.5350,0.1042,0.3668,9.7678,4.0531,0.3260,-1.3831
89.1838,1.6961,0.0906,-21.7636,2.4371,0.0000,0.0000,195.1752,-35.0424,20.1445,1511,1488,0.2791,0.0438,0.5440,9.6788,3.0500,0.8047,-1.3899,-0.0371,0.6877,9.7966,1.8241,0.2497,-1.5969
89.2023,1.7710,0.0894,-21.7919,-0.0171,0.0000,0.0000,203.7920,-36.5577,24.9584,1513,1486,0.3313,-0.0591,0.6374,9.7889,0.1798,-0.4701,-1.5197,0.0228,0.6757,9.8253,-0.2141,-0.7579,-1.5282
89.2211,1.8754,0.0656,-21.8167,-0.8454,0.0000,-0.0000,215.7984,-38.6632,32.4612,1517,1482,0.4070,0.0342,0.8409,9.7003,-0.6675,-0.7449,-1.3670,-0.0538,0.9175,9.7487,-1.0232,-0.7503,-1.2381
89.2396,1.9037,0.0141,-21.8380,-2.0362,0.0000,-0.0000,219.0625,-39.2496,34.6538,1519,1480,0.4280,0.2186,0.6182,9.7075,-1.8736,-0.1800,-1.1227,0.0683,0.7284,9.8229,-2.1988,-0.1244,-1.1770
89.2580,1.9178,-0.0193,-21.8573,-2.8377,0.0000,-0.0000,220.6758,-39.5492,35.7621,1519,1480,0.4385,0.1946,0.6374,9.8416,-2.7668,0.1940,-1.1151,0.2024,0.5775,9.6888,-2.9087,0.7459,-1.0015
89.2765,1.9023,-0.0366,-21.8753,-3.8492,0.0000,-0.0000,218.9015,-39.2598,34.5526,1519,1480,0.4270,0.1252,0.5919,9.8895,-3.6446,0.7284,-1.0388,0.0826,0.5129,9.8588,-4.0538,0.0741,-0.9404
89.2950,1.8489,-0.0469,-21.8944,-3.8530,0.0000,-0.0000,212.7498,-38.2091,30.4879,1516,1483,0.3875,-0.0160,0.4028,9.7003,-3.6981,-0.9892,-1.0006,0.0443,0.4530,9.7080,-4.0080,-0.6511,-0.9938
89.3135,1.8263,-0.0862,-21.9122,-3.2919,0.0000,-0.0000,210.1567,-37.7767,28.8437,1515,1484,0.3711,0.1923,0.4866,9.7626,-2.2706,-0.0197,-0.9243,0.2215,0.4195,9.8900,-4.3133,0.0207,-1.0167
89.3319,1.7476,-0.1382,-21.9337,-3.6965,0.0000,-0.0000,201.1012,-36.2203,23.4234,1512,1487,0.3148,0.2042,0.2639,9.7290,-3.7210,-0.6151,-1.0922,-0.0849,0.1873,9.6601,-3.6721,-0.7732,-1.2076
89.3504,1.6486,-0.1757,-21.9407,-3.0171,0.0000,-0.0000,189.7018,-34.2555,17.3705,1509,1490,0.2473,0.2066,0.1059,9.8919,-3.3622,-0.2105,-1.2067,0.1521,-0.0928,9.6218,-2.6721,0.3947,0.5558
89.3689,1.5767,-0.1586,-21.9648,-1.0324,0.0000,0.0000,181.4320,-32.8339,13.5442,1507,1492,0.2015,0.0079,0.0412,9.8081,-1.4461,0.6444,-1.3136,0.0563,-0.0019,9.7008,-0.6187,0.6390,-1.3450
89.3873,1.5365,-0.1387,-21.9760,0.4027,0.0000,0.0000,176.8057,-32.0452,11.6165,1506,1493,0.1773,-0.0496,0.0484,9.8751,0.2180,0.1788,-1.5808,0.0228,0.1346,9.8181,0.5874,0.1963,0.5329
89.4058,1.5217,-0.1557,-22.0084,0.5745,0.0000,0.0000,175.0992,-31.7638,10.9450,1506,1493,0.1686,0.1180,0.1466,9.8272,0.4317,0.2169,-1.7563,0.0994,0.1154,9.6960,0.7172,0.0207,-1.7801
89.4243,1.5127,-0.1725,-22.0404,1.9294,0.0000,0.0000,174.0647,-31.5991,10.5486,1505,1494,0.1634,0.1444,0.0532,9.8368,1.5768,0.1864,-1.6724,0.0779,0.1992,9.6577,2.2821,0.6543,-1.8335
89.4428,1.5481,-0.1374,-22.0731,3.1508,0.0000,0.0000,178.1353,-32.3221,12.1595,1506,1493,0.1841,-0.1142,0.1562,9.9134,2.9050,0.3544,-1.7563,-0.0323,0.1418,9.8492,3.3966,0.0131,-1.8030
89.4612,1.5829,-0.1400,-22.1084,2.7577,0.0000,0.0000,182.1386,-33.0337,13.8602,1507,1492,0.2053,0.0079,0.2017,9.9302,1.6760,-0.3937,-1.8403,0.0060,0.1777,9.6098,3.8394,-0.3534,-1.9862
89.4797,1.6716,-0.1513,-22.1420,4.3455,0.0000,0.0000,192.3525,-34.8257,18.7135,1510,1489,0.2626,0.1085,0.3070,9.7075,4.2485,0.1406,-1.7029,0.1449,0.3166,9.7535,4.4424,0.5856,-1.9709
89.4982,1.7807,-0.1662,-22.1733,4.8073,0.0000,0.0000,204.8995,-37.0242,25.6586,1514,1485,0.3381,0.1587,0.3836,9.9445,4.8592,0.6750,-1.6953,0.0970,0.4411,9.6290,4.7554,0.6314,-1.7419
89.5166,1.8878,-0.1605,-22.2033,4.4905,0.0000,0.0000,217.2345,-39.1870,33.4736,1518,1481,0.4162,0.0318,0.4219,9.9086,4.5233,0.3315,-1.5502,0.1904,0.4674,9.7942,4.4577,0.3184,-1.7419
89.5350,1.9973,-0.1479,-22.2320,3.9600,0.0000,0.0000,229.8331,-41.3966,42.3557,1523,1476,0.4980,0.0151,0.4866,9.7410,4.1187,0.4002,-1.5273,-0.0035,0.5680,9.9019,3.8012,0.5856,-1.6198
89.5535,2.1019,-0.1519,-22.2560,3.0668,0.0000,0.0000,241.8613,-43.5082,51.5495,1528,1471,0.5761,0.0318,0.5584,9.6644,3.1874,0.0032,-1.3518,0.0348,0.4339,9.8660,2.9462,-0.4144,-1.2152
89.5718,2.1904,-0.1587,-22.2804,2.4943,0.0000,0.0000,252.0456,-45.3002,59.7604,1532,1467,0.6410,0.0558,0.5560,9.7793,2.6378,-0.2411,-1.3136,0.1425,0.5680,9.8923,2.3508,0.1810,-1.3297
89.5903,2.2632,-0.2015,-22.2986,1.9180,0.0000,-0.0000,260.4315,-46.7803,66.7309,1536,1463,0.6929,0.2042,0.5488,9.7674,1.9203,-0.2029,-0.9166,0.3269,0.4770,9.9402,1.9157,-0.3228,-1.0396
89.6087,2.3438,-0.2487,-22.3144,1.1737,0.0000,-0.0000,269.7004,-48.4147,74.5615,1541,1458,0.7477,0.3072,0.6494,9.6548,1.5691,0.4231,-0.8479,-0.0802,0.5727,10.0097,0.7783,0.7001,-0.8946
89.6271,2.3335,-0.2449,-22.3296,-0.0782,0.0000,-0.0000,268.5184,-48.2326,73.5687,1540,1459,0.7409,-0.0089,0.3525,9.6931,0.0195,-0.3861,-0.7487,-0.0538,0.4865,9.9426,-0.1759,-0.4984,-0.8793
89.6455,2.3526,-0.2322,-22.3428,0.5058,0.0000,-0.0000,270.7091,-48.6369,75.4342,1541,1458,0.7535,0.0342,0.4411,9.6860,0.3935,0.3162,-0.6266,-0.0466,0.3932,9.6673,0.6180,0.8451,-0.8793
89.6640,2.3454,-0.2150,-22.3525,-0.2232,0.0000,-0.0000,269.8813,-48.5165,74.7411,1541,1458,0.7487,-0.0424,0.3812,9.7817,0.3096,0.3009,-0.4968,0.2957,0.4865,10.1126,-0.7561,-0.2999,-0.5663
89.6824,2.3594,-0.2356,-22.3634,-1.4561,0.0000,-0.0000,271.4945,-48.8204,76.1179,1541,1458,0.7579,0.1109,0.5775,9.6237,-0.3545,-0.3708,-0.4357,0.2957,0.2926,9.7846,-2.5576,-0.0251,-0.7419
89.7008,2.3299,-0.2711,-22.3736,-0.9866,0.0000,-0.0000,268.1060,-48.2548,73.2541,1540,1459,0.7385,0.2641,0.3549,9.8009,-1.1103,0.4689,-0.5502,0.1257,0.2208,9.7224,-0.8629,0.8298,-0.6274
89.7193,2.2850,-0.2648,-22.3826,-1.5439,0.0000,-0.0000,262.9315,-47.3783,68.8894,1537,1462,0.7079,0.0678,0.3118,9.5782,-1.2095,0.5834,-0.4128,-0.0658,0.3477,9.9833,-1.8782,0.5245,-0.6427
89.7379,2.2188,-0.2481,-22.3948,-1.3110,0.0000,-0.0000,255.3183,-46.0773,62.5287,1534,1465,0.6615,-0.0184,0.2040,9.7889,-1.5454,0.0795,-0.5808,0.0898,0.0532,9.7295,-1.0767,0.2344,-0.7724
89.7564,2.1511,-0.2724,-22.4081,-1.2538,0.0000,-0.0000,247.5291,-44.7450,56.1520,1530,1469,0.6125,0.1899,0.1825,9.7530,-2.2171,0.2093,-0.7105,0.1281,0.0580,9.8277,-0.2904,0.5856,-0.7877
89.7748,2.1193,-0.3014,-22.4231,-0.0935,0.0000,0.0000,243.8720,-44.1306,53.2227,1529,1470,0.5891,0.1899,0.2256,9.6572,-0.0568,-0.0426,-0.7716,0.1593,0.1609,9.8277,-0.1301,0.2497,-0.8946
89.7932,2.1036,-0.3186,-22.4400,0.2500,0.0000,0.0000,242.0578,-43.8363,51.7894,1528,1471,0.5774,0.1683,0.2711,9.7674,0.1722,0.3238,-0.9319,0.1497,0.0628,9.7032,0.3279,0.4863,-0.9480
89.8117,2.0959,-0.3217,-22.4580,0.8836,0.0000,0.0000,241.1801,-43.7047,51.1033,1528,1471,0.5717,0.1061,0.2495,9.7267,0.8363,0.3085,-1.0235,-0.0419,0.1154,9.7032,0.9310,0.4405,-0.9709
89.8302,2.0776,-0.3290,-22.4814,0.9027,0.0000,0.0000,239.0738,-43.3594,49.4600,1527,1472,0.5581,0.1420,0.1969,9.8416,1.0348,0.4689,-1.1380,-0.0490,0.1705,9.7128,0.7706,0.5856,-1.4747
89.8487,2.0382,-0.3311,-22.5200,0.8493,0.0000,0.0000,234.5324,-42.5905,45.9706,1525,1474,0.5286,0.1228,0.0987,9.8248,0.6913,0.4765,-1.2220,-0.0873,0.1945,9.6314,1.0073,0.6161,-3.2305
89.8672,2.0460,-0.3390,-22.5614,1.9142,0.0000,0.0000,235.4317,-42.7673,46.6613,1525,1474,0.5345,0.1779,0.2232,9.9326,1.7294,0.8582,-1.4968,0.1257,0.3166,9.7631,2.0989,0.8833,-3.3144
89.8856,2.0807,-0.3162,-22.5898,1.4065,0.0000,0.0000,239.4222,-43.4816,49.7489,1527,1472,0.5604,0.0031,0.3836,9.7219,1.9279,0.7131,-1.4434,-0.0107,0.2088,9.8828,0.8852,0.2955,-1.7114
89.9040,2.1023,-0.2944,-22.6177,0.3645,0.0000,-0.0000,241.9081,-43.9347,51.7070,1528,1471,0.5764,-0.0041,0.4171,9.6333,0.6073,0.3315,-1.4510,0.0252,0.2711,9.8109,0.1218,0.6237,-1.6350
89.9225,2.1091,-0.2750,-22.6469,0.1279,0.0000,-0.0000,242.6969,-44.0929,52.3374,1528,1471,0.5815,0.0223,0.3716,9.6117,0.3401,0.5147,-1.6037,-0.0179,0.2806,9.9187,-0.0843,0.8604,-1.6198
89.9409,2.1052,-0.2688,-22.6764,-0.6927,0.0000,-0.0000,242.2495,-44.0362,51.9892,1528,1471,0.5786,0.0606,0.3956,9.7051,-0.5759,0.4383,-1.6342,0.0060,0.4171,9.8684,-0.8095,0.4176,-1.5892
89.9593,2.0934,-0.2628,-22.7079,-1.0935,0.0000,-0.0000,240.8860,-43.8202,50.9195,1528,1471,0.5698,0.0654,0.3980,9.8105,-1.1484,0.5070,-1.6189,0.1808,0.4674,9.7942,-1.0385,0.5321,-1.8946
89.9777,2.0829,-0.2546,-22.7350,-0.9981,0.0000,-0.0000,239.6851,-43.6323,49.9837,1527,1472,0.5621,0.0534,0.3860,9.6429,-0.8736,0.4612,-1.6266,0.0515,0.4099,9.8564,-1.1225,0.5474,-1.2915
89.9962,2.0786,-0.2634,-22.7655,-1.2919,0.0000,-0.0000,239.1793,-43.5651,49.5946,1527,1472,0.5588,0.0797,0.4387,9.7051,-1.1026,0.0566,-1.7334,0.1545,0.4602,9.9067,-1.4813,-0.2923,-1.5205
90.0146,2.0206,-0.2459,-22.7955,-2.3339,0.0000,-0.0000,232.5150,-42.4271,44.4949,1524,1475,0.5155,-0.0208,0.2783,9.7075,-2.1484,-0.1495,-1.6571,-0.0730,0.3836,9.8014,-2.5194,0.4711,-1.6045
90.0330,1.9711,-0.2454,-22.8034,-1.4828,0.0000,-0.0000,226.8116,-41.4555,40.2907,1522,1477,0.4783,0.0678,0.2424,9.8416,-1.6370,0.5834,0.3124,0.1760,0.3644,9.8923,-1.3286,-0.0022,-1.4747
90.0514,1.9584,-0.2374,-22.8439,-1.4675,0.0000,-0.0000,225.3516,-41.2213,39.2436,1521,1478,0.4688,-0.0256,0.3932,9.7243,-1.1103,-0.5311,-1.4128,0.0611,0.4842,9.9139,-1.8248,-0.2389,-3.2686
90.0699,1.9519,-0.2261,-22.8682,-1.8606,0.0000,-0.0000,224.6050,-41.1111,38.7145,1521,1478,0.4640,-0.0136,0.4578,9.6022,-2.0263,-0.3250,-1.3823,-0.0035,0.4195,9.7224,-1.6950,0.2955,-1.2076
90.0883,1.9539,-0.2088,-22.8774,-1.3492,0.0000,-0.0000,224.8389,-41.1713,38.8859,1521,1478,0.4655,-0.0496,0.4650,9.8583,-1.4156,0.0872,-1.1915,-0.0395,0.3453,9.7559,-1.2828,-0.3839,0.5482
90.1067,1.9413,-0.1951,-22.8986,-1.6584,0.0000,-0.0000,223.3860,-40.9382,37.8584,1520,1479,0.4560,-0.0807,0.4195,9.8703,-1.5759,-0.7678,-1.1380,-0.0275,0.3836,9.8588,-1.7408,-0.4373,-1.1083
90.1252,1.9147,-0.2100,-22.9174,-1.2042,0.0000,-0.0000,220.3194,-40.4243,35.7213,1519,1480,0.4361,0.0678,0.3190,9.9086,-1.4919,-0.4472,-1.0846,0.0084,0.3453,9.7870,-0.9164,-0.4908,-0.8869
90.1449,1.9143,-0.2218,-22.9370,-0.2080,0.0000,0.0000,220.2833,-40.4372,35.7005,1519,1480,0.4359,0.0390,0.3501,9.9948,-0.2629,-0.5998,-0.9472,-0.0155,0.4123,9.7918,-0.1530,-0.6358,-1.0091
90.1642,1.9304,-0.2271,-22.9541,-0.9141,0.0000,0.0000,222.1358,-40.7785,36.9921,1520,1479,0.4479,0.0055,0.4722,9.7745,-0.7591,-0.6838,-0.8556,-0.0299,0.5129,9.8325,-1.0690,-0.6969,-0.8640
90.1831,1.8973,-0.2338,-22.9653,-0.3950,0.0000,0.0000,218.3189,-40.1340,34.3643,1518,1481,0.4232,-0.0927,0.2088,9.7338,-0.5759,-2.6991,-0.5731,-0.0514,0.5057,9.5979,-0.2141,-0.7732,-0.4747
90.2023,1.9227,-0.2489,-22.9730,0.0058,0.0000,0.0000,221.2445,-40.6618,36.3788,1520,1479,0.4421,0.0318,0.4363,9.8631,0.1722,-0.9510,-0.2754,0.0036,0.5057,9.7631,-0.1606,-0.8419,-0.4976
90.2221,1.9037,-0.2419,-22.9844,-0.8263,0.0000,-0.0000,219.0624,-40.3015,34.8789,1519,1480,0.4280,-0.0950,0.3094,9.5758,-0.9042,-1.3632,-0.5579,-0.0682,0.4267,9.8947,-0.7484,-1.1931,-0.4976
90.2420,1.9087,-0.2319,-22.9928,-1.0133,0.0000,-0.0000,219.6347,-40.4201,35.2749,1519,1480,0.4317,-0.0639,0.4171,9.5064,-0.7515,-0.8060,-0.5960,-0.0514,0.3860,9.5308,-1.2752,-0.6816,-0.0854
90.2614,1.9040,-0.2527,-22.9968,-2.0973,0.0000,-0.0000,219.0914,-40.3447,34.9069,1519,1480,0.4282,0.1037,0.5009,10.0547,-2.0797,-0.7067,-0.1838,0.2143,0.3333,9.8660,-2.1148,0.2268,-0.1999
90.2803,1.8767,-0.2296,-23.0015,-1.9523,0.0000,-0.0000,215.9499,-39.8175,32.7915,1518,1481,0.4080,-0.0400,0.3597,9.5662,-1.9271,0.4536,-0.3060,-0.0227,0.3884,9.6697,-1.9774,-0.1091,-0.1694
90.2993,1.8311,-0.2515,-23.0043,-2.9866,0.0000,-0.0000,210.7056,-38.9243,29.3861,1516,1483,0.3745,0.0079,0.3645,9.8368,-2.5377,-1.3250,-0.1456,0.0348,0.3716,10.1389,-3.4355,-1.8114,-0.0244
90.3188,1.7657,-0.2421,-23.0070,-3.9790,0.0000,-0.0000,203.1840,-37.6347,24.7964,1513,1486,0.3275,-0.0543,0.3692,9.7386,-4.1484,-1.0884,-0.0617,-0.0802,0.3094,9.6529,-3.8095,-0.0098,-0.1999
90.3385,1.6971,-0.2260,-23.0100,-2.1660,0.0000,-0.0000,195.2876,-36.2792,20.3743,1511,1488,0.2798,-0.0520,0.1897,9.8895,-2.1561,0.1101,-0.1915,-0.0610,0.2519,9.6218,-2.1759,-0.8801,-0.0778
90.3581,1.6606,-0.1984,-23.0140,-2.7690,0.0000,-0.0000,191.0890,-35.5661,18.1962,1510,1489,0.2552,-0.1381,0.3669,9.5255,-3.1866,-0.8518,-0.1456,0.0731,0.2399,9.9139,-2.3515,-0.3534,-0.2305
90.3770,1.5630,-0.1765,-23.0190,-3.1011,0.0000,-0.0000,179.8545,-33.6291,12.9724,1507,1492,0.1931,-0.1166,0.1179,9.7482,-3.6141,-0.6915,-0.2525,0.0324,0.0867,9.8636,-2.5881,-0.4373,-0.2534
90.3961,1.5100,-0.2053,-23.0224,-1.7690,0.0000,0.0000,173.7532,-32.5837,10.5145,1505,1494,0.1619,0.1132,0.1753,9.8344,-1.6370,-0.4548,-0.0311,0.1664,0.3357,9.6098,-1.9011,-0.6511,-0.3679
90.4155,1.4652,-0.2128,-23.0286,-2.1393,0.0000,-0.0000,168.5955,-31.7019,8.6464,1504,1495,0.1371,0.0031,0.2447,9.7051,-2.2553,-0.8441,-0.3136,-0.0227,0.1633,9.6122,-2.0232,-0.6816,-0.2839
90.4351,1.4134,-0.2379,-23.0354,-0.9942,0.0000,0.0000,162.6388,-30.6808,6.7278,1503,1496,0.1105,0.1587,0.1131,9.8248,-1.1255,-0.1418,-0.2831,0.2167,0.0676,9.6577,-0.8629,0.5627,-0.4595
