timestamp,roll_deg,pitch_deg,yaw_deg,omega_raw,omega_filtered,alpha,tau_ff,tau_pid,tau_total,pwm_left,pwm_right,deadzone_factor,accel1_x,accel1_y,accel1_z,gyro1_x,gyro1_y,gyro1_z,accel2_x,accel2_y,accel2_z,gyro2_x,gyro2_y,gyro2_z
129.1595,-2.4079,0.0783,-31.8207,-11.1965,-7.9610,-29.8479,-191.1171,48.3458,-77.6857,1457,1542,1.0000,0.1420,-0.4256,9.8512,-11.2400,-1.7678,0.5795,0.1808,-0.4592,9.7726,-11.1530,-1.1549,0.7161
129.1796,-2.6225,0.0040,-31.8018,-9.1813,-8.1440,-9.0862,-275.6015,52.6633,-103.5001,1443,1556,1.0000,0.2617,-0.5453,9.9517,-9.4767,-0.6609,0.7933,0.1497,-0.5454,9.7008,-8.8858,-0.5137,1.0215
129.1986,-2.8058,-0.0569,-31.7924,-8.6774,-8.2240,-4.2232,-310.7068,56.3585,-115.1772,1436,1563,1.0000,0.2401,-0.5310,9.7362,-8.4843,-0.5311,0.4345,0.0850,-0.5573,9.6146,-8.8706,-0.3534,0.4947
129.2172,-2.9556,-0.0813,-31.7831,-8.5248,-8.2691,-2.4242,-333.1219,59.3834,-122.9658,1432,1567,1.0000,0.0797,-0.4328,9.6764,-8.5759,-0.4930,0.5108,0.2167,-0.4759,9.6697,-8.4736,-0.4526,0.4337
129.2358,-3.0946,-0.1016,-31.7775,-7.4904,-8.1523,6.2734,-374.1669,62.1944,-135.8639,1425,1574,1.0000,0.0941,-0.5070,9.8679,-7.6675,-0.4014,0.3887,-0.0179,-0.4783,9.5045,-7.3133,0.0054,0.1741
129.2542,-3.1747,-0.1283,-31.7742,-5.9866,-7.8275,17.6081,-416.0346,63.8292,-148.4043,1418,1581,1.0000,0.1611,-0.3921,9.8512,-6.0110,0.0108,0.2513,0.1688,-0.3299,9.6721,-5.9622,0.4253,0.1360
129.2727,-3.2132,-0.1303,-31.7730,-5.8110,-7.5250,16.3739,-416.9045,64.6303,-149.0484,1418,1581,1.0000,0.1061,-0.2293,9.7961,-5.6752,1.0795,0.2360,0.1257,0.0221,9.5979,-5.9469,0.6695,-0.0015
129.2912,-3.2381,-0.1341,-31.7693,-5.9981,-7.2960,12.3709,-408.2466,65.1616,-146.8899,1419,1580,1.0000,0.1276,-0.1551,10.0164,-6.3087,0.9192,0.2742,0.0060,-0.1096,9.6912,-5.6874,0.9825,0.2505
129.3097,-3.2729,-0.1350,-31.7665,-3.8912,-6.7852,27.6721,-456.3145,65.8896,-160.7128,1411,1588,1.0000,0.0702,-0.4017,10.2486,-4.6141,0.7131,0.1063,0.2024,-0.2126,9.8397,-3.1683,0.2497,0.2734
129.3281,-3.2648,-0.1347,-31.7638,-3.2423,-6.2538,28.9151,-458.9624,65.7602,-161.3896,1411,1588,1.0000,0.0438,-0.2509,10.0068,-3.0950,0.3391,0.1444,0.0850,-0.2197,9.8947,-3.3897,0.1505,0.1970
129.3465,-3.2572,-0.1344,-31.7609,-3.4523,-5.7817,22.6281,-439.9858,65.6416,-156.0168,1414,1585,1.0000,0.0342,-0.2317,9.9804,-3.6217,0.1788,0.1521,0.0276,-0.2365,9.8229,-3.2828,0.0818,0.1970
129.3649,-3.2656,-0.1544,-31.7555,-3.7347,-5.1382,15.8889,-421.5393,65.8415,-150.9518,1416,1583,1.0000,0.1037,-0.2844,9.9326,-3.1790,-0.4548,0.2284,0.0204,-0.1048,9.6266,-4.2904,0.0741,0.3497
129.3834,-3.2591,-0.1823,-31.7530,-1.2652,-3.3495,23.7432,-443.4151,65.7447,-157.0286,1413,1586,1.0000,0.2258,-0.4232,9.8512,-1.5148,0.5681,0.1292,0.1760,-0.3897,9.4518,-1.0156,0.9978,0.2352
129.4018,-3.2304,-0.1827,-31.7513,-0.2538,-1.4470,13.0370,-409.2732,65.2021,-147.1975,1419,1580,1.0000,0.1348,-0.3993,9.8105,-0.5072,1.2704,0.2208,0.0300,-0.5477,9.6769,-0.0003,1.0283,0.1131
129.4202,-3.1947,-0.1803,-31.7497,1.4371,-0.1212,1.6616,-372.3988,64.5192,-136.5312,1424,1575,1.0000,0.0654,-0.5118,9.8464,0.9890,0.6673,0.1597,0.0539,-0.4879,9.6003,1.8852,0.3642,0.0749
129.4386,-3.1461,-0.1986,-31.7496,2.9943,0.0000,0.0000,-362.0304,63.5803,-133.1587,1426,1573,1.0000,0.1420,-0.5813,9.9086,2.5157,0.0719,0.1368,0.2239,-0.6986,9.6840,3.4729,0.5398,-0.1007
129.4570,-3.0651,-0.2079,-31.7550,5.8951,0.0000,0.0000,-352.7083,61.9908,-129.7537,1428,1571,1.0000,0.1587,-0.6722,9.8392,5.2103,0.9803,-0.0846,0.1329,-0.5454,9.5045,6.5798,0.9215,-0.4137
129.4755,-2.9810,-0.1683,-31.7592,6.1241,0.0000,0.0000,-343.0287,60.3383,-126.1833,1430,1569,0.9997,-0.1118,-0.6674,9.8942,6.0653,0.6292,-0.1456,-0.0059,-0.5884,9.9642,6.1829,0.3184,-0.2763
129.4939,-2.8824,-0.1614,-31.7665,9.5210,0.0000,0.0000,-331.6834,58.3953,-120.8530,1433,1566,0.9900,0.0031,-0.8686,9.8248,8.3019,0.2704,-0.2220,0.2071,-0.8327,9.3345,10.7401,0.0131,-0.5892
129.5123,-2.7082,-0.1696,-31.7764,12.8531,0.0101,0.3027,-312.5118,54.9389,-108.3467,1440,1559,0.9424,0.0773,-0.8063,10.0140,12.6684,0.0337,-0.4892,-0.0059,-0.6291,9.7511,13.0378,0.2192,-0.6045
129.5309,-2.5353,-0.1918,-31.7900,13.2958,2.6128,46.5247,-425.7300,51.5054,-125.1168,1431,1568,0.8631,0.0893,-0.7967,9.6500,12.9661,-0.3021,-0.6037,0.0084,-0.6004,9.8397,13.6256,-0.6358,-0.9327
129.5494,-2.3140,-0.2020,-31.8055,14.8569,6.1633,82.8078,-504.7600,47.1026,-164.8841,1409,1590,1.0000,0.0294,-0.6842,9.8105,14.2638,-0.5693,-0.6647,-0.0155,-0.6651,9.5188,15.4500,-0.5595,-1.0931
129.5678,-2.0485,-0.1967,-31.8201,16.1584,7.6626,81.3820,-470.1029,41.8133,-152.5355,1416,1583,1.0000,-0.0113,-0.5429,9.6548,16.1874,-0.2563,-0.5960,-0.0251,-0.2916,9.6362,16.1294,-0.1931,-1.0473
129.5863,-1.7493,-0.1905,-31.8358,15.4180,8.8259,62.9827,-382.6865,35.8473,-125.0759,1431,1568,1.0000,-0.0304,-0.2820,9.7458,15.4165,-0.1647,-0.7029,-0.1663,-0.3011,9.6553,15.4195,-0.6816,-1.0549
129.6048,-1.4747,-0.1916,-31.8540,15.8989,9.8868,57.4179,-335.0557,30.3690,-109.0001,1440,1559,1.0000,-0.0017,-0.3849,9.7147,15.3935,-0.4166,-0.8785,-0.0251,-0.3538,9.5979,16.4042,-0.4602,-1.1465
129.6232,-1.2089,-0.1991,-31.8734,16.7882,10.9220,56.2387,-250.8973,25.0656,-82.7841,1454,1545,1.0000,0.0462,-0.4591,9.7554,16.2638,-0.0960,-0.8327,0.2095,-0.0881,9.8828,17.3126,-0.2847,-1.3068
129.6416,-0.8694,-0.2503,-31.8986,16.2539,11.7218,43.4372,-187.6173,18.2841,-61.6749,1466,1533,1.0000,0.2401,-0.0234,9.8895,16.6302,-0.3021,-1.1304,0.1569,0.1322,10.1174,15.8775,-0.4908,-1.6274
129.6600,-0.5505,-0.2682,-31.9183,13.2539,11.9516,12.4882,-82.7613,11.0159,-28.6811,1484,1515,1.0000,0.0342,0.1945,9.6788,13.6836,-0.9052,-1.0769,-0.0251,0.3285,10.0168,12.8241,-1.2312,-1.0854
129.6784,-0.2873,-0.2751,-31.9358,11.3111,11.8555,-5.2196,-15.0259,5.7496,-7.0820,1496,1503,1.0000,-0.0256,0.1586,9.6860,11.6378,-1.1495,-0.9701,0.0204,0.1753,10.1078,10.9844,-1.2541,-0.9404
129.6968,-0.0589,-0.2592,-31.9510,8.3722,11.3330,-28.3062,62.2869,1.1786,16.8510,1509,1490,1.0000,-0.1070,0.2854,9.5758,9.2638,-1.0350,-0.8479,0.1138,0.3118,10.1174,7.4806,-0.7961,-0.7877
129.7153,0.0420,-0.2623,-31.9617,3.5897,10.1715,-63.0416,155.3260,-0.8401,43.9114,1524,1475,1.0000,0.0079,0.1394,9.5136,4.3248,-0.7831,-0.6113,0.2095,0.4937,10.0743,2.8546,-0.2999,-0.5282
129.7337,0.0880,-0.2764,-31.9689,1.7271,8.9049,-68.7291,173.3914,-1.7615,49.4304,1527,1472,1.0000,0.1132,0.0700,9.7147,2.0729,-0.2487,-0.5960,-0.0658,0.1705,9.8085,1.3813,0.2573,-0.1770
129.7521,0.1595,-0.2396,-31.9759,-0.1393,7.5483,-73.5972,191.9282,-3.1917,55.3357,1530,1469,1.0000,-0.1453,0.3501,9.5854,1.6531,-0.0426,-0.3289,-0.1855,0.2471,10.0911,-1.9316,-0.5671,-0.3984
129.7705,0.1092,-0.1942,-31.9770,-3.3988,5.8892,-88.9726,224.0097,-2.1860,63.5611,1534,1465,0.9960,-0.1765,0.0867,9.7626,-3.0110,-0.4090,-0.2067,-0.0945,-0.0857,10.0552,-3.7866,0.2955,0.1054
129.7890,0.0081,-0.1540,-31.9732,-5.0248,1.6393,-34.1962,82.8438,-0.1613,0.0000,1500,1500,0.0000,-0.1573,-0.0186,9.7219,-4.4767,0.0948,0.2360,-0.1089,-0.2102,10.0647,-5.5729,-0.1931,0.1665
129.8073,-0.1375,-0.1230,-31.9496,-5.2958,0.0000,-0.0000,-13.1836,2.7511,-0.0000,1500,1500,0.0000,-0.0927,-0.2245,9.9421,-5.2935,0.0795,2.2589,-0.0658,-0.3394,9.9546,-5.2981,0.5703,0.2505
129.8258,-0.3269,-0.0824,-31.9437,-6.2309,0.0000,-0.0000,-31.3434,6.5406,-0.0000,1500,1500,0.0000,-0.1477,-0.3730,9.9349,-5.6981,0.4612,0.3353,-0.1807,-0.4927,10.0336,-6.7637,0.0054,0.2810
129.8442,-0.5471,-0.0782,-31.9183,-6.8110,0.0000,-0.0000,-52.4577,10.9466,-0.0000,1500,1500,0.0000,-0.0304,-0.4998,9.9445,-6.8813,-0.3250,2.2589,0.0515,-0.7106,9.7774,-6.7408,-0.2236,0.4184
129.8626,-0.7856,-0.0505,-31.9132,-4.6049,0.0000,-0.0000,-75.3301,15.7195,-0.0000,1500,1500,0.0000,-0.0927,-0.8111,9.8416,-5.2248,0.3085,0.2513,-0.1328,-0.6531,9.6266,-3.9851,0.1963,0.2810
129.8811,-0.9341,0.0058,-31.9087,-3.0744,0.0000,-0.0000,-107.4814,18.6905,-0.0000,1500,1500,0.0000,-0.2339,-0.5813,10.0834,-3.1866,1.1482,0.2055,-0.1807,-0.3873,9.8708,-2.9622,-0.5824,0.2810
129.8995,-1.0726,0.0085,-31.9066,-2.9332,0.0000,-0.0000,-123.4238,21.4628,-0.1747,1499,1500,0.0039,-0.0543,-0.5477,9.7458,-3.0721,-0.4319,0.0910,-0.0490,-0.5573,9.7678,-2.7942,-0.5289,0.1283
129.9180,-1.2046,-0.0362,-31.9049,-2.0515,0.0000,-0.0000,-138.6110,24.1145,-1.4880,1499,1500,0.0293,0.1420,-0.6267,9.8751,-2.0339,-0.8670,0.0834,0.0060,-0.4639,10.0216,-2.0690,-0.6969,0.0520
129.9366,-1.3219,-0.0293,-31.9043,-2.3454,0.0000,-0.0000,-152.1145,26.4747,-3.8741,1497,1502,0.0694,-0.0639,-0.5501,9.8966,-2.3240,-0.5922,0.0452,-0.0275,-0.5956,9.8085,-2.3668,-0.2694,-0.0091
129.9551,-1.4328,-0.0105,-31.9080,-1.8301,0.0000,-0.0000,-164.8679,28.7057,-7.2742,1495,1504,0.1202,-0.1046,-0.5860,9.8607,-2.0187,-0.1418,-0.1609,-0.0706,-0.6172,9.8014,-1.6416,-0.3457,-0.2534
129.9736,-1.5211,-0.0173,-31.9147,-1.3645,0.0000,0.0000,-175.0340,30.4878,-10.8133,1494,1505,0.1683,0.0175,-0.5429,9.8703,-1.3774,-0.3708,-0.4205,-0.0155,-0.5190,9.8780,-1.3515,0.0054,-0.3221
129.9920,-1.5905,-0.0294,-31.9242,-1.5515,0.0000,-0.0000,-183.0197,31.8917,-14.1136,1492,1507,0.2101,-0.0065,-0.4568,9.9397,-1.4309,-0.6151,-0.5197,-0.0275,-0.4616,10.0432,-1.6721,-0.9030,-0.5511
130.0105,-1.6732,-0.0490,-31.9346,-2.0629,0.0000,-0.0000,-192.5342,33.5621,-18.6357,1489,1510,0.2636,0.0510,-0.4903,10.0116,-1.9271,-0.6762,-0.5808,0.1042,-0.4376,9.9402,-2.1988,-0.3228,-0.5740
130.0289,-1.7920,-0.0489,-31.9476,-2.3339,0.0000,-0.0000,-206.2100,35.9570,-26.2194,1485,1514,0.3463,-0.0160,-0.6435,9.8152,-2.1484,-1.1800,-0.6800,-0.0778,-0.4065,10.0384,-2.5194,0.6695,-0.7648
130.0474,-1.8618,-0.0624,-31.9634,-3.9713,0.0000,-0.0000,-214.2408,37.3714,-31.2359,1482,1517,0.3970,-0.0232,-0.2916,9.8847,-3.3393,-1.2258,-0.8785,-0.0107,-0.4041,9.9235,-4.6034,-0.9030,-0.8946
130.0659,-1.9940,-0.0776,-31.9826,-5.7652,0.0000,-0.0000,-229.4525,40.0352,-41.7546,1477,1522,0.4955,0.1276,-0.4352,9.7171,-5.5759,0.2017,-1.0846,0.1066,-0.4209,9.9570,-5.9545,0.9902,-0.9709
130.0843,-2.1189,-0.0975,-32.0006,-6.1011,-0.0163,-0.1491,-243.3936,42.5540,-52.6513,1471,1528,0.5888,0.1085,-0.4041,9.8344,-5.9271,0.3696,-0.9930,0.0252,-0.3299,10.0192,-6.2752,-0.2999,-0.9709
130.1027,-2.2379,-0.1088,-32.0181,-6.7881,-0.4760,-3.8628,-246.3936,44.9567,-61.7483,1466,1533,0.6751,0.0079,-0.3346,9.8057,-6.4690,-0.9510,-0.9090,0.1186,-0.3993,9.9091,-7.1072,-0.3457,-1.0473
130.1211,-2.3847,-0.1309,-32.0364,-7.8530,-1.7293,-13.6429,-235.1118,47.9152,-69.5203,1461,1538,0.7743,0.1468,-0.3921,9.8009,-7.6675,0.3849,-0.9548,0.1210,-0.3873,9.9211,-8.0385,0.2726,-1.0167
130.1396,-2.5489,-0.1048,-32.0522,-8.8263,-3.6480,-26.9888,-215.5711,51.2247,-74.8225,1458,1541,0.8703,-0.1094,-0.4232,9.9421,-8.5225,-0.0426,-0.8327,-0.2094,-0.4089,9.8876,-9.1301,-0.1320,-0.8946
130.1580,-2.7208,-0.1562,-32.0647,-9.9523,-5.5931,-39.4505,-199.4687,54.6910,-79.0204,1456,1543,0.9498,0.2808,-0.3897,9.9421,-9.6294,-0.2258,-0.8785,0.0874,-0.3155,9.9307,-10.2752,0.7001,-0.4518
130.1765,-2.9215,-0.1920,-32.0792,-11.5668,-6.6029,-47.4615,-199.4945,58.7346,-85.2258,1453,1546,1.0000,0.3096,-0.4089,9.7674,-11.1561,1.2017,-0.8632,0.2885,-0.2987,10.0288,-11.9774,1.6314,-0.5816
130.1949,-3.1433,-0.1995,-32.0896,-13.3416,-7.6137,-54.8749,-203.6674,63.2019,-88.6278,1451,1548,1.0000,0.2042,-0.4017,9.9517,-13.0874,1.6139,-0.6495,0.1976,-0.1072,9.7822,-13.5958,1.5550,-0.3144
130.2133,-3.3264,-0.1829,-32.0972,-13.2080,-8.4528,-45.6142,-251.4011,66.8959,-103.8403,1442,1557,1.0000,0.0510,-0.2580,9.8464,-13.2324,1.2704,-0.4510,0.0898,-0.3682,9.7439,-13.1835,0.9749,-0.2228
130.2317,-3.5068,-0.2131,-32.0979,-13.9103,-9.2714,-44.4569,-275.5025,70.5404,-112.4109,1438,1561,1.0000,0.2138,-0.2173,9.6812,-13.4309,0.6750,-0.2220,0.3029,-0.1647,9.7702,-14.3897,0.4100,0.2352
130.2501,-3.7348,-0.2216,-32.0937,-14.7232,-10.0892,-44.4777,-301.6739,75.1366,-122.0370,1432,1567,1.0000,0.1659,-0.4041,9.7793,-14.7973,0.6444,0.0605,0.2814,-0.2006,9.6721,-14.6492,1.5016,0.5405
130.2685,-3.9101,-0.2001,-32.0832,-13.9408,-10.6669,-31.3600,-359.6303,78.6824,-140.0377,1422,1577,1.0000,0.0654,-0.2604,9.6860,-13.8584,1.6673,0.4421,-0.0802,-0.1120,9.4829,-14.0232,1.1505,0.9375
130.2871,-4.0908,-0.1912,-32.0665,-15.1469,-11.3389,-36.2394,-366.3768,82.3380,-143.7545,1420,1579,1.0000,0.0558,-0.2054,9.6093,-14.5912,0.7131,0.7246,0.2694,-0.1096,9.8229,-15.7026,0.7459,1.2199
130.3055,-4.2886,-0.1766,-32.0441,-15.2309,-11.9227,-31.6120,-402.4609,86.3358,-155.8569,1414,1585,1.0000,0.0582,-0.3083,9.6189,-15.2095,0.8200,1.0834,0.3676,-0.2317,9.5188,-15.2523,1.3566,1.5329
130.3240,-4.4418,-0.1354,-32.0145,-14.7996,-12.3543,-23.3646,-443.8418,89.4438,-168.9976,1407,1592,1.0000,-0.0184,-0.1694,9.5231,-14.5759,1.5757,1.4956,-0.0251,-0.2964,9.7128,-15.0232,1.4711,1.9985
130.3425,-4.6203,-0.1344,-31.9810,-13.7003,-12.5562,-10.9304,-500.1967,93.0603,-186.5853,1397,1602,1.0000,0.1396,-0.4041,9.5519,-14.2095,1.1864,1.7551,-0.1735,-0.3466,9.4255,-13.1912,1.2726,2.0978
130.3609,-4.7686,-0.0588,-31.9426,-11.2996,-12.3677,10.2490,-578.2605,96.0740,-209.9500,1384,1615,1.0000,-0.2746,-0.5238,9.9373,-11.8049,0.9956,1.9612,-0.1280,-0.3035,9.3106,-10.7942,0.0665,2.3421
130.3793,-4.8352,-0.0384,-31.9151,-11.5019,-12.2378,7.0428,-576.6961,97.4552,-210.2025,1384,1615,1.0000,-0.0759,-0.1431,9.7578,-10.9805,0.1635,2.3887,0.1305,0.0340,9.8780,-12.0232,-0.1244,0.6321
130.3978,-4.8914,-0.0261,-31.8649,-12.1126,-12.2190,1.0164,-565.8094,98.6284,-207.7408,1385,1614,1.0000,0.0342,-0.0473,9.7003,-12.3774,0.4994,2.7398,0.0922,-0.1647,9.5811,-11.8477,1.0436,2.8535
130.4163,-4.9511,0.0511,-31.8088,-9.4866,-11.8092,22.1418,-633.5145,99.8707,-227.3194,1374,1625,1.0000,-0.2483,-0.2987,9.6955,-9.6446,1.0032,3.1215,-0.2310,-0.2293,9.6098,-9.3286,0.8451,3.1283
130.4351,-4.9599,0.1099,-31.7511,-9.0973,-11.4024,21.6741,-633.1781,100.0959,-227.3379,1374,1625,1.0000,-0.1358,-0.1072,9.7817,-8.9271,1.1864,3.1521,-0.0826,-0.1647,9.8995,-9.2675,1.5856,3.2352
130.4537,-4.9765,0.1913,-31.6934,-9.5248,-11.1207,15.1126,-616.1962,100.4785,-222.7742,1377,1622,1.0000,-0.1812,-0.1072,9.7530,-9.5835,1.6902,3.1215,-0.1903,-0.2173,9.7032,-9.4660,2.6772,3.4413
130.4722,-4.9680,0.2059,-31.6330,-7.4446,-10.5693,29.8047,-657.5320,100.3583,-234.2881,1371,1628,1.0000,-0.0639,-0.1718,9.6740,-7.8584,0.6215,3.1215,-0.1017,-0.2413,9.7942,-7.0309,-0.3839,3.4108
130.4907,-4.9984,0.1509,-31.5697,-6.8263,-10.0079,30.4000,-662.7411,101.0156,-236.0753,1370,1629,1.0000,0.1539,-0.4113,9.8009,-7.1713,-1.2411,3.3429,-0.1233,-0.2150,9.4374,-6.4813,-1.0098,3.2963
130.5091,-5.0471,0.0750,-31.5101,-2.3339,-8.8568,62.5157,-760.8367,102.0397,-264.0541,1354,1645,1.0000,0.2521,-0.9021,9.9709,-3.1713,-1.3174,3.1597,0.0036,-0.7560,9.3824,-1.4965,-1.2312,3.1131
130.5275,-5.0202,0.0894,-31.4530,-2.1202,-7.8463,54.9293,-735.9011,101.5534,-256.8290,1358,1641,1.0000,-0.0735,-0.5525,9.7123,-2.2629,-0.2258,3.1444,0.1712,-0.5669,9.3752,-1.9774,-0.0633,3.0444
130.5459,-4.9560,0.0863,-31.4024,2.1432,-6.3479,81.1972,-804.1586,100.3181,-275.3235,1348,1651,1.0000,0.0103,-0.7680,10.2007,1.1569,0.1864,2.8009,0.0012,-1.0888,9.3872,3.1294,-0.4221,2.6779
130.5644,-4.8620,0.0894,-31.3646,4.4371,-2.9051,53.9194,-714.7813,98.4868,-249.3822,1362,1637,1.0000,-0.0160,-0.7752,9.6572,3.7829,-0.1342,2.1521,-0.1687,-1.1080,9.6003,5.0913,0.0131,1.9527
130.5828,-4.8336,0.0596,-31.3361,9.2195,0.0000,0.0000,-556.2251,97.9672,-204.7266,1387,1612,1.0000,0.1611,-1.4934,9.7171,7.3859,0.3315,1.8238,-0.1304,-1.1822,9.1382,11.0531,0.1428,1.3497
130.6012,-4.7122,-0.0204,-31.3212,15.2424,0.0000,0.0000,-542.2537,95.5863,-199.6242,1390,1609,1.0000,0.2569,-1.6323,10.1409,14.1798,-1.2334,1.0299,0.0228,-1.4863,9.6529,16.3050,-1.7350,0.3344
130.6196,-4.5068,-0.0816,-31.3017,17.8913,0.0000,0.0000,-518.6149,91.5233,-190.9738,1394,1605,1.0000,0.1372,-1.3666,9.6285,17.3783,-1.7754,2.2818,-0.1161,-1.3809,9.5260,18.4042,-1.9946,-0.6198
130.6381,-4.3713,-0.1146,-31.3022,21.5554,5.2045,143.6796,-916.8149,88.8565,-301.1364,1334,1665,1.0000,0.0917,-2.0250,9.8033,19.3935,-1.1189,-0.6647,0.1736,-1.3594,8.9993,23.7172,-0.6205,0.4566
130.6565,-4.1258,-0.1439,-31.3350,25.7577,8.5782,164.3674,-948.1417,83.9875,-307.4734,1330,1669,1.0000,0.0965,-1.7903,9.5040,24.8821,-0.2411,-1.5655,0.2143,-1.1678,9.8612,26.6332,-0.8037,-2.1618
130.6750,-3.7372,-0.1430,-31.3742,27.5210,11.4196,153.9175,-873.3327,76.2541,-282.6602,1344,1655,1.0000,-0.0041,-1.2732,9.9206,26.6836,-0.1800,-1.7411,-0.2023,-1.4623,9.0783,28.3584,-0.2083,-2.6503
130.6935,-3.3599,-0.1213,-31.4295,30.0401,14.2127,151.0369,-821.6179,68.7417,-264.4239,1354,1645,1.0000,-0.0759,-1.5222,10.0882,29.8897,0.4841,-2.5655,-0.0706,-1.3450,10.0360,30.1905,-0.0633,-3.5205
130.7119,-2.9542,-0.0629,-31.4950,29.2157,16.4631,122.0561,-691.4613,60.6563,-223.9373,1376,1623,1.0000,-0.3632,-1.1750,9.7362,28.5615,-0.6762,-3.1456,0.0587,-1.8957,10.2012,29.8699,-1.4221,-4.2228
130.7303,-2.4720,-0.0834,-31.5844,35.6661,19.3436,156.3578,-734.7659,51.0379,-231.2534,1372,1627,1.0000,0.1228,-1.3474,9.9733,34.4165,0.3315,-4.3441,-0.0107,-1.0745,9.2172,36.9157,0.3489,-5.4671
130.7489,-1.8888,-0.1287,-31.6859,37.8073,22.1131,149.4625,-539.8273,39.3920,-170.8476,1406,1593,1.0000,0.0941,-0.9978,9.9278,37.7294,-1.1113,-5.1151,-0.0993,-0.0761,10.3377,37.8852,-1.6969,-6.1007
130.7673,-1.2053,-0.0980,-31.7951,37.5821,24.4335,125.6795,-417.2058,25.7341,-129.6847,1428,1571,1.0000,-0.1334,-0.3825,10.3994,37.1722,-0.0731,-5.6724,0.2526,-0.7872,10.0432,37.9920,0.4176,-6.3373
130.7859,-0.5266,-0.1200,-31.9009,38.3798,26.5254,112.8931,-385.7267,12.1657,-114.0863,1437,1562,1.0000,0.1444,-0.3658,9.8344,39.8134,0.1864,-5.2754,-0.1280,-0.3514,12.3033,36.9462,0.4176,-6.2992
130.8044,-0.0177,-0.1451,-32.0082,31.9790,27.3435,44.1990,-129.3343,0.3549,-36.3911,1479,1520,1.0000,0.3072,-0.4951,10.2893,31.0042,1.8200,-5.7334,0.0300,-0.4017,9.5931,32.9539,1.7077,-5.9098
130.8228,0.6689,-0.0115,-32.1059,39.2081,29.1232,96.4637,-200.8498,-13.3840,-49.5460,1472,1527,1.0000,-0.6792,-0.1862,9.7650,40.1798,-1.2258,-5.2602,-0.4752,0.3453,10.2132,38.2363,-0.7732,-5.5740
130.8413,1.2889,-0.0055,-32.2026,23.7157,28.3120,-43.9739,274.9573,-25.7908,89.8835,1549,1450,1.0000,-0.0783,0.7571,7.8304,26.7294,0.1940,-5.1380,-0.2573,0.9917,11.2690,20.7019,-2.3534,-5.4442
130.8598,1.7247,-0.0162,-32.2931,24.2157,27.6976,-33.2143,294.1221,-34.5249,99.6166,1554,1445,1.0000,-0.1501,0.1921,10.7298,22.9890,-3.1189,-4.8708,-0.0227,-0.0905,9.5332,25.4424,-1.4221,-4.8640
130.8782,2.1484,-0.0413,-32.3770,22.3378,26.8936,-43.5977,372.7739,-43.0189,125.8861,1569,1430,1.0000,0.3215,0.3285,9.5854,24.1035,2.0032,-4.6495,0.2048,0.7044,10.7495,20.5722,2.5092,-4.6198
130.8967,2.4635,-0.0281,-32.4488,5.4371,23.6751,-174.1485,785.0275,-49.3469,244.4811,1634,1365,1.0000,0.1180,1.2407,8.8145,7.7065,3.1330,-4.1151,0.2000,0.9630,10.5220,3.1676,0.8451,-3.8259
130.9151,2.5337,0.1094,-32.5265,6.3836,21.0814,-140.7394,696.8789,-50.7747,220.5135,1621,1378,1.0000,-0.2866,0.2040,9.7482,4.5310,3.3544,-5.4892,-0.4944,0.2376,8.8317,8.2363,4.2421,-3.2228
130.9336,2.5951,0.0797,-32.5779,7.1699,18.9947,-113.2114,624.6650,-52.0289,200.9207,1610,1389,1.0000,0.1635,0.0891,9.7027,8.2867,0.2856,-2.7945,-0.5782,0.7691,10.1222,6.0531,0.2039,-2.7953
130.9520,2.7070,0.0870,-32.6163,0.1737,16.1715,-153.1861,752.6715,-54.2944,237.8952,1630,1369,1.0000,-0.2195,0.9582,9.7841,2.4012,-1.8823,-2.1991,-0.0251,0.3381,10.6369,-2.0538,-2.2312,-1.7953
130.9704,2.6340,0.1169,-32.6382,-5.5553,12.9125,-176.5746,811.6341,-52.8615,253.6883,1639,1360,1.0000,-0.1525,0.5823,9.5016,-4.6294,-0.4701,-1.4052,-0.1663,0.5273,10.1677,-6.4813,0.2955,-0.9480
130.9889,2.4151,0.0873,-32.6390,-13.6584,8.9269,-216.3501,900.9903,-48.5063,276.5304,1652,1347,1.0000,0.0486,0.5704,9.3292,-11.1790,-0.9281,-0.1685,-0.0490,0.6685,10.8668,-16.1377,-0.6740,0.1283
131.0074,2.1476,0.1318,-32.6251,-25.2080,0.6776,-49.2059,388.8379,-43.1786,79.5697,1543,1456,0.6099,-0.1908,1.2168,8.8216,-21.8889,-0.5693,0.4269,0.0874,0.5512,10.2634,-28.5271,1.0436,1.0367
131.0259,1.7621,0.1331,-32.5933,-32.3683,0.0000,-0.0000,202.7668,-35.4866,24.2151,1513,1486,0.3250,0.2066,1.3245,9.5471,-30.3393,2.6063,1.2589,-0.0347,1.1330,9.8301,-34.3973,2.9749,1.9146
131.0444,1.2662,0.1296,-32.5674,-39.2271,-7.2607,-304.0970,851.2504,-25.5809,251.1406,1638,1361,1.0000,0.0941,1.3581,9.5926,-37.1408,1.2017,1.9231,-0.1017,0.8002,10.5436,-41.3133,1.1505,0.6321
131.0629,0.5338,0.2292,-32.5110,-46.4217,-13.1349,-317.6634,813.5799,-10.9384,233.2716,1628,1371,1.0000,-0.3464,0.7499,9.1161,-44.6981,0.6444,2.4574,-0.1975,0.2352,9.9139,-48.1454,2.1886,3.5329
131.0814,-0.3345,0.2342,-32.4542,-44.4370,-17.8302,-253.8194,692.5089,6.6934,190.5558,1604,1395,1.0000,0.0678,-0.1024,10.0044,-45.5912,1.8658,2.7551,-0.1304,-0.9787,9.5332,-43.2828,0.9902,3.2123
131.0998,-1.0573,0.2982,-32.3911,-34.2690,-20.2960,-133.7788,263.6147,21.1575,63.2334,1534,1465,1.0000,-0.3081,-0.4879,9.7362,-33.5454,0.3009,3.0681,-0.3052,-0.1479,10.3113,-34.9927,0.2268,3.7543
131.1182,-1.5937,0.2083,-32.3179,-44.2919,-23.8954,-195.4119,379.3972,31.9010,90.2807,1549,1450,1.0000,0.2808,1.0444,9.1353,-40.5530,-1.1571,3.2666,-0.3076,0.6350,10.3472,-48.0309,-0.8953,4.4184
131.1367,-2.4804,0.1625,-32.2297,-48.6965,-27.6156,-201.5047,294.9104,49.6597,57.7451,1531,1468,1.0000,0.1300,-0.2125,10.0642,-50.0187,-1.3937,4.1902,0.2790,-0.4232,9.5500,-47.3744,-0.0480,5.1131
131.1552,-3.3516,0.1474,-32.1428,-38.9408,-29.3144,-92.0535,-120.5623,67.1172,-67.3160,1462,1537,1.0000,0.2952,-1.1583,10.1552,-41.3240,1.6215,4.3429,-0.0203,-1.3235,9.2076,-36.5576,3.4329,5.1970
131.1736,-4.1456,0.2217,-32.0422,-41.3148,-31.1144,-97.6671,-195.7696,83.0388,-96.3349,1447,1552,1.0000,-0.0855,-0.6842,9.2239,-38.0187,4.2169,6.1368,-0.0897,-0.9619,11.0080,-44.6110,1.5016,5.0291
131.1920,-5.0147,0.2087,-31.9738,-42.6164,-32.8397,-93.7685,-307.0108,100.4698,-136.1979,1425,1574,1.0000,-0.2219,-1.1247,10.0403,-44.7820,-2.6762,4.1979,0.0372,-1.3737,9.2722,-40.4507,-3.4144,2.6092
131.2104,-5.7876,0.1148,-31.9004,-29.8110,-32.3854,24.6703,-737.0689,115.9857,-264.3722,1354,1645,1.0000,0.2832,-1.9651,10.0451,-32.5835,-2.0731,3.6711,0.3269,-1.8406,8.8150,-27.0385,-1.6892,3.8764
131.2288,-6.4609,0.0276,-31.8376,-19.8072,-30.4987,102.3808,-1038.3707,129.5165,-355.5021,1304,1695,1.0000,0.4005,-2.4032,9.5208,-21.3164,-1.9205,2.9689,-0.1711,-2.2907,8.7312,-18.2981,1.2650,3.7085
131.2472,-6.9881,-0.0255,-31.7939,-17.5782,-28.5606,105.3357,-1107.5661,140.1309,-380.1840,1290,1709,1.0000,0.3000,-2.1590,10.1361,-17.5072,1.3162,2.4421,0.3269,-1.8167,9.0424,-17.6492,-0.9259,2.3039
131.2656,-7.2783,-0.0264,-31.7623,-9.9370,-25.7671,151.8923,-1275.0527,146.0076,-430.0185,1263,1736,1.0000,-0.0520,-1.7544,10.2055,-12.4156,0.0185,1.3963,0.0084,-2.4487,8.6162,-7.4584,-1.8037,1.8306
131.2841,-7.4320,0.0384,-31.7471,-2.0324,-22.2069,193.0319,-1411.2214,149.1549,-469.7195,1241,1758,1.0000,-0.1980,-1.8119,9.7290,-0.2935,-2.4853,0.9689,-0.8535,-1.1583,9.5428,-3.7713,4.6848,0.9146
131.3025,-7.6333,-0.4250,-31.7180,-9.5210,-20.3040,103.1627,-1175.5745,153.2580,-405.7899,1276,1723,1.0000,1.8275,-1.3163,9.2454,-9.3469,-3.7831,1.4498,0.8847,-1.8334,10.3233,-9.6950,-3.0175,0.6627
131.3210,-7.6029,-0.3735,-31.7290,6.3531,-16.3054,216.4526,-1498.3521,152.7264,-495.9018,1227,1772,1.0000,0.0247,-1.6275,9.5615,2.4699,2.3162,-0.1838,-0.9325,-2.5685,6.4136,10.2363,1.6085,-0.5740
131.3394,-7.4517,-0.3854,-31.7417,12.1813,-12.0324,231.8301,-1525.2298,149.7762,-501.9524,1223,1776,1.0000,-0.2291,-1.8358,10.6915,13.8974,-4.1800,-0.4052,-0.4345,-0.6459,11.8460,10.4653,-3.2465,-2.0778
131.3578,-7.4170,-0.2152,-31.7797,10.1890,-8.6992,181.0826,-1375.0885,149.1573,-459.6034,1247,1752,1.0000,-0.6888,-1.7185,8.4505,6.6913,-0.3861,-1.7105,0.1305,-2.2404,8.0105,13.6867,0.0665,-2.6503
131.3762,-7.0013,-0.1563,-31.8494,32.4981,0.0000,0.0000,-805.7231,140.9138,-296.0594,1337,1662,1.0000,0.0965,-1.9795,8.9677,27.8287,4.8429,-2.6495,-0.4800,-1.1463,8.2499,37.1676,3.6695,-4.0320
131.3946,-6.3055,-0.0880,-31.9140,35.7958,0.0530,5.1285,-740.4052,127.0609,-270.8439,1351,1648,1.0000,-0.5523,-0.9787,9.3508,36.1493,-1.2640,-3.5197,-0.4273,-1.2971,10.9290,35.4424,-4.5747,-4.4518
131.4130,-5.5494,-0.0438,-31.9905,41.0897,8.9070,307.9761,-1525.5792,111.9938,-483.1591,1234,1765,1.0000,-0.4805,-1.2995,11.4146,38.4775,-2.7983,-4.1991,0.4609,0.3764,8.0991,43.7019,-1.0404,-4.7724
131.4315,-4.4189,-0.1296,-32.0879,46.9943,14.6201,309.9128,-1401.0430,89.4267,-437.0054,1259,1740,1.0000,0.5753,0.2807,9.5136,47.0806,2.3467,-5.1151,-0.2334,-0.1623,11.1206,46.9081,2.4405,-5.2381
131.4499,-3.4845,-0.0586,-32.1670,38.7271,18.2362,196.0679,-965.6494,70.7755,-305.7696,1331,1668,1.0000,-0.8396,0.2663,9.8009,40.2638,-5.2258,-4.5731,0.2119,0.1131,10.9386,37.1905,-6.1625,-5.1618
131.4684,-2.6660,-0.1366,-32.2603,35.5210,20.8289,140.4038,-711.1378,54.4306,-226.3339,1375,1624,1.0000,0.2114,0.1346,9.3627,35.2714,-2.4777,-4.9930,-0.1568,0.9989,9.6242,35.7706,-0.6587,-5.4289
131.4869,-1.9534,-0.1964,-32.3523,31.4180,22.4173,86.0089,-393.7400,40.1996,-130.3470,1428,1571,1.0000,-0.0496,0.1370,10.0164,32.9203,-3.3785,-4.6953,-0.4393,0.9821,10.2012,29.9157,-4.6663,-5.7572
131.5052,-1.2352,-0.1718,-32.4493,27.0935,23.1187,38.1344,-209.9673,25.8471,-71.7144,1460,1539,1.0000,-0.4398,0.6877,9.7027,28.0424,-3.9739,-5.2373,0.4705,0.3166,9.8277,26.1447,-3.8266,-5.6732
131.5236,-0.6256,-0.3612,-32.5504,20.4180,22.7136,-22.0451,-7.0792,13.6610,-8.8126,1495,1504,1.0000,0.7429,0.8696,9.5351,22.0729,-1.8212,-5.5731,0.7722,0.1945,9.6840,18.7630,-1.5900,-5.4213
131.5422,-0.2996,-0.4517,-32.6467,17.8378,21.9822,-39.3263,65.6550,5.9948,15.3860,1508,1491,1.0000,0.4580,-0.1479,9.7769,17.8974,-0.9357,-4.9624,0.0060,0.4411,9.4638,17.7783,0.4024,-5.4289
131.5607,-0.0048,-0.4511,-32.7388,15.0477,20.9421,-56.3785,161.8197,0.0957,45.2616,1524,1475,1.0000,0.0845,0.0221,9.7338,16.3248,0.4536,-5.2220,-0.4441,-0.0402,9.8995,13.7706,-0.4908,-4.7495
131.5791,0.2194,-0.4100,-32.8208,10.9256,19.4396,-81.6856,260.5005,-4.3901,75.1352,1541,1458,1.0000,-0.2315,0.1107,10.0020,11.6607,-1.9205,-4.5884,-0.1687,-0.1982,9.9426,10.1905,-0.6740,-4.3297
131.5975,0.3615,-0.3725,-32.9041,8.3836,17.7812,-89.7744,300.1533,-7.2346,87.6602,1548,1451,1.0000,-0.2435,-0.0210,9.9397,8.8974,-0.8594,-4.5884,-0.2118,-0.2557,9.3920,7.8699,-2.4450,-4.4289
131.6160,0.3959,-0.3934,-32.9818,6.8302,16.1385,-88.9325,301.6803,-7.9218,88.4314,1548,1451,1.0000,-0.0998,-0.3873,10.1289,7.0119,-2.6533,-4.3212,0.2119,0.0364,10.1198,6.6485,-3.3076,-4.1160
131.6344,0.4462,-0.4509,-33.0537,5.1317,14.4875,-89.7577,309.8408,-8.9276,91.2192,1550,1449,1.0000,0.0965,-0.1383,9.6141,5.4546,-2.8441,-4.0006,0.1928,-0.1527,10.1605,4.8088,-2.6969,-3.7953
131.6528,0.5489,-0.4992,-33.1171,3.8874,12.8975,-86.2898,311.6754,-10.9834,92.7608,1551,1448,1.0000,0.1923,0.2184,9.6524,4.3859,-2.2792,-3.3289,-0.6260,-0.0354,9.7128,3.3890,-0.5824,-3.5129
131.6713,0.5992,-0.5584,-33.1735,-0.7538,10.8498,-110.7198,387.8215,-11.9898,114.5849,1563,1436,1.0000,0.0055,0.3836,9.5902,1.5386,-3.7373,-2.9624,0.5950,-0.2245,9.6649,-3.0461,-4.3381,-3.0015
131.6897,0.6185,-0.4547,-33.2207,-1.8454,8.9455,-103.3825,368.9137,-12.3765,109.4841,1560,1439,1.0000,-0.4518,0.3357,9.3412,-1.9118,-0.9128,-2.4815,0.3939,0.1561,9.0376,-1.7790,-0.7579,-2.5816
131.7083,0.5787,-0.3855,-33.2562,-3.6889,7.0504,-102.3973,361.4912,-11.5792,107.0071,1558,1441,1.0000,-0.1741,0.2304,9.4537,-2.8049,0.4383,-1.8250,0.0491,-0.0881,10.2515,-4.5729,1.0970,-2.0091
131.7266,0.3091,-0.4251,-33.2933,-11.0095,1.8277,-61.9975,178.4331,-6.1849,0.0000,1500,1500,0.0000,0.3096,-0.1982,8.8911,-10.5530,0.7742,-2.1991,-0.1663,-0.1120,9.6505,-11.4660,1.1047,-1.9251
131.7451,-0.0385,-0.4090,-33.3257,-10.8683,0.0000,-0.0000,-3.6894,0.7699,-0.0000,1500,1500,0.0000,0.0965,-0.6220,9.6117,-11.5759,1.2398,-1.9014,0.0635,-0.1934,9.2579,-10.1606,1.0894,-1.7572
131.7636,-0.2450,-0.4058,-33.3592,-7.6584,0.0000,-0.0000,-23.4896,4.9017,-0.0000,1500,1500,0.0000,0.1085,-0.3083,9.9637,-8.1561,0.6139,-2.0311,0.0204,-0.5023,9.6769,-7.1606,0.5550,-1.6350
131.7820,-0.4977,-0.3672,-33.3909,-8.5171,0.0000,-0.0000,-47.7297,9.9600,-0.0000,1500,1500,0.0000,-0.1190,-0.4831,9.6333,-7.6446,-0.3021,-1.8327,-0.0514,-0.4879,9.6505,-9.3897,0.1199,-1.6808
131.8006,-0.7928,-0.3631,-33.4338,-6.6660,0.0000,-0.0000,-76.0183,15.8631,-0.0000,1500,1500,0.0000,0.0989,-0.8901,10.1001,-7.1866,0.2856,-2.1609,0.0779,-1.3833,9.2627,-6.1454,1.0283,-2.6045
131.8191,-1.0229,-0.3459,-33.4826,1.8798,0.0000,0.0000,-117.7053,20.4684,-0.0169,1499,1500,0.0004,0.0869,-1.3953,9.9445,1.0424,1.2780,-2.5579,0.0276,-1.1152,9.2938,2.7172,1.1886,-2.9022
131.8375,-1.0949,-0.3109,-33.5377,3.5172,0.0000,0.0000,-125.9884,21.9190,-0.3024,1499,1500,0.0065,0.0199,-0.8087,9.8033,3.3096,1.6215,-2.9014,0.0060,-1.0218,9.7463,3.7248,1.3566,-3.1236
131.8560,-1.1121,-0.2633,-33.5773,7.3035,0.0000,0.0000,-127.9709,22.2747,-0.4263,1499,1500,0.0091,-0.0735,-0.8949,9.8392,6.3096,1.1406,-2.9014,-0.1280,-0.8949,9.5332,8.2974,1.1352,-1.3679
131.8744,-1.0855,-0.2127,-33.6402,9.5019,0.0000,0.0000,-124.9119,21.7539,-0.2444,1499,1500,0.0053,-0.0352,-0.8829,9.7626,8.7676,1.6597,-3.3212,0.1617,-0.5693,9.4159,10.2363,2.2039,-3.5282
131.8928,-0.9600,-0.2230,-33.7075,11.9676,0.2993,6.8338,-130.1441,19.2521,-0.0000,1500,1500,0.0000,0.2354,-0.6363,9.9349,11.4394,1.9727,-3.6342,0.1808,-0.5310,9.3297,12.4958,1.5627,-3.6427
131.9112,-0.7688,-0.2153,-33.7801,12.0897,3.1690,45.7759,-183.5821,15.3835,-0.5413,1499,1500,0.0092,0.2066,-0.3083,9.6237,12.2561,2.0414,-3.8556,0.1976,-0.2461,9.6601,11.9233,2.9749,-3.9709
131.9297,-0.5736,-0.1955,-33.8535,10.0859,5.3496,40.8265,-152.9853,11.4775,-42.7159,1476,1523,0.8794,0.2473,-0.0952,9.6716,10.7447,3.6444,-3.9014,0.1353,0.0915,10.1030,9.4271,3.5169,-3.9785
131.9481,-0.3593,-0.1979,-33.9262,7.4332,5.8572,14.7740,-69.9124,7.1899,-23.0180,1487,1512,0.9934,0.2832,0.2543,9.6572,7.5768,2.7513,-3.8632,0.3604,0.3213,9.9211,7.2897,3.0207,-3.9556
131.9665,-0.1645,-0.1836,-33.9933,5.4485,5.7564,-3.5022,-7.3668,3.2912,-3.6390,1497,1502,0.9813,0.2521,0.3692,9.8128,6.0577,3.2627,-3.6724,0.2909,0.6589,10.0288,4.8394,3.4253,-3.5434
131.9850,-0.0229,-0.2021,-34.0382,0.9371,3.9571,-30.8032,71.7299,0.4586,4.7732,1502,1497,0.2404,0.2018,0.5249,9.5950,1.9355,1.2169,-3.3441,0.1329,0.9127,10.1916,-0.0614,0.8146,-1.3755
132.0035,0.0602,-0.1716,-34.0925,-3.3225,0.7081,-12.6501,36.1326,-1.2046,0.0000,1500,1500,0.0000,0.1635,0.6613,9.7626,-2.6370,3.0032,-3.0235,0.1928,0.6757,10.1916,-4.0080,3.3337,-2.8030
132.0219,0.0507,-0.1268,-34.1426,-6.5820,0.0000,-0.0000,4.8588,-1.0139,0.0000,1500,1500,0.0000,0.0773,0.5249,9.7650,-6.0110,3.1253,-2.8403,0.0779,0.5608,10.1629,-7.1530,2.8604,-2.5663
132.0403,-0.0351,-0.0685,-34.1839,-9.0324,0.0000,-0.0000,-3.3633,0.7018,-0.0000,1500,1500,0.0000,-0.0089,0.3860,9.9254,-8.3164,2.6597,-2.4205,0.0108,0.3142,10.1988,-9.7484,2.9902,-2.0396
132.0587,-0.1762,0.0248,-34.2213,-11.1622,0.0000,-0.0000,-16.8930,3.5251,-0.0000,1500,1500,0.0000,-0.1022,0.2974,9.9469,-10.5454,2.9192,-2.1762,-0.0730,0.2447,10.2634,-11.7790,4.6848,-1.8411
132.0772,-0.3905,0.1267,-34.2554,-13.2729,-0.0000,-0.0003,-37.4473,7.8144,-0.0000,1500,1500,0.0000,-0.2938,0.1107,9.9637,-12.8584,2.2398,-2.0388,-0.0993,0.1250,10.0911,-13.6874,2.2802,-1.6198
132.0956,-0.6260,0.1692,-34.2836,-13.7156,-2.5574,-48.3461,67.2001,12.5269,0.0000,1500,1500,0.0000,-0.0400,0.0173,10.1385,-13.8660,2.2017,-1.6724,-0.0514,-0.0833,9.9043,-13.5652,2.0283,-1.3526
132.1141,-0.8671,0.1933,-34.3274,-12.8110,-5.7918,-66.1219,90.6526,17.3510,16.4771,1509,1490,0.9862,-0.0065,-0.1335,10.2223,-12.9271,1.5147,-3.5121,-0.1352,-0.1312,10.1437,-12.6950,1.6466,-1.0931
132.1326,-1.0929,0.2421,-34.3522,-12.0362,-6.7694,-50.2101,18.8433,21.8694,-5.6586,1496,1503,1.0000,-0.1238,-0.1694,10.2869,-12.1026,1.6215,-1.4052,-0.1041,-0.1766,10.1126,-11.9698,1.7306,-1.2152
132.1510,-1.3038,0.2818,-34.3738,-11.2614,-7.4432,-36.5252,-44.8337,26.0998,-25.6033,1485,1514,1.0000,-0.0998,-0.2078,10.2031,-11.3698,1.4536,-1.3212,-0.2358,-0.2628,10.1126,-11.1530,1.5703,-0.9480
132.1695,-1.5133,0.3166,-34.3948,-10.1660,-7.8516,-22.1332,-110.3904,30.3050,-46.0618,1474,1525,1.0000,-0.1094,-0.3370,10.2246,-10.4385,1.4002,-1.2296,-0.1376,-0.3371,10.0097,-9.8935,1.0741,-0.9709
132.1879,-1.6932,0.3421,-34.4168,-8.3187,-7.9217,-3.7943,-183.9092,33.9202,-68.4547,1462,1537,1.0000,-0.0903,-0.3945,10.2103,-8.5759,1.0108,-1.2678,-0.0945,-0.4232,9.9474,-8.0614,1.0589,-1.0473
132.2064,-1.8380,0.3770,-34.4418,-7.1011,-7.7986,6.6712,-230.7148,36.8350,-83.0176,1454,1545,1.0000,-0.0543,-0.3610,10.0379,-7.2706,3.0948,-1.3670,0.0611,-0.3682,10.0719,-6.9316,0.8680,-1.2076
132.2249,-1.9529,0.3516,-34.4637,-5.8148,-7.5010,16.0803,-271.0291,39.1515,-95.4639,1447,1552,1.0000,0.0558,-0.3586,10.1193,-6.0950,0.3238,-1.1609,0.0036,-0.3107,9.9522,-5.5347,-0.2694,-1.2076
132.2434,-2.0033,0.3062,-34.4830,-4.6889,-7.0792,22.8360,-296.2895,40.1804,-103.0512,1443,1556,1.0000,0.0965,-0.1718,10.2270,-4.9042,-0.5617,-1.1075,-0.0011,-0.2006,10.0216,-4.4736,-0.7656,-1.0549
132.2618,-2.0198,0.2549,-34.5005,-4.4904,-6.6909,21.0220,-292.9656,40.5309,-102.2958,1443,1556,1.0000,0.1300,-0.0354,10.1337,-4.4538,-0.5388,-1.0846,-0.1831,-0.0641,9.9354,-4.5271,-0.9411,-0.8869
132.2803,-2.0365,0.2255,-34.5158,-4.6622,-6.3866,16.4927,-281.8397,40.8846,-99.3574,1445,1554,1.0000,-0.0567,-0.0234,10.0547,-4.6370,-1.5846,-0.9166,0.0396,-0.0737,10.1868,-4.6874,-1.7732,-0.9022
132.2987,-2.0727,0.1781,-34.5309,-4.9828,-6.1760,11.4301,-271.4258,41.6295,-96.8140,1446,1553,1.0000,-0.0184,-0.0976,9.9445,-4.9194,-1.9052,-0.8556,0.0898,0.2040,9.9953,-5.0461,-2.6816,-0.9785
132.3171,-2.0392,0.1326,-34.5455,-5.5057,-6.0755,5.4580,-250.3668,40.9791,-90.5923,1450,1549,1.0000,-0.0208,0.2807,9.9876,-5.2248,-2.1647,-0.7716,0.0803,0.0915,10.0504,-5.7866,-2.4526,-1.0320
132.3356,-2.0159,0.0813,-34.5594,-7.2843,-6.2568,-9.7949,-203.7646,40.5346,-77.3214,1457,1542,1.0000,-0.0041,0.3860,9.8775,-6.4767,-2.5540,-0.8174,0.1880,0.2160,10.1150,-8.0919,-2.3992,-0.9022
132.3541,-2.0549,0.0074,-34.5692,-10.8263,-6.9422,-37.0786,-129.6696,41.3341,-56.9745,1468,1531,1.0000,0.1085,0.3980,9.6764,-10.3164,-2.4166,-0.6876,0.1018,0.2495,9.8780,-11.3362,-2.6663,-0.5816
132.3726,-2.1252,-0.0480,-34.5764,-9.5057,-7.3267,-20.8331,-184.5515,42.7623,-73.0556,1459,1540,1.0000,0.0007,0.1394,10.0331,-9.8813,-3.0197,-0.5731,-0.0323,0.1801,9.6721,-9.1301,-2.9106,-0.4213
132.3910,-2.1994,-0.0857,-34.5839,-10.3835,-7.7853,-24.8418,-181.5423,44.2679,-72.9658,1459,1540,1.0000,-0.0520,0.1729,9.7051,-9.3851,-2.6915,-0.6266,0.0539,0.3142,9.9929,-11.3820,-2.7274,-0.3679
132.4095,-2.3426,-0.1526,-34.5871,-13.9904,-8.7160,-50.4856,-124.1670,47.1553,-58.3444,1467,1532,1.0000,0.0702,0.1562,9.6285,-13.3927,-3.0579,-0.2754,0.1401,-0.0905,9.9163,-14.5881,-2.8114,-0.2992
132.4279,-2.5596,-0.2350,-34.5925,-13.5668,-9.4436,-39.4276,-180.9792,51.5199,-76.4341,1457,1542,1.0000,0.2162,-0.2413,9.7602,-13.8126,-2.5998,-0.3670,0.1569,-0.3802,9.6817,-13.3210,-1.8343,-0.4213
132.4464,-2.7908,-0.2877,-34.6004,-12.1965,-9.8566,-22.3586,-256.7464,56.1724,-99.9752,1445,1554,1.0000,0.1109,-0.4591,9.6883,-12.3164,-1.7907,-0.5502,0.0348,-0.5070,9.4758,-12.0767,-2.2465,-0.5129
132.4649,-3.0220,-0.3513,-34.6101,-10.8187,-10.0009,-7.8195,-325.2301,60.8276,-121.4782,1433,1566,1.0000,0.1324,-0.6052,9.5423,-11.1408,-2.5540,-0.7487,-0.0299,-0.6866,9.2603,-10.4965,-2.3228,-0.5816
132.4833,-3.2596,-0.3995,-34.6280,-8.9408,-9.8419,8.6289,-399.9440,65.6123,-144.7905,1420,1579,1.0000,0.1204,-0.8326,9.5686,-9.5683,-2.1953,-1.1380,0.1569,-0.9093,8.9993,-8.3133,-1.3915,-1.0778
132.5017,-3.4811,-0.4198,-34.6506,-5.3492,-9.1680,36.6024,-505.9894,70.0757,-176.7149,1402,1597,1.0000,0.1396,-1.1056,9.5854,-6.1866,-0.2563,-1.1838,0.1808,-1.1271,9.1884,-4.5118,-0.0404,-1.4137
132.5201,-3.6433,-0.4148,-34.7024,-0.4408,-7.8589,71.0397,-623.8318,73.3556,-211.3507,1383,1616,1.0000,0.0534,-1.3211,9.8392,-1.5530,1.1559,-3.5655,-0.0299,-1.2660,9.0855,0.6714,-0.8114,-2.1083
132.5385,-3.7394,-0.4594,-34.7417,3.7462,-6.1181,94.4835,-702.4186,75.3167,-234.3356,1371,1628,1.0000,0.1611,-1.3905,9.7937,1.7142,-1.1876,-1.9624,-0.0419,-1.4336,9.1645,5.7783,-1.3915,-2.6350
132.5569,-3.7022,-0.5088,-34.7908,10.3187,-0.4433,16.2831,-472.9162,74.6090,-169.7210,1406,1593,1.0000,0.1923,-1.3713,9.8942,8.9279,-1.3403,-2.4815,0.0012,-1.1080,9.0640,11.7096,-1.1778,-3.1999
132.5754,-3.5132,-0.4879,-34.8290,15.0401,0.0000,0.0000,-404.2699,70.8639,-148.6275,1418,1581,1.0000,-0.1358,-1.0457,9.8320,13.9050,-0.9128,-2.9472,-0.0107,-1.1056,9.3058,16.1752,-1.7045,-1.4137
132.5939,-3.1887,-0.5113,-34.8922,17.0783,0.0000,0.0000,-366.9341,64.4070,-134.9451,1425,1574,1.0000,-0.0232,-0.5573,9.7147,15.4241,-2.0350,-3.2678,-0.1089,-0.6794,9.5619,18.7325,-2.6587,-3.8717
132.6123,-2.8270,-0.5659,-34.9745,19.4218,2.1886,70.0609,-527.0783,57.1998,-172.4542,1405,1594,0.9788,0.0414,-0.5238,9.6189,18.7523,-3.3327,-5.4815,0.0946,-0.1647,9.5476,20.0913,-3.1778,-3.7953
132.6309,-2.4092,-0.6383,-35.0425,19.9752,6.8022,125.3363,-638.1928,48.8678,-203.1279,1388,1611,1.0000,0.2114,-0.2580,9.4154,19.6913,-2.6915,-3.5960,0.1329,-0.2006,9.4374,20.2592,-1.9335,-3.9633
132.6493,-1.9972,-0.6624,-35.1152,19.5287,8.7112,103.6383,-528.2914,40.6475,-168.2454,1407,1592,1.0000,0.2449,-0.1671,9.4250,19.8745,0.2551,-3.6647,0.1569,-0.1527,9.6673,19.1829,0.7764,-4.1847
132.6677,-1.6606,-0.5929,-35.1881,17.7577,10.0682,73.7640,-403.5242,33.9328,-129.9532,1428,1571,1.0000,-0.1788,-0.2772,9.0730,17.9432,0.4765,-3.8403,-0.1376,-0.2916,9.5141,17.5722,0.1657,-4.1160
132.6861,-1.3481,-0.5736,-35.2637,19.4142,11.4701,76.1914,-312.1281,27.6960,-101.2439,1444,1555,1.0000,-0.0017,-0.4783,9.4848,18.6302,-0.1800,-3.8937,-0.1903,-0.4304,9.3393,20.1981,-0.0251,-4.4289
132.7045,-0.9857,-0.5466,-35.3445,20.8149,12.8718,76.2207,-277.4473,20.4579,-87.9142,1451,1548,1.0000,-0.0184,-0.3179,9.4274,20.9966,0.0490,-4.2373,-0.1592,-0.2652,9.8229,20.6332,0.2421,-4.6274
132.7230,-0.6137,-0.5144,-35.4274,21.7806,14.2081,72.1363,-231.9769,12.2804,-71.0937,1460,1539,1.0000,-0.0089,-0.3035,9.5279,20.7752,0.0872,-4.3518,-0.3699,-0.3873,9.2986,22.7859,0.9444,-4.6808
132.7415,-0.2554,-0.4314,-35.5093,23.5821,15.6142,75.9521,-206.7766,5.1108,-60.4528,1466,1533,1.0000,-0.2267,-0.4735,9.7626,23.9126,1.1101,-4.3594,-0.0658,-0.2533,10.1940,23.2516,0.5856,-4.6198
132.7600,0.0914,-0.3683,-35.5901,19.2958,16.1665,29.9761,-75.8087,-1.8298,-20.3115,1488,1511,1.0000,-0.2579,-0.0833,9.3699,19.7676,-0.0044,-4.1915,-0.0203,-0.1072,9.9019,18.8241,-1.1091,-4.6732
132.7784,0.3572,-0.3725,-35.6687,21.7729,17.0074,45.5435,-90.0643,-7.1473,-21.6444,1488,1511,1.0000,0.0678,-0.6315,10.0499,20.6455,-0.6304,-4.3136,-0.0730,-0.5382,9.4973,22.9004,0.1657,-4.3144
132.7969,0.7012,-0.3769,-35.7464,20.7157,17.5637,30.1266,-6.0784,-14.0310,5.3135,1502,1497,1.0000,0.0821,-0.1216,9.6285,21.7065,-0.0044,-4.0922,-0.0562,-0.0593,10.0575,19.7248,-0.1778,-4.3908
132.8153,1.0175,-0.3466,-35.8203,16.6546,17.4273,-7.4132,138.4372,-20.3609,48.9429,1526,1473,1.0000,0.0390,0.1610,9.4920,16.8821,1.1406,-3.9777,-0.0969,0.0556,9.4327,16.4271,1.3871,-4.1312
132.8337,1.2955,-0.3133,-35.8928,16.5745,17.2994,-6.9606,169.1233,-25.9339,60.3215,1533,1466,1.0000,-0.0591,0.0460,9.7267,16.5233,0.8811,-3.9395,-0.1328,0.1705,9.5979,16.6256,-0.2923,-4.0167
132.8521,1.5916,-0.3023,-35.9592,13.3989,16.7143,-31.7043,274.4479,-31.8701,92.7805,1551,1448,1.0000,0.1109,0.4267,9.5184,14.6455,-0.2258,-3.5044,0.0419,0.5751,9.9474,12.1523,2.7306,-3.7648
132.8706,1.8042,-0.2558,-36.0341,8.7081,15.5134,-65.1057,395.1172,-36.1418,128.7037,1570,1429,1.0000,0.0175,0.5033,9.6165,9.3096,1.6139,-3.1456,-0.1544,0.3836,9.8780,8.1065,2.3413,-5.1770
132.8890,1.9730,-0.1564,-36.0881,5.1813,13.9636,-83.8669,468.5699,-39.5369,150.9680,1583,1416,1.0000,-0.2243,0.6206,9.4896,6.3172,2.1559,-2.8937,-0.3052,0.7116,9.9666,4.0455,1.9215,-3.0854
132.9075,2.0743,-0.1133,-36.1326,-0.4790,11.7972,-117.4249,576.8687,-41.5827,182.3146,1600,1399,1.0000,-0.0136,0.8241,9.5758,1.6607,1.8887,-2.4357,-0.0011,0.7906,10.2275,-2.6187,1.6619,-2.4824
132.9259,2.0426,-0.0890,-36.1675,-4.6622,9.3283,-134.2216,621.6059,-40.9710,194.5351,1606,1393,1.0000,0.0271,0.6063,9.8535,-4.2248,1.0795,-1.9853,0.0084,0.7332,9.9809,-5.0996,1.6085,-1.8946
132.9443,1.9428,-0.0769,-36.1783,-10.2309,6.3944,-159.0955,681.7549,-38.9938,210.3883,1615,1384,1.0000,0.1683,0.7427,9.6548,-8.4461,2.1101,-1.8098,0.0276,0.8768,10.2180,-12.0156,2.7535,0.5863
132.9628,1.6239,0.0092,-36.1962,-17.8797,0.0000,-0.0000,186.8599,-32.6314,15.8698,1508,1491,0.2312,-0.2267,0.3788,9.8105,-16.9958,2.2551,-1.3670,-0.1783,0.5727,10.0767,-18.7637,1.4024,-0.6732
132.9812,1.2397,0.1234,-36.2067,-20.9599,0.0000,-0.0000,142.6556,-24.9608,2.0792,1501,1498,0.0397,-0.3680,0.2807,9.8009,-20.3087,1.5834,-1.1227,-0.2310,0.5488,9.9833,-21.6110,2.3184,-0.0778
132.9997,0.7248,0.2444,-36.2107,-26.7003,-2.7829,-124.8405,369.1212,-14.6698,0.0000,1500,1500,0.0000,-0.3895,0.0987,9.4729,-25.3087,2.4918,-0.6571,-0.2406,0.3812,9.9235,-28.0919,1.7306,0.1360
133.0182,0.1282,0.2850,-36.2136,-28.9026,-8.3204,-196.1630,483.0827,-2.5649,136.5456,1575,1424,1.0000,-0.1238,-0.1551,9.6836,-29.1866,0.8353,-0.4739,0.2000,-0.2365,9.7271,-28.6187,1.8069,0.1131
133.0367,-0.6339,0.3341,-36.2200,-29.0019,-11.4226,-168.2335,411.5758,12.6834,108.8995,1559,1440,1.0000,0.0079,-1.0314,9.6261,-29.3698,3.5070,-0.5426,0.2431,-0.2868,9.6649,-28.6339,3.2421,-0.1465
133.0551,-1.1620,0.3634,-36.2403,-24.3187,-13.3570,-104.8569,168.2779,23.2515,35.4920,1519,1480,1.0000,-0.0136,-0.4855,10.1241,-25.6981,1.8200,-1.4434,0.2478,-0.3514,9.3872,-22.9393,2.6085,-0.6579
133.0735,-1.6182,0.3889,-36.2654,-24.5324,-15.0333,-91.0357,75.9807,32.3912,5.0790,1502,1497,1.0000,0.1492,-0.2317,9.7362,-23.6675,4.9269,-1.5044,0.4992,0.2208,10.3664,-25.3973,2.8909,-1.0702
133.0920,-2.0833,0.3445,-36.2860,-24.3492,-16.4307,-75.6402,-21.8802,41.7144,-26.9836,1485,1514,1.0000,0.3191,-0.3466,9.9637,-24.9042,0.8887,-1.3136,-0.1280,-0.4735,10.0360,-23.7942,3.2726,-0.8411
133.1104,-2.4201,0.3215,-36.3107,-19.2309,-16.8507,-22.7834,-212.8659,48.4749,-83.8399,1453,1546,1.0000,0.3407,-0.2676,9.6788,-18.7210,3.5605,-1.4586,-0.0227,-0.6196,10.1294,-19.7408,3.2955,-0.9785
133.1289,-2.8279,0.4311,-36.3356,-20.2843,-17.3658,-27.8409,-245.2216,56.6581,-96.9911,1446,1553,1.0000,-0.4135,-0.5813,10.0164,-20.0110,1.9040,-1.4510,-0.1209,-0.4759,10.1078,-20.5576,2.0589,-1.0320
133.1474,-3.1743,0.4157,-36.3635,-20.5744,-17.8471,-26.1006,-290.1028,63.6190,-113.0383,1437,1562,1.0000,0.1324,-0.3466,10.1648,-20.0416,2.0185,-1.5808,0.0300,-0.3873,10.0647,-21.1072,1.0360,-1.3297
133.1658,-3.4748,0.3518,-36.3882,-19.1355,-18.0403,-10.4925,-369.6347,69.6638,-138.3296,1423,1576,1.0000,0.3191,-0.3107,10.2462,-19.6523,0.3925,-1.4128,0.0659,-0.2652,10.0504,-18.6187,1.6543,-1.2381
133.1842,-3.7100,0.3009,-36.4221,-16.8950,-17.8685,9.3134,-453.7387,74.4043,-164.2490,1409,1590,1.0000,0.2976,-0.2413,10.1672,-17.1866,1.4994,-1.7869,-0.0730,-0.4185,10.0049,-16.6034,1.1123,-1.8182
133.2032,-3.9501,0.3222,-36.4579,-13.4255,-17.2021,35.1670,-555.8326,79.2466,-195.2565,1392,1607,1.0000,-0.0472,-0.5908,10.1528,-13.6370,1.2093,-1.9166,-0.2118,-0.4663,10.0528,-13.2141,1.3795,-1.6961
133.2224,-4.1234,0.2692,-36.4934,-11.8454,-16.3986,41.7592,-594.7547,82.7526,-207.9076,1385,1614,1.0000,0.1899,-0.4376,10.0403,-12.0721,0.0185,-1.9548,0.1784,-0.5789,10.0552,-11.6187,0.3947,-1.7419
133.2419,-4.2660,0.2542,-36.5388,-6.0324,-14.8436,79.9782,-721.2379,85.6476,-244.7704,1365,1634,1.0000,0.0438,-0.8422,10.3372,-7.6904,0.5452,-2.2144,-0.2094,-0.9428,9.2004,-4.3744,0.1352,-2.4366
133.2605,-4.2955,0.2502,-36.5863,-1.1469,-12.7891,110.4519,-812.3982,86.2807,-270.6119,1351,1648,1.0000,-0.0017,-0.7919,10.1001,-1.2400,0.5528,-2.3823,-0.1089,-0.7153,10.0240,-1.0538,0.2955,-2.7037
133.2789,-4.2098,0.2424,-36.6365,0.9485,-10.7285,111.6044,-805.8548,84.6088,-267.9438,1352,1647,1.0000,-0.0831,-0.4232,10.3013,-0.1103,-0.2792,-2.6266,0.0084,-0.6746,9.8612,2.0073,-1.0480,-3.0015
133.2973,-4.0274,0.1844,-36.6883,7.1088,-8.0529,145.3002,-881.9044,81.0005,-287.4335,1341,1658,1.0000,0.1132,-0.4975,10.3755,6.0195,-1.1953,-2.7258,0.1114,-0.4831,9.6098,8.1981,-1.2312,-3.1618
133.3157,-3.7000,0.1616,-36.7376,10.3607,-4.5437,128.9501,-797.1490,74.4913,-260.4474,1356,1643,1.0000,-0.1262,-0.0426,10.1768,10.0500,-1.7754,-2.7029,0.1760,-0.4544,10.0336,10.6714,-2.3686,-3.0625
133.3343,-3.3020,0.0348,-36.7867,16.3989,0.0000,0.0000,-379.9719,66.5644,-139.6743,1423,1576,1.0000,0.3670,-0.1982,10.8424,15.0882,-2.9586,-2.6953,-0.0083,-0.5070,9.1501,17.7096,-2.0938,-3.0091
133.3527,-2.8241,-0.0523,-36.8354,20.4714,0.0000,0.0000,-324.9703,57.0334,-116.8973,1435,1564,0.9782,0.0438,-0.1024,10.3659,20.0348,-4.6533,-2.4586,-0.0011,-0.0833,9.8732,20.9081,-3.2923,-3.4213
133.3722,-2.2665,-0.0805,-36.8731,23.5630,2.7376,100.3141,-549.7144,45.9049,-122.9549,1432,1567,0.6952,-0.1429,-0.0354,10.3515,22.3783,-2.7144,-2.6266,0.0276,-0.2868,9.7128,24.7477,-3.3915,-1.4976
133.3908,-1.7879,-0.1947,-36.9224,27.2119,8.0534,181.8761,-729.5345,36.3499,-222.4446,1377,1622,1.0000,0.2449,-0.5597,10.5838,26.6455,-3.4930,-2.6495,0.4992,-0.0234,9.8062,27.7783,-3.5213,-2.9938
133.4093,-1.1629,-0.2980,-36.9650,23.2386,10.3312,123.1301,-407.0221,23.8615,-125.8969,1430,1569,1.0000,0.1013,0.5919,9.7458,24.5004,-3.8060,-2.3289,-0.2190,0.0604,10.4957,21.9768,-6.0785,-2.5892
133.4277,-0.7500,-0.3808,-37.0019,22.8073,12.2026,101.6192,-315.8026,15.6110,-96.2302,1447,1552,1.0000,0.0630,-0.2197,10.2486,21.1035,-5.0273,-1.9090,-0.1663,-0.4113,9.0185,24.5111,-3.6282,-2.3526
133.4462,-0.4123,-0.4263,-37.0358,26.9676,14.4174,119.9860,-327.5060,8.2509,-95.8271,1447,1552,1.0000,-0.1190,-0.8566,9.5375,26.8974,-4.4853,-1.7411,-0.0299,-0.5573,10.1796,27.0378,-4.7732,-2.2457
133.4647,-0.0009,-0.4963,-37.0708,22.3149,15.6020,64.0487,-184.5689,0.0189,-51.6887,1471,1528,1.0000,0.0079,-0.0880,9.3771,23.4699,-4.3861,-1.7716,-0.0131,-0.0162,9.6338,21.1600,-4.7503,-2.1618
133.4831,0.3432,-0.5882,-37.1074,22.8760,16.6931,59.1090,-130.7411,-6.8676,-33.1737,1481,1518,1.0000,0.2234,-0.3562,10.0283,21.5768,-3.8289,-1.8861,0.4107,-0.3778,9.3153,24.1752,-2.8037,-2.1923
133.5015,0.7748,-0.6158,-37.1412,26.6279,18.1833,80.9894,-144.0886,-15.5047,-32.5925,1482,1517,1.0000,-0.0424,-0.2102,9.6907,26.2485,-2.8060,-1.6418,-0.2262,-0.0569,9.8469,27.0073,-3.8114,-2.1770
133.5199,1.2300,-0.6543,-37.1710,22.3989,18.8157,34.3208,42.6946,-24.6129,24.2609,1513,1486,1.0000,-0.0184,0.3022,9.3915,23.6378,-3.4014,-1.4586,-0.0921,0.2974,10.0528,21.1600,-3.8495,-1.7037
133.5386,1.5431,-0.6617,-37.2017,19.9256,18.9822,8.9430,151.8064,-30.8894,57.9505,1531,1468,1.0000,-0.1788,-0.0545,9.4010,19.6226,-3.9815,-1.4434,0.0467,0.0987,9.4662,20.2287,-3.7350,-1.8335
133.5570,1.8480,-0.7477,-37.2290,17.2462,18.7218,-14.1421,253.3840,-37.0072,89.4511,1549,1450,1.0000,0.1899,0.1825,9.3436,18.3325,-3.4930,-1.2907,0.0970,0.2280,9.7511,16.1600,-4.0404,-1.5282
133.5754,2.1189,-0.8152,-37.2558,13.5248,17.9422,-42.3937,365.9200,-42.4461,123.6807,1568,1431,1.0000,0.1372,0.3812,9.3579,15.2790,-3.6915,-1.2373,0.0826,0.3812,9.6505,11.7706,-3.3839,-1.4671
133.5938,2.3019,-0.8340,-37.2790,9.4142,16.6630,-69.3607,464.6384,-46.1283,153.1629,1584,1415,1.0000,-0.0903,0.3716,9.2981,10.4165,-2.8976,-1.0006,-0.1352,0.4770,9.6673,8.4119,-5.0022,-1.2534
133.6122,2.4152,-0.8661,-37.3000,3.3874,14.6717,-108.1872,589.5026,-48.4195,189.2705,1604,1395,1.0000,0.0558,0.5799,9.2263,4.7981,-2.5006,-0.8785,0.5495,0.5847,10.0982,1.9768,-2.8572,-1.1618
133.6306,2.4693,-0.8558,-37.3128,-0.2003,12.4409,-121.2035,633.2104,-49.5254,202.0616,1611,1388,1.0000,0.0654,0.6518,9.4202,0.4012,-0.5617,-0.6495,0.0994,0.5201,9.3441,-0.8019,-0.1854,-0.6045
133.6491,2.4144,-0.8775,-37.3237,-6.6011,9.5846,-154.7167,723.4064,-48.4508,226.7792,1624,1375,1.0000,0.1348,0.6661,9.1473,-4.4919,-1.4090,-0.4586,-0.2334,0.5991,9.6769,-8.7103,-1.1854,-0.5282
133.6675,2.1572,-0.9005,-37.3293,-11.5782,6.4102,-172.6484,745.4571,-43.3291,230.3925,1626,1373,1.0000,0.2545,0.2040,9.6500,-11.5530,-0.3327,-0.3899,-0.0083,0.1514,9.2268,-11.6034,0.2802,-0.2992
133.6859,1.7983,-0.8468,-37.3302,-14.1698,0.1074,-5.4141,222.5240,-36.1692,28.2001,1515,1484,0.3508,-0.0591,-0.1000,9.7937,-12.6294,0.5223,-0.1838,0.2024,-0.1024,9.7774,-15.7103,0.4253,-0.1312
133.7043,1.3344,-0.7692,-37.3324,-18.2958,0.0000,-0.0000,153.5459,-26.9038,4.2057,1502,1497,0.0745,-0.1693,-0.2604,9.3436,-18.5683,0.2704,-0.3747,-0.0634,-0.3442,9.5835,-18.0232,0.7001,-0.1007
133.7229,0.8458,-0.7447,-37.3364,-19.7080,0.0000,-0.0000,97.3262,-17.1409,0.0000,1500,1500,0.0000,0.0893,-0.3418,10.0307,-19.5835,0.4765,-0.4052,0.1377,-0.6698,9.3393,-19.8324,1.2268,-0.2763
133.7414,0.2090,-0.6848,-37.3419,-20.8187,-5.2769,-137.6990,350.5151,-4.1813,85.5705,1547,1452,0.8537,0.0271,-1.0146,9.6357,-21.5454,2.1101,-0.6647,0.3556,-0.4975,9.4255,-20.0919,2.2192,-0.4060
133.7598,-0.5178,-0.5733,-37.3547,-22.0897,-8.0544,-134.2916,327.1786,10.3609,86.4295,1547,1452,1.0000,-0.2124,-1.4049,9.3939,-22.5148,2.4536,-1.1456,-0.3004,-1.0457,9.2435,-21.6645,1.6848,-0.6961
133.7783,-0.9153,-0.5358,-37.3913,-11.1774,-8.5228,-25.3638,-32.2755,18.3152,-18.1948,1489,1510,1.0000,0.1611,-1.0194,10.3970,-13.0339,1.2627,-2.1685,0.1808,-0.8662,8.7000,-9.3210,4.5169,-1.9633
133.7967,-1.2239,-0.4927,-37.4330,-13.2118,-9.2262,-38.0937,-31.1253,24.4905,-20.9604,1488,1511,1.0000,0.2114,-0.4615,9.3986,-11.9423,4.3391,-2.3365,-0.0059,0.0245,9.6721,-14.4813,3.1963,-2.1160
133.8152,-1.5305,-0.4821,-37.4806,-13.1736,-9.8183,-32.0232,-83.8893,30.6379,-38.8080,1478,1521,1.0000,0.1899,-0.5070,10.2079,-14.3545,1.2475,-2.7334,0.1186,-0.6914,9.2196,-11.9927,2.4253,-2.3831
133.8337,-1.6624,-0.4176,-37.5374,-4.4523,-9.0134,43.6217,-316.9197,33.2917,-105.3834,1442,1557,1.0000,0.2784,-0.4903,9.7051,-4.7286,5.4994,-2.9853,0.1377,-0.3371,9.6386,-4.1759,6.3413,-2.8869
133.8522,-1.7411,-0.2886,-37.5903,-7.4637,-8.7809,12.5561,-236.5073,34.8832,-83.6636,1453,1546,1.0000,-0.1741,-0.0258,9.5040,-5.8431,4.7818,-2.8403,-0.1304,-0.0976,10.2874,-9.0843,3.3108,-2.5587
133.8707,-1.8870,-0.1861,-37.6471,-11.1889,-9.1421,-19.4956,-160.9952,37.8214,-63.9894,1464,1535,1.0000,-0.1381,-0.0114,9.8272,-11.2019,3.1940,-2.9624,0.1976,-0.2341,9.7894,-11.1759,3.9367,-2.9175
133.8892,-2.0392,-0.0642,-37.7064,-8.2843,-9.0134,6.9724,-254.7291,40.8845,-91.7664,1449,1550,1.0000,-0.0496,-0.3035,9.9014,-10.0492,5.7589,-3.1151,0.1162,-0.3634,9.6386,-6.5194,5.8756,-2.8946
133.9076,-2.1448,-0.0153,-37.7665,-8.9790,-9.0083,0.2807,-247.6153,43.0191,-90.8418,1450,1549,1.0000,0.1180,-0.0904,9.9110,-7.9652,4.5986,-3.1227,0.0156,0.3070,10.2539,-9.9927,3.2039,-3.1083
133.9260,-2.2826,-0.0195,-37.8239,-12.0362,-9.4625,-24.7074,-191.5062,45.7979,-76.5207,1457,1542,1.0000,0.2928,0.0245,9.9541,-12.2477,2.5757,-3.0693,0.2407,-0.0043,9.7200,-11.8248,4.0360,-2.9327
133.9444,-2.4254,0.0426,-37.8891,-8.7156,-9.3504,6.0900,-296.6281,48.6769,-107.3943,1440,1559,1.0000,0.1300,-0.3299,10.4736,-9.1713,4.6292,-3.4815,-0.0083,-0.0952,9.5883,-8.2599,5.1886,-3.1847
133.9629,-2.4792,0.1447,-37.9533,-9.4752,-9.3691,-1.0128,-282.3699,49.7788,-103.9530,1442,1557,1.0000,-0.0639,0.1466,9.7554,-9.0568,5.4765,-3.2602,-0.0682,-0.0881,9.9211,-9.8935,4.4100,-3.2915
133.9813,-2.6038,0.2156,-38.0181,-8.2690,-9.2041,8.9499,-325.3935,52.2956,-117.2580,1435,1564,1.0000,-0.0998,-0.2844,9.9685,-9.1942,3.2704,-3.4281,-0.0419,-0.5501,10.0528,-7.3439,3.0054,-3.3221
133.9997,-2.6661,0.2512,-38.0834,-5.5400,-8.6545,29.8685,-392.8114,53.5689,-136.7716,1424,1575,1.0000,0.0893,-0.2724,10.1241,-5.3469,3.4536,-3.4128,0.1641,-0.1886,10.1629,-5.7332,3.6848,-3.3831
134.0182,-2.7169,0.2767,-38.1444,-6.2767,-8.2978,19.2621,-368.1093,54.6118,-130.3765,1428,1571,1.0000,0.0582,-0.1527,9.9373,-6.2782,2.8734,-3.3289,-0.0011,-0.2557,10.1246,-6.2752,2.4634,-3.0167
134.0367,-2.7346,0.3287,-38.2038,-4.0210,-7.6563,34.7243,-414.6756,54.9929,-143.6056,1421,1578,1.0000,-0.0950,-0.2078,10.2007,-3.8736,2.3544,-3.0693,-0.1161,-0.3538,9.8325,-4.1683,2.5627,-3.1847
134.0551,-2.6825,0.3984,-38.2670,-1.0629,-6.6673,53.7888,-463.5930,53.9789,-156.7955,1413,1586,1.0000,-0.2459,-0.1407,10.0618,-0.7286,2.0872,-3.3365,-0.1041,-0.0809,10.0887,-1.3973,1.5321,-3.4213
134.0735,-2.5920,0.3905,-38.3253,-3.0973,-6.1318,29.1310,-382.1653,52.1950,-133.1038,1426,1573,1.0000,0.0438,0.2352,10.0523,-2.7210,0.9040,-3.2831,-0.0490,0.0724,10.2419,-3.4736,1.0894,-3.0702
134.0919,-2.5157,0.3944,-38.3823,-2.2614,-5.2158,29.5085,-374.4715,50.6940,-110.9957,1438,1561,0.8525,-0.0543,0.1131,10.2175,-2.6446,0.5910,-3.0693,-0.1304,0.1346,9.8492,-1.8782,0.3947,-3.1541
134.1108,-2.4194,0.3822,-38.4353,-0.8377,-3.2412,25.0333,-350.4977,48.7915,-97.5514,1446,1553,0.7961,-0.0663,0.0772,10.2630,-0.9729,-0.4930,-2.9701,-0.2023,0.4267,10.0671,-0.7026,-0.5289,-2.7495
134.1293,-2.3374,0.3907,-38.4805,-2.8148,-2.3603,8.5586,-293.6155,47.1751,-78.6576,1456,1543,0.7435,-0.1262,0.1993,9.8296,-2.3927,-0.3403,-2.6571,0.0443,0.4865,10.2060,-3.2370,0.1886,-2.3144
134.1478,-2.2726,0.3747,-38.5238,-4.1355,-2.1929,1.6071,-266.1349,45.9012,-68.1666,1462,1537,0.6994,0.0103,0.2567,9.9278,-4.1255,0.2627,-2.3670,0.0563,0.3812,10.0025,-4.1454,-0.0251,-2.4137
134.1663,-2.2171,0.3280,-38.5599,-4.5515,-2.2226,-0.2911,-254.2865,44.8142,-61.8074,1466,1533,0.6603,0.1276,0.2567,9.8703,-4.1713,-0.2716,-2.0922,0.0443,0.2974,10.2012,-4.9316,-0.2007,-1.9251
134.1847,-2.1923,0.3101,-38.5910,-6.1965,-2.9515,-8.6383,-227.3878,44.3393,-55.1454,1469,1530,0.6424,0.0342,0.2471,9.7937,-4.2248,0.0795,-1.9090,0.0611,0.2567,10.0791,-8.1683,0.2497,-1.4900
134.2031,-2.2302,0.2652,-38.6372,-6.3072,-3.6449,-9.2902,-229.8698,45.1193,-58.2017,1467,1532,0.6696,0.1516,-0.0162,9.9613,-6.2019,0.2780,-3.5426,0.0563,0.2304,9.9594,-6.4126,-0.3381,-1.2534
134.2220,-2.2618,0.2499,-38.6571,-7.7805,-4.8390,-19.9490,-202.8144,45.7749,-55.1255,1469,1530,0.6919,-0.0663,0.1418,9.8224,-7.6675,-0.8899,-1.2373,-0.2214,0.0676,9.8852,-7.8935,-1.2541,-0.9862
134.2405,-2.3750,0.2269,-38.6743,-6.4942,-5.2463,-8.3528,-249.2341,48.0620,-79.0289,1456,1543,0.8424,-0.0735,-0.3586,10.0834,-7.0950,-1.3098,-1.0998,-0.0778,-0.3011,9.5955,-5.8935,-1.8190,-0.8564
134.2590,-2.4599,0.1893,-38.6842,-3.8072,-4.5711,12.3016,-318.4926,49.7853,-93.6084,1448,1551,0.8206,-0.0950,-0.4735,9.9158,-4.0263,-2.5082,-0.6495,-0.0227,-0.6459,9.6577,-3.5881,-2.8037,-0.6427
134.2775,-2.5865,0.1274,-38.6954,-2.0820,-3.1634,17.1380,-346.9844,52.3422,-109.6899,1439,1560,0.8894,0.0151,-0.8255,9.8703,-2.7897,-2.8747,-0.8021,-0.0514,-0.9236,9.5236,-1.3744,-2.6587,-0.6045
134.2959,-2.7013,0.0771,-38.7086,2.8226,-0.4700,7.9638,-333.7810,54.6666,-113.5157,1437,1562,0.9398,-0.0352,-1.2373,10.0666,1.3935,-2.5922,-0.6189,0.0372,-1.3666,9.3944,4.2516,-3.1167,-1.1083
134.3143,-2.7419,-0.0231,-38.7244,9.2348,0.0000,0.0000,-315.5130,55.5053,-110.7950,1439,1560,0.9543,0.1707,-1.4743,10.0882,7.6531,-3.2716,-0.8250,0.1617,-1.5198,9.2651,10.8165,-3.3839,-1.2305
134.3328,-2.6565,-0.1188,-38.7472,15.5248,0.0000,0.0000,-305.6904,53.8247,-103.6916,1442,1557,0.9217,0.2066,-1.4168,9.9302,14.0729,-2.9739,-1.2373,0.2431,-1.2540,9.4207,16.9768,-2.6053,-1.5511
134.3512,-2.4804,-0.1853,-38.7801,19.3073,0.4017,16.6047,-333.2392,50.3260,-98.6341,1445,1554,0.8326,0.1420,-1.3115,9.9278,18.2256,-2.1113,-1.7029,0.0515,-0.9595,9.6050,20.3890,-2.1931,-2.1465
134.3697,-2.1507,-0.1888,-38.8178,24.2271,6.7122,167.2823,-729.2552,43.7543,-226.0686,1375,1624,1.0000,-0.1166,-0.9883,10.0379,23.0958,-1.7907,-1.9395,-0.1735,-0.7943,9.4829,25.3584,-1.8572,-2.4442
134.3882,-1.6843,-0.2275,-38.8536,27.6088,9.8467,170.0953,-683.6817,34.4422,-208.6520,1385,1614,1.0000,-0.0543,-0.5669,9.9733,26.3172,-2.4853,-1.9319,0.0467,-0.2748,9.9211,28.9004,-3.6969,-2.2839
134.4066,-1.1952,-0.3087,-38.8881,25.8531,12.2477,129.8512,-426.2560,24.6738,-131.6886,1427,1572,1.0000,0.0079,-0.2413,9.7865,26.0653,-4.5388,-1.8479,0.1521,-0.1623,10.0480,25.6409,-4.8648,-2.2457
134.4252,-0.7154,-0.4458,-38.9275,24.1737,14.0366,96.5690,-300.3684,15.0846,-91.6454,1449,1550,1.0000,0.4101,-0.0473,9.8224,23.1722,-3.9205,-1.8785,0.3029,-0.0282,9.5619,25.1752,-2.3457,-2.5892
134.4436,-0.2337,-0.5366,-38.9737,25.4638,15.7506,93.2064,-246.1014,4.6756,-71.2462,1460,1539,1.0000,0.4173,-0.0497,9.8631,25.2485,-1.4548,-1.8708,0.3029,-0.5118,9.7248,25.6790,-0.4221,-3.3831
134.4620,0.3387,-0.5527,-39.0228,27.1890,17.4664,93.0352,-228.9627,-6.7782,-60.7204,1466,1533,1.0000,0.2306,0.2878,9.8631,27.3325,0.7589,-2.4586,0.2167,0.2974,9.9426,27.0455,0.6619,-2.9480
134.4804,1.0605,-0.5522,-39.0674,22.6890,18.2498,42.4978,-0.3629,-21.2206,10.5087,1505,1494,1.0000,0.1324,1.4107,9.4441,24.0653,0.7818,-2.0846,0.1976,1.4682,10.2251,21.3126,0.1047,-2.6885
134.4989,1.6143,-0.5365,-39.1017,18.1279,18.2315,-0.9913,188.6115,-32.3127,68.9676,1537,1462,1.0000,-0.0711,1.2024,9.6931,17.9050,-1.2029,-1.6418,0.0659,0.8912,9.9929,18.3508,-0.9564,-1.9556
134.5173,2.0561,-0.6159,-39.1504,17.3378,18.0974,-7.2656,257.5180,-41.1689,92.6895,1550,1449,1.0000,0.4796,0.8409,9.8128,17.7600,0.0414,-3.5350,0.3197,0.7547,10.3999,16.9157,0.0970,-1.3450
134.5358,2.3338,-0.6290,-39.1754,5.8569,16.2614,-99.2804,554.4750,-46.7460,178.6260,1598,1401,1.0000,0.0223,1.0324,9.1880,9.4775,-1.1876,-1.2754,-0.1400,0.8529,10.7327,2.2363,-2.4831,-1.1160
134.5543,2.3234,-0.6548,-39.1944,-0.9408,13.6810,-139.3022,668.5482,-46.5625,210.4747,1615,1384,1.0000,0.0103,0.4339,9.8535,-0.8660,-2.9052,-0.8861,0.2095,0.3788,10.0456,-1.0156,-2.0327,-0.9556
134.5728,2.3353,-0.6515,-39.2089,-2.3835,11.2714,-130.5776,644.7854,-46.8229,203.9514,1612,1387,1.0000,0.1779,0.6350,9.6668,-0.9347,0.7208,-0.8098,0.2790,0.4387,10.5077,-3.8324,1.2802,-0.7801
134.5912,2.2356,-0.6298,-39.2179,-9.7309,8.1210,-171.1389,750.1361,-44.8525,232.4644,1627,1372,1.0000,-0.0089,0.7140,9.3149,-8.2324,0.2246,-0.3594,0.1329,0.8169,9.9881,-11.2294,-0.7885,-0.5358
134.6096,1.9623,-0.4180,-39.2203,-13.6469,3.2756,-119.7391,570.6465,-39.4045,84.6645,1546,1453,0.4717,-0.8516,0.2783,9.5998,-13.4156,1.4154,-0.1685,0.0324,-0.1431,10.2275,-13.8782,-1.0938,-0.1160
134.6280,1.7586,-0.4487,-39.2326,-9.6851,0.0000,-0.0000,202.3580,-35.3482,23.9687,1513,1486,0.3224,0.2569,0.2687,11.0506,-10.4690,-2.4777,-0.7945,-0.0323,-0.2700,8.9155,-8.9011,3.4558,-0.5511
134.6466,1.3455,-0.4626,-39.2321,-16.4370,0.0000,-0.0000,154.8233,-27.0998,4.5069,1502,1497,0.0792,0.0199,-0.2173,9.5136,-13.8202,-0.4777,-0.0311,0.1497,-0.4520,10.0671,-19.0538,-2.5518,0.0215
134.6651,0.6164,-0.4563,-39.2400,-20.3225,-0.0457,-2.3239,64.6885,-12.5252,0.0000,1500,1500,0.0000,-0.0352,-1.3761,9.5974,-21.9423,-1.8212,-0.7105,-0.2741,-1.2516,9.4494,-18.7026,-0.0404,-0.5205
134.6835,-0.0049,-0.2909,-39.2433,-10.8225,-1.8582,-26.4038,62.9012,0.0977,0.0000,1500,1500,0.0000,-0.4566,-1.7137,8.8935,-11.5683,2.8582,-1.1075,0.4298,-1.0625,9.6098,-10.0767,2.0054,0.5711
134.7020,-0.3894,-0.2149,-39.2720,-10.3416,-4.4339,-41.0934,61.2800,7.7928,6.1930,1503,1496,0.4670,-0.2650,-0.8829,9.6069,-10.1255,0.4154,-1.3823,0.3269,-1.1463,9.6601,-10.5576,0.7077,-1.9480
134.7205,-0.6372,-0.2941,-39.3157,-5.0629,-4.3540,1.2762,-76.9934,12.7497,-11.9339,1493,1506,0.4272,0.5274,-0.7824,10.1049,-6.2935,1.0795,-2.3823,-0.3220,-1.2038,8.7264,-3.8324,1.0589,-2.4442
134.7389,-0.7314,-0.2779,-39.3673,1.7424,-1.4275,19.3307,-116.5300,14.6356,-0.0000,1500,1500,0.0000,-0.0328,-0.7010,9.9924,0.8287,-0.4472,-2.5731,-0.1089,-0.6866,9.9187,2.6561,0.4329,-3.1618
134.7574,-0.7389,-0.2216,-39.4206,2.9943,-0.0106,0.1991,-71.3315,14.7853,-0.0000,1500,1500,0.0000,-0.1860,-0.4113,9.7099,2.9203,0.4536,-2.7716,-0.2980,-0.4687,9.5332,3.0684,0.1199,-3.0549
134.7759,-0.7207,-0.2012,-39.4771,4.7882,0.0000,0.0000,-69.1062,14.4207,-0.0000,1500,1500,0.0000,-0.0232,-0.4568,9.9349,4.2485,0.1253,-2.9624,0.1233,-0.2533,9.6840,5.3279,0.9062,-3.2152
134.7942,-0.6547,-0.1613,-39.5367,4.0592,0.0000,0.0000,-62.7818,13.1010,-0.0000,1500,1500,0.0000,-0.1022,-0.1694,9.5351,4.5691,0.8734,-3.2144,-0.2358,0.0867,9.7918,3.5493,0.1428,-3.2763
134.8127,-0.5667,-0.1738,-39.5938,0.8760,0.0000,0.0000,-54.3399,11.3394,-0.0000,1500,1500,0.0000,0.0079,0.2112,9.7338,1.6989,-0.6304,-2.9853,0.0180,0.2471,9.9402,0.0531,-1.1702,-3.2381
