timestamp,roll_deg,pitch_deg,yaw_deg,omega_raw,omega_filtered,alpha,tau_ff,tau_pid,tau_total,pwm_left,pwm_right,deadzone_factor,accel1_x,accel1_y,accel1_z,gyro1_x,gyro1_y,gyro1_z,accel2_x,accel2_y,accel2_z,gyro2_x,gyro2_y,gyro2_z
2252.0839,-2.9237,1.4513,153.6543,-1.4309,-2.9770,17.6834,-380.1560,92.0566,-169.2807,1500,1500,1.0000,-0.1504,-0.3751,9.6090,-1.3832,-0.4377,2.9072,-0.0646,-0.5199,9.5026,-1.4786,-0.2259,3.1619
2252.1054,-2.9075,1.3914,153.7249,-1.1409,-1.5084,9.0246,-353.3998,91.8192,-161.1115,1500,1500,1.0000,-0.1337,-0.3367,9.5468,-1.0245,-2.7660,3.0598,-0.1388,-0.3500,9.6558,-1.2573,-0.4091,3.2611
2252.1250,-2.8767,1.3867,153.7866,-0.4958,-0.4467,3.4806,-333.9551,91.3384,-154.9895,1500,1500,1.0000,-0.2175,-0.3272,9.7910,-0.4214,-0.4377,2.9530,-0.2106,-0.2925,9.6462,-0.5702,0.1558,3.2611
2252.1443,-2.8480,1.4059,153.8469,-0.4386,-0.0303,0.2384,-321.3854,90.8933,-150.9516,1500,1500,1.0000,-0.3132,-0.3320,9.6832,-0.3069,-0.2927,3.0293,-0.2633,-0.2638,9.6846,-0.5702,0.1634,3.1314
2252.1635,-2.8064,1.3714,153.9075,0.2217,0.0000,0.0000,-316.0226,90.2362,-148.9485,1500,1500,1.0000,-0.0978,-0.3224,9.6617,0.2122,-0.4683,2.9224,-0.1053,-0.3643,9.5936,0.2313,-0.1114,3.2840
2252.1829,-2.7600,1.3387,153.9703,0.0194,0.0000,0.0000,-310.7973,89.4982,-146.9381,1500,1500,1.0000,-0.1289,-0.2817,9.7024,0.1664,-0.6362,3.0064,-0.1053,-0.2733,9.4667,-0.1275,-0.5847,3.3146
2252.2021,-2.7400,1.2826,154.0336,-0.6485,0.0000,0.0000,-308.5410,89.1950,-146.0793,1500,1500,1.0000,-0.0834,-0.3391,9.8532,-0.3069,-1.5370,3.0522,-0.0981,-0.2398,9.6391,-0.9901,-1.1877,3.3604
2252.2213,-2.7364,1.2518,154.0948,-1.7210,0.0000,0.0000,-308.1412,89.1637,-145.9406,1500,1500,1.0000,-0.1696,-0.3176,9.8796,-1.3298,-1.2622,3.0140,-0.0909,-0.2279,9.8043,-2.1122,-1.0122,3.2077
2252.2405,-2.7575,1.2150,154.1603,-2.5340,0.0000,-0.0000,-310.5076,89.5380,-146.8751,1500,1500,1.0000,-0.1289,-0.3535,9.8628,-2.2458,-1.2469,3.3041,-0.0718,-0.3907,9.7205,-2.8221,-0.8366,3.3375
2252.2597,-2.7998,1.1832,154.2260,-3.4233,0.0000,-0.0000,-315.2776,90.2649,-148.7422,1500,1500,1.0000,-0.1073,-0.3846,9.9897,-3.0245,-0.9568,3.2660,-0.0646,-0.3188,9.9623,-3.8221,-0.2488,3.5207
2252.2782,-2.8408,1.1728,154.2912,-3.6638,0.0000,-0.0000,-319.8979,90.9703,-150.5515,1500,1500,1.0000,-0.1528,-0.3679,9.9466,-3.4290,-0.3767,3.3041,-0.1412,-0.3356,9.8976,-3.8985,0.1634,3.6810
2252.2969,-2.8723,1.1689,154.3546,-3.8508,0.0000,-0.0000,-323.4419,91.5183,-151.9436,1500,1500,1.0000,-0.1816,-0.3128,9.9418,-3.6581,-0.3080,3.3499,-0.1723,-0.2733,9.9527,-4.0435,0.0794,3.3527
2252.3154,-2.9105,1.1872,154.4192,-4.0493,0.0000,-0.0000,-327.7402,92.1772,-153.6284,1500,1500,1.0000,-0.2558,-0.3344,10.0519,-3.7268,0.1424,3.3957,-0.1867,-0.4290,9.8857,-4.3718,0.3695,3.5283
2252.3340,-3.0081,1.1621,154.4852,-4.6981,-0.0251,-0.1167,-338.3960,93.8178,-157.8095,1500,1500,1.0000,-0.0858,-0.5642,9.9107,-4.4519,-0.1706,3.3423,0.0049,-0.3859,9.9862,-4.9443,-0.0961,3.8260
2252.3526,-3.1080,1.1016,154.5522,-5.4500,-0.2604,-1.3710,-346.0397,95.4981,-161.1108,1500,1500,1.0000,0.0555,-0.5283,10.0328,-5.1619,-0.7202,3.3957,0.2371,-0.4218,9.9575,-5.7382,-0.1190,3.7573
2252.3717,-3.1961,1.0899,154.6197,-6.1561,-0.8412,-4.4905,-346.9703,96.9828,-162.2807,1500,1500,1.0000,-0.0810,-0.4181,10.0807,-5.8871,0.1271,3.4263,-0.0550,-0.3619,9.9695,-6.4252,0.8657,3.6428
2252.3910,-3.2735,1.1037,154.6850,-6.7248,-1.7811,-9.0943,-342.4247,98.2921,-161.7027,1500,1500,1.0000,-0.1552,-0.3224,9.9227,-6.4061,0.6004,3.3347,-0.1005,-0.5367,9.8330,-7.0435,1.2855,3.4902
2252.4102,-3.3903,1.0920,154.7479,-7.1141,-2.9393,-13.4772,-342.9581,100.2536,-163.0396,1500,1500,1.0000,0.0196,-0.4828,9.9227,-6.9481,1.3332,3.3041,0.0096,-0.4769,10.0341,-7.2802,1.9497,3.3909
2252.4295,-3.4924,1.0937,154.8072,-6.4157,-3.6827,-9.5961,-365.6320,101.9729,-170.8734,1500,1500,1.0000,-0.0666,-0.4972,9.9538,-6.3451,1.4859,3.2049,0.0096,-0.4792,9.8258,-6.4863,1.1939,3.0627
2252.4487,-3.5677,1.0913,154.8665,-5.1638,-3.7586,-1.0015,-398.8638,103.2510,-181.6097,1500,1500,1.0000,-0.0690,-0.4948,9.7958,-5.4367,0.8523,3.1591,-0.0933,-0.5702,9.6726,-4.8908,1.2779,3.1314
2252.4677,-3.6327,1.1317,154.9241,-4.5607,-3.5549,2.5849,-416.5189,104.3607,-187.5721,1500,1500,1.0000,-0.2414,-0.5163,9.7383,-4.4825,1.0050,2.9606,-0.1915,-0.4050,9.6079,-4.6389,1.5756,3.2153
2252.4870,-3.7223,1.1868,154.9747,-5.3355,-3.7265,-2.2385,-412.7179,105.8762,-187.3411,1500,1500,1.0000,-0.3108,-0.5666,9.7598,-4.3680,1.3256,2.6858,-0.1915,-0.6660,9.6606,-6.3031,1.3695,2.7421
2252.5063,-3.7371,1.2223,155.0076,-3.1523,-2.9029,8.8305,-446.2643,106.1579,-197.5741,1500,1500,1.0000,-0.1696,-0.4301,9.6880,-3.3832,3.0584,2.7927,-0.1460,-0.4362,9.7396,-2.9214,1.0718,0.7192
2252.5255,-3.7050,1.2373,155.0550,-0.8393,-1.3525,9.9057,-445.7444,105.6652,-197.1224,1500,1500,1.0000,-0.2151,-0.4205,9.6210,-1.2535,0.4935,2.3576,-0.0933,-0.4098,9.6558,-0.4252,0.5832,2.5589
2252.5447,-3.6207,1.2705,155.0973,1.3362,-0.1076,1.3923,-411.7253,104.3094,-186.1033,1500,1500,1.0000,-0.3539,-0.3655,9.5803,1.0442,-0.2622,2.1515,-0.4524,-0.3787,9.6127,1.6282,-0.0961,2.1161
2252.5640,-3.5436,1.3522,155.1429,2.0691,0.0000,0.0000,-399.0368,103.0733,-181.5550,1500,1500,1.0000,-0.5814,-0.4517,9.6497,2.0671,-0.3843,2.1591,-0.5697,-0.4553,9.4643,2.0710,-0.1190,2.4749
2252.5833,-3.4652,1.4074,155.1869,2.1454,0.0000,0.0000,-390.2043,101.8139,-178.1496,1500,1500,1.0000,-0.5766,-0.4421,9.6665,2.2351,-1.2851,2.0675,-0.4620,-0.4218,9.5409,2.0557,-1.4626,2.2306
2252.6025,-3.4132,1.3698,155.2233,2.1950,0.0000,0.0000,-384.3497,100.9902,-175.8991,1500,1500,1.0000,-0.2773,-0.5618,9.8006,2.1816,-2.4530,1.8461,-0.1220,-0.1417,9.6941,2.2084,-2.4549,1.6276
2252.6218,-3.2950,1.2821,155.2571,3.8133,0.0000,0.0000,-371.0384,99.0729,-170.7552,1500,1500,1.0000,-0.0978,-0.3918,9.7958,4.1740,-3.0179,1.4034,-0.2274,-0.2853,10.0461,3.4527,-3.1572,1.6581
2252.6412,-3.0899,1.2737,155.2949,7.1454,0.0000,0.0000,-347.9479,95.7206,-161.8167,1500,1500,1.0000,-0.5215,-0.2769,9.9873,6.6168,-3.8423,1.5179,-0.3160,-0.3524,10.0987,7.6740,-3.9587,1.8031
2252.6604,-2.8466,1.1900,155.3387,8.6034,0.0000,0.0000,-320.5427,91.7337,-151.2030,1500,1500,1.0000,-0.1289,-0.1955,10.2483,8.7923,-3.4606,1.9072,0.0575,-0.2087,10.2424,8.4145,-3.1572,2.1695
2252.6795,-2.6450,1.0934,155.3844,7.5881,0.0000,0.0000,-297.8427,88.4341,-142.4133,1500,1500,1.0000,0.0387,-0.2721,10.6744,9.3648,-2.6668,2.0140,-0.1340,-0.2710,10.0964,5.8115,-2.1038,2.4825
2252.6989,-2.5079,1.0939,155.4316,3.5271,0.0000,0.0000,-282.4028,86.1969,-136.4390,1500,1500,1.0000,-0.2510,-0.1668,10.5021,4.0748,-1.4683,2.2354,-0.2585,-0.2303,10.6542,2.9794,0.3466,2.4749
2252.7182,-2.3749,1.1870,155.4733,2.2027,0.0000,-0.0000,-267.4306,84.0269,-130.6453,1500,1500,1.0000,-0.3803,-0.0327,10.5404,2.4259,2.3103,2.2812,-0.2753,-0.1417,10.1586,1.9794,3.4077,2.1008
2252.7374,-2.2751,1.2202,155.5168,2.4965,0.0000,-0.0000,-256.1863,82.4021,-126.2972,1500,1500,1.0000,0.0148,-0.1859,10.0136,2.8000,4.9897,2.2812,0.1820,-0.1488,9.8785,2.1931,3.2932,2.5131
2252.7566,-2.2003,1.1853,155.5721,1.8553,0.0000,-0.0000,-247.7655,81.1902,-123.0438,1500,1500,1.0000,0.1919,-0.2290,10.0950,2.0213,2.9668,2.9301,0.0767,-0.1536,9.9671,1.6893,2.2932,2.9634
2252.7758,-2.1077,1.1875,155.6372,2.6263,0.0000,0.0000,-237.3386,79.6835,-119.0117,1500,1500,1.0000,-0.2510,-0.1883,9.6761,2.1435,-0.1324,3.2583,-0.5123,-0.1967,9.5050,3.1092,-1.3328,3.3985
2252.7950,-1.9884,1.3336,155.7028,3.4965,0.0000,0.0000,-223.9089,77.7356,-113.8140,1500,1500,1.0000,-0.9573,-0.1380,9.8484,3.9755,-1.9492,3.2431,-0.9001,-0.1321,9.9120,3.0176,-0.3481,3.3985
2252.8142,-1.9597,1.4770,155.7630,1.5347,0.0000,-0.0000,-220.6664,77.2801,-112.5680,1500,1500,1.0000,-0.7825,-0.3583,9.9610,2.0137,0.8065,3.1438,-0.2322,-0.3835,9.5553,1.0557,1.6519,3.2459
2252.8334,-1.9152,1.4550,155.8233,-0.3775,0.0000,-0.0000,-215.6562,76.5651,-110.6359,1500,1500,1.0000,0.0603,-0.1093,9.6401,0.0824,1.8676,3.0980,0.2730,-0.3404,9.6989,-0.8374,3.2016,3.2077
2252.8526,-1.8800,1.4211,155.8846,1.5614,0.0000,-0.0000,-211.6945,76.0034,-109.1104,1500,1500,1.0000,0.1488,-0.3032,9.7503,0.7007,3.2340,3.3957,-0.0358,-0.2853,9.5936,2.4221,2.1405,3.1543
2252.8717,-1.7558,1.5114,155.9511,4.0156,0.0000,0.0000,-197.7097,73.9718,-103.6960,1500,1500,1.0000,-0.6221,-0.1141,9.6234,4.5404,0.0508,3.4721,-0.8355,-0.3236,9.8306,3.4908,-0.0427,3.3604
2252.8910,-1.6172,1.7158,156.0178,7.1798,0.0028,0.0351,-182.1999,71.7005,-97.6803,1500,1500,1.0000,-1.1033,-0.3056,9.8915,6.4870,0.5241,3.5789,-0.8475,-0.3260,9.7372,7.8725,1.2397,3.3527
2252.9103,-1.4476,1.7676,156.0789,10.8095,1.5180,21.6837,-225.4496,68.9166,-108.9848,1500,1500,1.0000,-0.3180,-0.4397,9.4678,10.2274,1.9439,3.3423,-0.0861,-0.4218,9.7157,11.3916,2.5832,3.2230
2252.9295,-1.2533,1.7542,156.1412,11.7065,4.6786,51.2246,-288.6526,65.7238,-126.0301,1500,1500,1.0000,0.1584,-0.4014,9.9753,11.5862,4.1042,3.5942,0.2395,-0.2733,9.8091,11.8267,5.1634,3.2001
2252.9487,-1.0370,1.8144,156.1998,11.5423,6.2704,48.6124,-213.9787,62.1654,-101.4929,1500,1500,1.0000,-0.1863,-0.2482,9.8556,11.6549,4.6997,3.5026,-0.3543,-0.0962,9.7229,11.4298,4.0031,2.7726
2252.9679,-0.7612,1.9883,156.2542,13.6645,7.3795,57.7170,-209.9509,57.6226,-97.5588,1500,1500,1.0000,-0.7298,-0.1141,9.6784,12.6778,3.5165,3.1515,-0.7996,-0.2997,9.8665,14.6511,4.5527,2.5360
2252.9873,-0.4612,2.2047,156.3023,18.3324,9.0225,84.8494,-246.9157,52.6769,-105.6808,1500,1500,1.0000,-0.7298,-0.3703,9.6114,17.4565,6.2340,2.8232,-0.5721,-0.2398,9.5840,19.2084,6.7665,2.4444
2253.0065,-0.1526,2.3433,156.3530,19.2065,10.5501,79.3051,-204.6562,47.5873,-89.9493,1500,1500,1.0000,-0.4329,-0.3511,9.4582,19.1282,6.4554,3.0751,-0.5386,-0.1872,9.5433,19.2847,6.1558,2.4673
2253.0252,0.2099,2.5071,156.4102,18.8668,11.7976,66.7570,-168.6259,41.6033,-75.5498,1500,1500,1.0000,-0.6532,0.0104,9.8029,18.8458,5.7378,3.2507,-0.8044,-0.0627,9.7971,18.8878,5.8428,2.7955
2253.0439,0.6005,2.6810,156.4656,18.3553,12.7812,52.7155,-84.1977,35.1516,-46.3503,1500,1500,1.0000,-0.7705,0.2450,9.7335,18.3877,5.4935,3.0980,-0.4500,0.2007,9.5864,18.3229,5.2168,2.4978
2253.0624,0.8924,2.7326,156.5102,15.8706,13.2446,24.9416,28.6502,30.3278,-9.6016,1500,1500,1.0000,-0.1145,0.0703,9.7598,16.8992,5.5852,2.6782,0.3903,0.0475,9.5194,14.8420,8.5985,1.9329
2253.0810,1.0206,2.6611,156.5496,11.3553,12.9612,-15.2799,158.9252,28.2021,30.7563,1500,1500,1.0000,1.1760,-0.2482,9.7048,12.2503,14.0126,2.5637,1.2834,-0.1345,8.9998,10.4603,17.2016,1.5283
2253.0996,1.1894,2.4925,156.5963,9.2179,12.3997,-30.1213,220.6756,25.4051,50.9596,1500,1500,1.0000,1.7003,0.1325,8.8213,9.5328,18.0737,2.4492,1.6233,0.1313,8.5736,8.9031,17.6214,1.9329
2253.1182,1.3457,2.2206,156.6510,7.4355,11.6551,-40.0699,266.9345,22.8117,66.3933,1500,1500,1.0000,1.7218,0.2427,8.4694,7.3572,14.5012,2.8919,1.9274,0.1863,8.6048,7.5137,11.4306,2.3604
2253.1367,1.3981,1.7690,156.6852,7.1569,10.9804,-36.4322,262.3558,21.9336,65.5466,1500,1500,1.0000,1.9541,-0.1284,8.7830,6.9221,6.2416,2.8156,1.9920,-0.5080,8.4228,7.3916,3.1329,0.7726
2253.1554,1.2965,1.5573,156.7282,7.9660,10.5282,-24.2484,215.8294,23.5964,50.5909,1500,1500,1.0000,0.7450,-0.7940,8.4861,7.8687,1.6615,2.4415,0.0456,-1.0251,8.6814,8.0634,2.4611,2.9634
2253.1740,1.2278,1.6838,156.7799,5.0118,9.7008,-44.4046,266.1416,24.7179,65.0117,1500,1500,1.0000,-0.7849,-0.4756,8.3688,5.6778,0.3561,3.0446,-0.8259,0.1863,7.7788,4.3458,-2.2412,3.0245
2253.1926,1.2867,1.6350,156.8550,0.1912,8.2743,-76.8535,366.2287,23.7330,95.6288,1500,1500,1.0000,-0.9812,0.4366,10.0304,1.4030,-11.2622,3.9301,-0.1268,1.0076,8.4755,-1.0206,-8.6763,4.5360
2253.2112,1.3369,1.6365,156.9153,5.5233,7.8617,-22.1306,214.2759,22.8919,50.5476,1500,1500,1.0000,-0.5479,-0.0183,9.9179,3.6855,-1.3996,3.7392,0.2132,0.4377,9.0285,7.3611,-4.4702,2.8871
2253.2305,1.7333,1.0825,156.9653,18.4698,9.4529,82.7434,-43.1235,16.3338,-22.7373,1500,1500,1.0000,0.2805,0.3935,9.0392,16.2198,-15.0408,3.2278,-0.6775,0.9597,9.7660,20.7198,-31.8748,3.1314
2253.2497,1.8485,0.4292,156.9866,3.3172,8.5325,-47.9298,346.1861,14.4148,95.2070,1500,1500,1.0000,-1.6277,0.6329,13.2961,8.1282,-46.7202,1.6934,-1.3838,0.4353,13.9414,-1.4939,-44.2488,3.6581
2253.2688,1.7575,0.1460,157.0242,-4.1523,6.6298,-99.2625,483.7777,15.8986,135.5942,1500,1500,1.0000,-2.5997,0.4390,15.5634,-5.9558,-35.3919,2.7545,-2.1427,1.3332,15.0332,-2.3489,-28.9511,3.3756
2253.2881,1.8227,-0.1282,157.0697,1.9164,5.9112,-36.6722,310.8590,14.8046,84.3749,1500,1500,1.0000,-1.0626,0.4653,12.6089,6.6626,-24.8958,3.0675,-0.1579,0.4760,10.1394,-2.8298,-21.2106,3.1314
2253.3072,1.6590,-0.7120,157.1019,-8.4080,0.6227,-18.5245,240.1642,17.4884,61.5562,1500,1500,1.0000,0.6756,0.3145,9.5516,-8.9023,-24.2011,1.7316,1.1230,-0.4457,10.1107,-7.9137,-20.1572,3.2917
2253.3263,1.4708,-0.8088,157.1475,-9.3737,0.0000,-0.0000,165.6196,20.5793,37.3383,1500,1500,1.0000,0.1081,0.2498,13.4349,-4.6123,-11.2698,2.3270,-0.4452,0.4353,14.1785,-14.1351,2.1329,2.8031
2253.3456,1.2342,-0.1891,157.2237,-11.4577,0.0000,-0.0000,138.9799,24.4704,27.0117,1500,1500,1.0000,-1.6684,0.2977,16.5929,-11.7191,12.9592,3.6476,-1.6064,1.0219,15.1188,-11.1962,27.6672,3.4444
2253.3647,1.1528,0.5965,157.3189,-3.7134,0.0000,-0.0000,129.8058,25.8032,23.4598,1500,1500,1.0000,-1.3739,0.2043,11.8715,-4.0703,27.5317,5.3347,-0.8403,0.0499,11.6574,-3.3565,27.7817,3.3985
2253.3839,0.8583,1.0962,157.3914,-11.9119,0.0000,-0.0000,96.6445,30.6537,10.6011,1500,1500,1.0000,0.1345,-0.1093,9.7048,-10.7268,29.6920,4.1362,0.7327,-0.2494,8.1068,-13.0969,28.5069,2.3985
2253.4032,0.3901,1.4617,157.4342,-20.7821,-4.1549,-115.1885,313.0577,38.3747,70.8925,1500,1500,1.0000,0.2997,-0.1811,10.7606,-19.2993,24.8371,2.1133,0.4191,-0.2231,10.7236,-22.2649,23.8275,1.9253
2253.4224,0.0524,1.3915,157.4872,-20.3966,-7.4402,-119.2024,291.0061,43.9456,60.9345,1500,1500,1.0000,0.2087,0.2091,6.6043,-21.9329,7.2951,1.9988,-0.2992,0.2127,6.0813,-18.8603,-2.7526,3.4749
2253.4415,-0.0784,0.9870,157.5694,-15.3660,-8.6291,-62.0160,141.4769,46.1060,14.7795,1500,1500,1.0000,-0.3348,0.3719,4.8182,-16.4061,-21.6744,3.2049,-0.2992,0.1001,5.3702,-14.3260,-31.8900,5.2077
2253.4607,-0.3455,0.3613,157.6503,-15.9996,-9.7347,-57.6095,127.0146,50.5152,7.7952,1500,1500,1.0000,0.0148,0.1158,6.7336,-16.8031,-32.9721,3.4492,0.4837,0.1480,7.5657,-15.1962,-26.7374,4.9405
2253.4799,-0.6699,-0.4479,157.7147,-17.8622,-10.9538,-63.4303,107.2476,55.8748,-1.3506,1500,1500,1.0000,1.2789,0.0008,8.8477,-14.9252,-23.9263,3.3881,1.7071,-0.2255,8.1092,-20.7992,-26.0351,2.8337
2253.4992,-1.0878,-1.6420,157.7795,-24.2019,-12.9410,-103.4056,175.3164,62.7815,14.9260,1500,1500,1.0000,1.8870,0.0703,8.3521,-16.9863,-33.5752,2.3118,3.3400,-2.6771,10.0341,-31.4176,-42.1038,3.5436
2253.5183,-1.7570,-1.2204,157.7177,-15.3050,-13.2956,-18.5500,-144.4258,73.8412,-87.6325,1500,1500,1.0000,-6.6148,-3.4947,16.9736,-19.9176,-19.5752,-3.9631,-10.0077,1.6684,12.7994,-10.6924,-27.7832,-4.1434
2253.5369,-0.1970,0.1598,157.7586,9.9736,-9.8052,187.4536,-468.3721,48.1023,-169.3730,1500,1500,1.0000,-12.5500,9.1275,5.0074,18.3877,-21.0790,-6.4592,-7.7500,-3.4098,15.1188,1.5595,-33.5618,16.1237
2253.5556,0.9801,-3.7928,157.6108,90.4317,4.3741,672.4761,-1826.3688,28.6708,-565.1131,1500,1500,1.0000,14.4135,-2.7166,2.2875,76.0748,-118.3919,-6.8867,-1.8315,-7.9372,15.1188,104.7885,-27.0961,-1.5251
2253.5742,1.7631,-3.9355,157.9263,29.2866,8.8388,193.5758,-358.9627,15.7332,-117.1287,1500,1500,1.0000,1.2382,0.1732,0.4991,79.4183,17.5012,17.2354,2.1596,-6.2636,15.1188,-20.8450,197.2245,15.0550
2253.5928,4.5562,-1.3769,158.1110,58.2217,16.2462,399.5510,-637.6256,-30.3984,-173.0486,1500,1500,1.0000,-2.2837,5.4596,7.6242,37.8763,101.7531,14.4873,20.1730,-1.8080,-24.1072,78.5672,83.7283,8.6734
2253.6113,4.7619,-2.2465,158.6057,7.3210,14.9074,-72.2101,744.2169,-33.8406,243.5694,1500,1500,1.0000,13.6617,0.0224,-8.6779,42.7389,117.0279,20.4644,11.6718,-0.8863,5.5617,-28.0969,16.2016,23.1237
2253.6303,7.1478,-1.0313,158.5588,41.8439,18.9479,213.2443,190.8629,-73.2790,101.2263,1500,1500,1.0000,-18.3290,19.5040,19.4845,-3.4977,6.4706,3.2202,17.6405,-2.3180,6.1459,87.1855,-51.3633,0.7421
2253.6494,9.9466,-2.6605,158.4153,24.9126,19.8426,46.7749,985.6744,-119.5577,367.4369,1500,1500,1.0000,8.7752,19.5040,-19.7415,1.8381,-130.6210,-12.1234,-19.0530,4.5677,15.1188,47.9870,47.4764,15.7879
2253.6686,12.0667,-3.5810,158.4789,38.3057,22.6121,144.2496,943.9752,-154.6612,375.9893,1500,1500,1.0000,1.7458,0.9561,-2.4961,47.9450,47.1119,6.7163,-0.5650,-1.3507,11.2480,28.6664,54.5451,-8.5327
2253.6878,13.2768,-0.7984,158.0832,-22.6943,15.8161,-353.3181,2513.4472,-174.7602,858.8903,1500,1500,1.0000,-10.1750,8.2632,4.8853,-20.3451,62.5241,-23.0547,5.2721,-1.5734,-7.8530,-25.0435,-25.1038,-16.8305
2253.7070,12.2271,-0.5241,157.6141,-6.8164,12.4212,-177.1459,1887.6809,-157.5626,660.8419,1500,1500,1.0000,-9.9451,-5.0246,19.4845,-3.8947,-36.6744,-7.2379,-14.0515,-6.9843,14.5663,-9.7382,-52.0732,-25.4106
2253.7264,11.7006,-0.1553,157.4134,31.5080,15.2842,147.7352,892.6490,-148.9918,357.1898,1500,1500,1.0000,-5.6762,-3.8586,10.4829,21.1816,-29.8194,-1.4363,1.4534,-0.8001,9.5313,41.8344,-45.5542,-5.0824
2253.7456,10.6953,0.3541,157.3559,-10.6905,11.3880,-202.8686,1789.0451,-132.5111,616.2202,1500,1500,1.0000,-4.1248,-2.6879,17.4045,-12.3069,-13.6286,-4.7722,-0.6799,-3.2326,3.9433,-9.0740,14.1481,0.1543
2253.7648,12.3078,-0.4225,157.1944,-6.4348,8.7146,-139.2019,1787.5023,-159.2411,631.7954,1500,1500,1.0000,3.7306,4.9664,1.1623,12.0366,36.1729,-11.7264,5.2817,1.8431,3.4213,-24.9061,21.0260,-16.5480
2253.7841,11.6593,-0.0081,157.1772,-9.6370,5.9590,-142.1746,1722.9378,-148.6577,606.0760,1500,1500,1.0000,-3.7920,0.2211,13.7653,-22.2535,-16.4301,4.0217,3.0766,1.7138,15.1188,2.9794,-0.8137,-2.4564
2253.8034,10.7753,0.1002,157.2228,-29.1141,0.0000,-0.0000,1213.8097,-134.1797,444.6507,1500,1500,1.0000,-0.9597,1.1453,19.4845,-29.3909,-4.2011,0.9301,-0.1651,-0.2973,10.8769,-28.8374,6.6596,4.3527
2253.8226,11.4983,-2.5794,157.1797,-7.7134,0.0000,-0.0000,1295.3126,-146.2227,476.3274,1500,1500,1.0000,3.0339,1.0806,0.2788,-1.0245,-1.3996,1.9453,-1.0989,2.7074,7.7093,-14.4023,-15.9358,-0.9755
2253.8419,11.1707,-2.8763,157.1584,-22.7057,-0.8116,-35.9926,1362.0426,-140.9301,493.1708,1500,1500,1.0000,0.4314,3.0199,11.4933,-26.7573,-21.9110,1.6934,0.2706,1.0315,6.8067,-18.6542,-8.8061,3.3909
2253.8611,10.6079,-2.3772,157.2896,-21.1485,-6.4730,-135.1191,1584.0783,-131.7499,554.2734,1500,1500,1.0000,1.0634,1.5212,13.3152,-9.3756,15.8142,0.6553,-0.8451,0.5000,15.1188,-32.9214,47.9802,0.9634
2253.8802,9.6812,-1.5748,157.4494,-31.5645,-10.2367,-197.1920,1658.3862,-116.5554,567.4491,1500,1500,1.0000,-0.0954,0.4940,10.8755,-36.6046,44.4248,1.7316,0.2299,-0.1656,11.3892,-26.5244,27.8733,0.8413
2253.8994,9.3615,-2.0929,157.5463,-20.0187,-11.7040,-76.2925,1274.1726,-111.3753,449.0769,1500,1500,1.0000,2.6987,1.0495,5.1390,-18.9481,18.4554,3.1362,2.1764,1.5367,6.2321,-21.0893,29.0413,-1.2503
2253.9187,8.5803,-1.8465,157.6572,-21.0073,-13.0995,-72.3532,1174.7821,-98.5700,411.5766,1500,1500,1.0000,1.4130,-0.1165,12.2929,-18.3222,25.9516,2.1820,2.2841,0.5024,4.0486,-23.6924,19.9878,0.3527
2253.9378,8.1347,-2.5732,157.6794,-22.1447,-14.4563,-70.7853,1120.0632,-91.3000,390.7990,1500,1500,1.0000,1.5231,0.5180,3.6953,-19.5741,4.8065,0.0369,-0.6512,0.2653,8.7676,-24.7153,-1.2259,1.5894
2253.9569,7.5655,-2.3568,157.7058,-11.4500,-14.0054,23.6055,784.0771,-81.9828,284.4128,1500,1500,1.0000,-1.3020,-0.1596,8.2108,-11.3985,-13.4148,2.0293,-1.7214,-0.5870,7.7189,-11.5015,-9.1648,2.6734
2253.9762,6.9438,-2.1602,157.7523,-12.1790,-13.7314,14.2566,740.9660,-71.7952,265.3669,1500,1500,1.0000,-1.0818,-0.3439,7.0544,-9.8413,-12.5370,2.6400,0.1150,-0.4840,12.3948,-14.5168,-9.1801,3.8337
2253.9955,6.3116,-2.3698,157.8016,-13.7973,-13.7413,-0.5126,712.2803,-61.4267,250.5401,1500,1500,1.0000,0.2542,-0.4014,9.1996,-14.6504,-14.8347,3.0598,0.8955,-0.3476,9.7468,-12.9443,-7.1801,3.4749
2254.0146,6.0644,-2.4453,157.8465,-2.6294,-12.0745,86.8868,432.7253,-57.4088,164.2629,1500,1500,1.0000,0.1967,0.2594,10.3297,-5.2916,-5.4988,2.2507,-0.0502,-0.1297,11.7292,0.0328,-7.2870,3.1314
2254.0335,5.8251,-2.6852,157.8843,-1.4042,-10.4740,84.9973,411.2081,-53.5181,155.4733,1500,1500,1.0000,-0.0379,0.0511,7.6290,-0.6046,-16.8729,2.8156,-0.1556,0.0714,6.9192,-2.2038,-19.3633,4.2153
2254.0521,5.6149,-2.6297,157.9283,0.2637,-8.8633,86.5899,382.9476,-50.1064,144.9481,1500,1500,1.0000,-1.6851,-0.0159,12.5156,1.5557,-22.0026,3.2431,-1.4532,0.1911,14.4346,-1.0282,-11.0122,4.0550
2254.0707,5.4513,-2.4717,158.0028,4.4126,-6.8719,107.1599,305.2763,-47.4612,120.0596,1500,1500,1.0000,-0.9285,-0.1835,12.4557,2.9679,-4.9416,3.8079,-0.4740,-0.1728,9.8234,5.8573,-4.6076,4.0627
2254.0904,5.3172,-2.7050,158.0735,7.4660,-2.8791,66.2894,407.8808,-45.3020,149.5455,1500,1500,1.0000,0.4577,-0.3128,10.0519,9.3648,-9.8347,3.7850,-0.0358,0.0044,9.0501,5.5672,-13.1343,4.3604
2254.1124,5.3578,-2.8848,158.1522,13.6950,0.0000,0.0000,603.3685,-46.0257,208.6260,1500,1500,1.0000,0.2326,-0.1117,11.6034,13.5786,-16.3767,4.2507,0.3999,0.1576,12.7659,13.8115,-3.8213,3.8337
2254.1317,5.5006,-2.6631,158.2347,14.6072,0.0000,0.0000,619.4538,-48.4370,214.8983,1500,1500,1.0000,-0.6365,0.3791,12.6640,15.9145,0.0126,4.3118,-0.8738,0.6748,10.9846,13.3000,0.5909,3.3146
2254.1509,5.6738,-2.2671,158.3026,13.7790,0.0000,0.0000,638.9633,-51.3516,222.5000,1500,1500,1.0000,-1.6588,0.5802,10.3871,13.5633,-2.4301,3.5484,-1.6447,0.4665,11.3509,13.9947,-2.1190,3.5360
2254.1703,5.8804,-1.8676,158.3824,15.1301,1.9974,44.3757,534.4271,-54.8185,193.2192,1500,1500,1.0000,-1.5965,0.6568,10.7175,15.3572,-2.7126,3.4950,-1.0941,0.4497,10.3717,14.9031,3.1481,4.5818
2254.1889,5.9596,-1.6044,158.4631,13.8744,5.7705,75.4576,453.8385,-56.1857,169.8630,1500,1500,1.0000,-0.0403,0.1924,10.4302,15.3038,8.9592,3.2660,0.5675,-0.0028,9.9695,12.4450,12.4000,2.5512
2254.2074,6.0279,-1.3460,158.5522,12.3782,6.8094,52.9930,526.2248,-57.3722,192.2907,1500,1500,1.0000,0.2207,0.2738,9.2738,12.1435,13.2264,3.3270,0.3329,0.2031,9.5050,12.6130,14.7435,2.8871
2254.2261,6.1564,-0.9934,158.6333,12.2370,7.6235,43.5985,567.7576,-59.5542,206.0598,1500,1500,1.0000,-0.4473,0.5898,10.0208,12.6397,12.7607,3.4415,-0.4764,0.5431,9.7731,11.8344,9.7970,2.4749
2254.2447,6.2754,-0.8170,158.6782,10.7256,8.0888,25.0610,634.5471,-61.5800,227.3121,1500,1500,1.0000,-0.5934,0.6377,9.0512,10.5862,1.5928,2.4873,-1.0031,0.5455,8.7245,10.8649,-1.6610,2.1314
2254.2632,6.4200,-0.7218,158.6971,12.3362,8.7259,34.4019,623.9314,-64.0297,225.5972,1500,1500,1.0000,-1.0339,0.6233,8.9722,12.6244,-9.1935,2.0675,-0.7062,0.6843,8.8466,12.0481,-9.5084,1.8795
2254.2823,6.5387,-0.8483,158.7118,11.9126,9.2039,24.9858,664.4208,-66.0535,238.9583,1500,1500,1.0000,-0.1744,0.5587,8.9674,12.0748,-9.9034,1.9530,0.3041,0.5048,8.7724,11.7504,-10.1496,1.6810
2254.3016,6.6311,-1.1473,158.7239,11.6569,9.5719,19.1248,691.7145,-67.6452,248.1015,1500,1500,1.0000,0.5415,0.4797,8.8548,12.0748,-10.6668,1.7163,0.5100,0.3468,9.1387,11.2389,-9.4397,1.7039
2254.3207,6.6649,-1.1635,158.7401,10.8973,9.7707,10.3883,720.6869,-68.2700,257.1681,1500,1500,1.0000,-0.0978,0.3672,10.2866,10.7847,-6.0942,1.3118,-0.1986,0.6843,10.6398,11.0099,-1.5847,0.9405
2254.3400,6.6880,-0.9835,158.7496,6.2027,9.2355,-27.7357,833.0803,-68.7172,291.1544,1500,1500,1.0000,-0.6795,0.7861,10.9905,7.0442,0.0813,0.6171,-0.6392,0.8495,10.3094,5.3611,-0.1114,0.0932
2254.3592,6.6871,-0.8235,158.7505,6.1874,8.7783,-23.8496,821.7928,-68.7700,287.7999,1500,1500,1.0000,-0.5862,0.6138,9.8867,6.3877,0.1806,-0.0470,-0.4261,0.6101,9.8665,5.9870,-1.0351,0.0245
2254.3783,6.6565,-0.6819,158.7513,5.0423,8.2179,-29.2864,834.0039,-68.3318,291.2002,1500,1500,1.0000,-0.2606,0.6233,10.6553,5.1969,2.2111,-0.2608,-0.0694,0.6987,11.0325,4.8878,3.9649,-0.5785
2254.3977,6.6253,-0.5804,158.7524,5.0385,7.7410,-24.6494,817.1262,-67.8820,285.8670,1500,1500,1.0000,0.0220,0.6233,10.7654,5.3496,4.3485,-0.4211,-0.1268,0.5359,10.3430,4.7275,3.6825,-0.5862
2254.4168,6.5464,-0.3984,158.7468,4.4202,7.2429,-25.9614,812.0228,-66.6465,283.5948,1500,1500,1.0000,-0.4856,0.4150,10.0735,4.5633,2.4706,-0.6119,-0.5506,0.2438,9.7276,4.2771,3.0794,-0.7923
2254.4360,6.4458,-0.1342,158.7359,1.4622,6.3758,-45.3765,856.5988,-65.0501,296.0097,1500,1500,1.0000,-0.7825,0.5778,10.6984,2.6015,3.9897,-1.0012,-0.6104,0.5838,10.3693,0.3229,5.4306,-1.3114
2254.4552,6.2708,0.1173,158.7239,-0.8279,4.5558,-48.1938,845.0037,-62.2260,290.8367,1500,1500,1.0000,-0.4928,0.4007,10.0495,-0.5435,6.2874,-1.3218,-0.3471,0.5191,9.8713,-1.1122,8.1100,-1.5327
2254.4745,6.0248,0.1589,158.7130,-2.0683,1.4564,-19.9023,735.8119,-58.2270,255.6798,1500,1500,1.0000,0.4745,0.1565,9.7431,-1.8031,8.0584,-1.4134,0.7806,-0.0363,9.0908,-2.3336,7.7894,-1.4106
2254.4938,5.6875,-0.1000,158.6974,-3.2783,0.0050,-0.0944,640.7767,-52.7193,223.8646,1500,1500,1.0000,1.2502,-0.1859,8.7878,-2.9481,4.3714,-1.2379,1.4486,-0.0842,8.1451,-3.6084,1.2092,-0.9526
2254.5131,5.3914,-0.4395,158.6803,-3.5111,0.0000,-0.0000,607.1437,-47.8862,210.8748,1500,1500,1.0000,1.3100,-0.0447,8.2036,-3.2687,-0.0790,-1.2531,1.1660,-0.1632,7.8003,-3.7534,0.5145,-0.5709
2254.5323,5.1491,-0.7446,158.6659,-3.4348,0.0000,-0.0000,579.8542,-43.9400,200.3203,1500,1500,1.0000,1.2789,0.0966,8.0695,-3.0092,1.4706,-1.1844,1.1756,0.1744,7.4436,-3.8603,0.5832,-0.6473
2254.5514,5.0345,-1.0935,158.6397,-4.0989,0.0000,-0.0000,566.9454,-42.0993,195.3432,1500,1500,1.0000,1.3172,0.5754,7.9977,-3.4443,-1.2011,-1.3982,1.2020,0.8112,8.7700,-4.7534,-1.4397,-1.1511
2254.5707,4.9420,-1.3336,158.6102,-6.0836,0.0000,-0.0000,556.5313,-40.6231,191.3332,1500,1500,1.0000,1.0634,0.9082,9.2164,-5.0779,-1.5446,-1.4669,1.0559,0.7202,9.1267,-7.0893,-1.8061,-1.2427
2254.5900,4.7318,-1.4727,158.5762,-8.5340,0.0000,-0.0000,532.8597,-37.2026,182.1795,1500,1500,1.0000,0.5966,0.6185,9.6258,-7.4443,-3.6973,-1.7951,0.6226,0.5766,10.7883,-9.6237,-2.0198,-1.3114
2254.6093,4.3186,-1.3609,158.5446,-11.7554,-0.0554,-1.3372,490.1715,-30.4277,165.3081,1500,1500,1.0000,-0.1241,-0.0542,11.2251,-10.1924,0.3103,-2.0699,-0.0694,0.4114,10.6805,-13.3183,2.9039,-1.8610
2254.6286,3.9673,-1.2585,158.5129,-14.1485,-3.3185,-57.9704,613.7121,-24.6711,198.9163,1500,1500,1.0000,-0.3228,0.3432,8.6106,-14.3756,-1.7584,-1.9325,0.0982,0.1887,9.4715,-13.9214,-1.6381,-1.1663
2254.6477,3.5684,-1.1306,158.4854,-16.3012,-6.5849,-89.4813,659.5393,-18.1249,208.7368,1500,1500,1.0000,-0.5024,0.3121,11.2155,-14.8184,-1.8118,-1.7340,-0.3279,0.3228,9.7995,-17.7840,-0.0427,-1.0442
2254.6670,3.1788,-0.9787,158.4677,-15.2783,-7.8889,-67.6561,552.8108,-11.7288,172.8805,1500,1500,1.0000,-0.3491,0.1876,10.2602,-14.8565,2.0126,-1.4363,-0.1053,0.3396,10.2017,-15.7000,1.3390,-0.6396
2254.6862,2.7986,-0.9191,158.4527,-15.3317,-9.0053,-58.2456,482.8831,-5.4820,148.1541,1500,1500,1.0000,-0.1265,0.1541,9.6952,-15.3298,-0.5446,-1.1005,-0.2848,0.2079,9.7013,-15.3336,-0.2717,-0.4411
2254.7052,2.4012,-0.7648,158.4437,-15.8164,-10.0270,-53.5533,424.6190,1.0509,126.7552,1500,1500,1.0000,-0.4497,0.0511,10.0256,-15.7878,-0.0255,-0.9478,-0.4405,-0.0339,10.4124,-15.8450,2.5222,-0.0824
2254.7245,1.9940,-0.5457,158.4439,-16.0302,-10.9275,-46.8339,359.4173,7.7491,103.1758,1500,1500,1.0000,-0.5957,-0.0399,10.0950,-15.2993,2.5623,-0.4669,-0.4692,-0.0004,10.0964,-16.7611,3.8810,0.2993
2254.7438,1.5770,-0.3087,158.4475,-17.1065,-11.8543,-47.8829,315.4818,14.6137,85.8763,1500,1500,1.0000,-0.5574,-0.0399,9.4989,-16.7802,3.7989,-0.1921,-0.4189,-0.0986,9.2799,-17.4328,5.3390,0.3604
2254.7630,1.1921,-0.1863,158.4572,-15.8928,-12.4601,-31.5482,187.5795,20.9527,43.7022,1500,1500,1.0000,-0.1025,-0.0830,9.5109,-16.0626,4.9210,0.1820,-0.1316,0.0020,9.3374,-15.7229,4.0260,0.6581
2254.7821,0.8806,-0.1338,158.4778,-13.0645,-12.5508,-4.7414,94.0151,26.0833,12.5546,1500,1500,1.0000,-0.0810,-0.0638,9.2810,-13.5206,2.1424,0.7469,-0.0837,-0.0483,9.0238,-12.6084,0.4382,1.4444
2254.8008,0.6431,-0.0891,158.5084,-11.4844,-12.3908,8.5816,39.7484,29.9965,-6.0734,1500,1500,1.0000,-0.3444,0.0344,9.2116,-10.8184,-1.9645,1.2507,-0.4045,0.0116,9.1219,-12.1504,-2.3633,2.2306
2254.8194,0.3973,-0.0390,158.5440,-10.0683,-12.0424,18.7379,-7.6899,34.0479,-22.7357,1500,1500,1.0000,-0.3659,-0.1692,10.1310,-9.6581,-4.0866,2.1973,-0.0334,-0.2063,11.4156,-10.4786,1.7512,1.6047
2254.8379,0.1944,0.1315,158.5963,-13.4080,-12.2473,-11.0468,44.7550,37.3937,-9.0097,1500,1500,1.0000,-0.6772,0.3552,11.9051,-15.3756,3.9745,3.2278,-0.2800,0.6125,9.5002,-11.4405,1.0565,2.3222
2254.8567,0.2157,0.1228,158.6681,-2.1218,-10.7284,81.0836,-174.3572,37.0397,-74.5310,1500,1500,1.0000,-0.5143,0.3648,11.4430,-1.5665,-4.1171,3.3805,0.3041,-0.0172,8.0230,-2.6771,-6.4549,4.4291
2254.8752,0.0788,0.0704,158.7223,-9.1027,-10.4846,13.1252,-24.1088,39.2987,-30.8119,1500,1500,1.0000,-0.2366,0.1732,10.1932,-7.3985,-6.3461,2.9453,-0.2729,0.1792,9.8306,-10.8069,-3.8213,2.9253
2254.8942,0.0781,0.0788,158.7819,-3.9119,-9.4987,51.8495,-117.1089,39.3088,-58.7179,1500,1500,1.0000,-0.1025,0.3384,9.4199,-4.7649,-2.1324,2.8079,-0.3399,0.4904,10.9271,-3.0588,1.1176,3.5436
2254.9135,0.0611,0.2383,158.8477,-4.0569,-8.6824,42.4221,-96.0830,39.5895,-52.5786,1500,1500,1.0000,-0.7035,0.2690,9.6162,-3.3145,-0.7202,3.3194,-0.5506,0.4138,10.0557,-4.7992,1.2321,3.5436
2254.9327,0.1022,0.2884,158.9419,-2.6447,-7.7767,47.1819,-103.6510,38.9106,-54.4417,1500,1500,1.0000,-0.3228,0.4198,10.1501,-1.8565,-0.4759,5.6324,-0.3375,0.6173,9.3158,-3.4328,-0.6687,3.9405
2254.9518,0.1838,0.2713,159.0163,-0.6180,-6.7029,56.0531,-117.2843,37.5622,-57.7226,1500,1500,1.0000,-0.2031,0.4462,9.8317,-1.7573,-3.7126,3.8690,-0.1915,0.5263,10.8170,0.5214,-1.3328,3.8566
2254.9712,0.2261,0.3951,159.0928,-0.9577,-5.7937,44.2452,-84.9736,36.8616,-47.6090,1500,1500,1.0000,-0.4114,0.3193,10.3991,-1.5741,1.1119,3.8308,-0.2010,0.5287,9.7731,-0.3412,4.2168,4.0703
2254.9903,0.3803,0.5309,159.1700,1.5156,-2.9270,35.5396,-49.6103,34.3134,-35.4711,1500,1500,1.0000,-0.5000,0.6209,10.1190,0.9374,2.8294,3.8690,-0.4572,0.6149,9.8282,2.0939,1.5069,4.0932
2255.0095,0.5104,0.6252,159.2460,2.4317,-0.4566,7.0116,31.0647,32.1617,-9.9776,1500,1500,1.0000,-0.5263,0.4342,9.8053,2.7542,0.2951,3.8385,-0.4812,0.3994,9.8378,2.1092,-0.6229,4.0474
2255.0289,0.6117,0.7269,159.3229,3.7103,0.0000,0.0000,57.4022,30.4834,-1.0694,1500,1500,1.0000,-0.4066,0.2355,10.7894,3.3267,1.6768,4.0217,-0.3950,0.3970,10.6829,4.0939,2.9039,3.8031
2255.0480,0.7572,0.7968,159.4014,5.4660,0.0000,0.0000,71.0556,28.0751,4.4716,1500,1500,1.0000,-0.2031,0.3001,10.5284,5.7160,3.7531,4.0446,-0.2561,0.3061,9.6606,5.2160,1.8504,4.0321
2255.0671,0.9377,0.8443,159.4781,8.0004,0.0000,0.0000,105.5924,25.0874,16.6253,1500,1500,1.0000,-0.3491,0.2403,9.1134,7.2274,-0.3538,4.0751,-0.4764,0.1648,10.0221,8.7733,-0.1648,3.8871
2255.0864,1.0905,0.9178,159.5512,6.9775,0.0000,0.0000,122.7972,22.5554,23.3059,1500,1500,1.0000,-0.4234,0.2594,10.5858,7.0366,0.9287,3.8308,-0.3375,0.1001,10.1131,6.9183,1.1023,3.6886
2255.1050,1.2263,0.9882,159.6227,8.3286,0.0000,0.0000,138.0847,20.3031,29.2435,1500,1500,1.0000,-0.5024,0.1110,10.6098,7.5481,-0.6286,3.8919,-0.4524,0.0547,10.8577,9.1092,1.4458,3.8108
2255.1237,1.3552,1.0552,159.6922,10.2943,0.1594,3.0467,143.8311,18.1618,32.2522,1500,1500,1.0000,-0.3396,-0.0854,10.4542,9.5786,1.3409,3.7316,-0.1148,-0.1680,9.9575,11.0099,2.7283,3.6963
2255.1425,1.4952,1.0666,159.7568,11.5042,2.5570,36.0562,64.5230,15.8377,9.8543,1500,1500,1.0000,-0.2462,-0.1213,10.0208,11.4565,-0.2240,3.5866,-0.1915,-0.0794,10.2663,11.5519,0.2855,3.4596
2255.1610,1.6344,1.0849,159.8165,12.1836,5.6289,59.8811,11.5834,13.5243,-4.6396,1500,1500,1.0000,-0.1672,-0.1644,10.5978,12.1511,0.7149,3.3805,-0.2968,-0.0914,10.6207,12.2160,2.2016,3.1161
2255.1796,1.7892,1.1896,159.8778,12.9660,6.8288,58.4470,33.1409,10.9528,3.3706,1500,1500,1.0000,-0.4545,-0.1261,10.3009,12.7542,3.1500,3.4415,-0.2393,-0.0746,9.9838,13.1779,2.5985,3.1466
2255.1982,1.9666,1.2929,159.9309,14.8820,8.0367,64.7649,34.9287,8.0051,5.6756,1500,1500,1.0000,-0.5383,-0.1572,9.8413,14.7389,3.0737,2.9453,-0.5267,-0.2207,9.9288,15.0252,0.0794,2.8337
2255.2168,2.1726,1.3925,159.9748,15.5347,9.1614,60.6463,69.9876,4.5844,18.2457,1500,1500,1.0000,-0.6748,-0.0470,10.3704,15.0213,0.2569,2.6171,-0.6559,0.0451,10.5967,16.0481,1.0336,2.2230
2255.2353,2.4050,1.4628,160.0114,17.7828,10.4546,69.8819,69.5587,0.7258,20.4321,1500,1500,1.0000,-0.5694,-0.0782,10.5451,16.7847,0.7149,2.3881,-0.6272,0.0427,10.0700,18.7809,0.1329,1.6963
2255.2539,2.7089,1.5197,160.0397,19.8668,11.8665,75.8878,86.4862,-4.3159,28.5354,1500,1500,1.0000,-0.5814,0.1086,9.9634,19.6168,-0.5904,1.9606,-0.5482,0.1648,10.0700,20.1168,-0.6458,1.2382
2255.2726,3.0322,1.6015,160.0675,18.7790,12.9033,55.4661,181.7012,-9.6796,60.3181,1500,1500,1.0000,-0.6388,0.3408,10.1884,19.3419,0.1577,1.7545,-0.5410,0.2821,10.1945,18.2160,0.5603,1.2001
2255.2914,3.2864,1.6294,160.0903,15.0080,13.2190,16.7461,321.8431,-13.9071,104.8972,1500,1500,1.0000,-0.4976,0.3959,10.3967,16.0213,-0.1019,1.4644,-0.4692,0.4641,9.7707,13.9947,-1.5160,1.0856
2255.3106,3.4837,1.6723,160.1014,11.4622,12.9555,-13.7396,431.8618,-17.1974,139.8770,1500,1500,1.0000,-0.7059,0.4653,10.1166,12.2961,-2.6668,0.9072,-0.4716,0.5024,9.9934,10.6282,-2.0274,0.5512
2255.3298,3.6348,1.6918,160.1061,8.7370,12.3227,-32.8965,504.0548,-19.7276,163.0530,1500,1500,1.0000,-0.5527,0.5395,10.2411,9.1740,-1.8347,0.4492,-0.2848,0.5024,9.9719,8.3000,-1.6076,0.2917
2255.3491,3.7483,1.6376,160.1077,8.2790,11.7162,-31.4814,512.7532,-21.6366,166.8079,1500,1500,1.0000,-0.1648,0.4294,10.0807,8.2274,-1.5904,0.1973,-0.1795,0.4305,9.9647,8.3305,-0.9206,0.2993
2255.3683,3.7789,1.5292,160.1102,6.9775,11.0054,-37.0638,532.2767,-22.1793,172.9906,1500,1500,1.0000,0.2111,0.1828,10.3560,7.8229,-0.3919,0.3805,0.2155,0.1049,10.0604,6.1321,0.4382,0.1695
2255.3876,3.7229,1.4992,160.1160,2.7828,9.7720,-63.9700,603.4635,-21.2931,193.8149,1500,1500,1.0000,-0.0882,0.1517,10.0615,3.7771,0.5699,0.3728,-0.1388,0.2055,9.6391,1.7885,0.4382,0.4902
2255.4069,3.6468,1.5492,160.1182,-1.0874,8.1431,-84.1491,653.0084,-20.0738,207.9468,1500,1500,1.0000,-0.4353,0.3863,9.9562,0.1435,0.2798,0.0904,-0.0909,0.4018,9.6391,-2.3183,1.1481,0.2230
2255.4261,3.4621,1.4878,160.1127,-6.3088,5.9741,-112.9885,715.2646,-17.0607,224.8158,1500,1500,1.0000,0.2710,0.3288,9.7766,-4.7878,2.5165,-0.2684,0.5723,0.0882,9.2057,-7.8298,3.9039,-0.5480
2255.4454,3.1113,1.3129,160.1035,-10.7439,0.2263,-8.4952,374.8232,-11.3044,119.2296,1500,1500,1.0000,0.7977,-0.0494,9.0392,-9.9100,3.6462,-0.6348,0.7542,-0.1201,8.8107,-11.5779,4.2474,-0.4182
2255.4655,2.7015,1.1620,160.0971,-11.9233,0.0000,-0.0000,304.2045,-4.5691,94.0028,1500,1500,1.0000,0.7594,-0.1787,8.9195,-11.3298,4.7836,-0.4974,0.5292,-0.3859,8.3797,-12.5168,4.7130,-0.2579
2255.4851,2.2088,1.0849,160.0909,-15.2134,0.0000,-0.0000,248.7232,3.5381,72.4941,1500,1500,1.0000,0.2111,-0.3344,8.1725,-13.6199,1.8829,-0.4211,0.0815,-0.4194,7.8841,-16.8069,0.5451,0.1390
2255.5046,1.6881,1.0266,160.0758,-18.8126,-0.8881,-30.3701,277.5485,12.1136,75.9964,1500,1500,1.0000,0.0555,-0.2625,8.5508,-17.7497,-0.4454,-0.8104,0.0934,-0.2135,8.2600,-19.8756,0.3924,-0.3419
2255.5250,1.1883,0.9500,160.0512,-20.1752,-6.3620,-119.6031,398.5538,20.3476,107.3576,1500,1500,1.0000,0.0866,-0.0686,8.3640,-20.0016,-0.0408,-1.1310,0.2467,-0.1991,8.1834,-20.3489,-1.1419,-1.0900
2255.5454,0.6801,0.9279,160.0232,-21.0111,-8.5594,-108.0775,323.2027,28.7264,79.7250,1500,1500,1.0000,0.0698,-0.1261,8.5173,-20.2993,1.2187,-1.5890,0.0982,-0.0866,8.4444,-21.7229,2.4077,-0.9908
2255.5655,0.1639,0.9832,159.9986,-24.3355,-10.9258,-117.4630,297.2896,37.2420,66.8416,1500,1500,1.0000,-0.2438,-0.0040,8.5532,-23.2916,1.3256,-1.5737,-0.2393,-0.0387,8.1594,-25.3794,1.3084,-0.6549
2255.5851,-0.3197,0.9995,159.9734,-25.7134,-13.1439,-113.3143,290.3471,45.2242,59.9696,1500,1500,1.0000,-0.3659,0.0990,8.7375,-25.0474,-1.4072,-1.7493,-0.4141,-0.0052,8.8298,-26.3794,-2.7984,-0.6473
2255.6047,-0.7941,0.9826,159.9484,-24.2859,-14.8152,-85.2706,156.1644,53.0594,15.0137,1500,1500,1.0000,-0.4593,-0.0399,9.1685,-24.4061,-4.3232,-1.5814,-0.3040,-0.0220,9.3302,-24.1656,-5.0045,-0.7236
2255.6251,-1.2441,1.0050,159.9205,-24.3088,-16.2393,-69.6924,60.6206,60.4978,-18.1125,1500,1500,1.0000,-0.2007,0.0463,9.9250,-23.0550,-1.5675,-1.7035,0.2155,0.3683,9.1626,-25.5626,3.7359,-0.9755
2255.6454,-1.5750,1.0351,159.8975,-21.7821,-17.0707,-40.9272,-59.4809,65.9729,-57.4280,1500,1500,1.0000,0.1943,0.2738,10.2746,-21.4061,3.3943,-1.4898,-0.0957,0.0906,10.5848,-22.1580,8.1023,-0.6625
2255.6654,-1.8968,1.0218,159.8924,-19.9844,-17.5077,-21.8223,-150.7423,71.3019,-88.0038,1500,1500,1.0000,0.0579,0.0583,9.9083,-19.7878,2.8371,-0.5814,0.0504,0.3994,9.5385,-20.1809,1.1939,0.1161
2255.6852,-2.1398,1.0878,159.8988,-23.0149,-18.3338,-41.9063,-120.2581,75.3319,-81.2766,1500,1500,1.0000,-0.3108,0.5826,9.5875,-22.5512,0.7302,-0.2379,-0.5674,0.5215,10.4675,-23.4786,2.4458,0.6047
2255.7047,-2.4281,1.2408,159.9098,-25.7057,-19.4396,-56.6767,-110.1848,80.1132,-81.1233,1500,1500,1.0000,-0.5718,0.5683,9.6593,-25.2687,2.6539,-0.0470,-0.2585,0.4042,9.7324,-26.1427,3.8962,1.0092
2255.7247,-2.7837,1.4410,159.9299,-28.0149,-20.7259,-64.2743,-128.3501,86.0087,-90.1102,1500,1500,1.0000,-0.6269,0.4893,10.3440,-27.9023,4.6920,0.5255,-0.6392,0.4186,9.6415,-28.1275,6.2092,1.5360
2255.7452,-3.0381,1.6613,159.9712,-24.5340,-21.2971,-27.8781,-261.8259,90.2376,-132.6903,1500,1500,1.0000,-0.6077,0.5467,9.4702,-24.1771,5.9668,1.4263,-0.3734,0.3683,9.5050,-24.8908,6.4993,2.5970
2255.7655,-3.3278,1.7166,160.0260,-23.8699,-21.6830,-18.9550,-320.1417,95.0498,-153.0724,1500,1500,1.0000,-0.0810,0.3145,10.1908,-24.1084,3.4172,2.3194,-0.0095,0.0978,10.2831,-23.6313,6.3924,3.0321
2255.7856,-3.6288,1.8590,160.0766,-21.0302,-21.5851,4.8803,-422.6903,100.0534,-186.8391,1500,1500,1.0000,0.1034,-0.0638,9.8963,-21.2306,10.6081,3.1667,0.5579,0.0187,9.3087,-20.8298,12.5909,2.9482
2255.8053,-3.9880,1.6688,160.1348,-18.8660,-21.1772,20.6841,-508.6534,106.0194,-216.2076,1500,1500,1.0000,1.2478,-0.5019,8.6298,-20.1313,12.0432,3.2354,1.4821,-0.9198,8.2815,-17.6008,8.7206,3.8795
2255.8249,-4.3344,1.3662,160.1980,-8.5607,-19.2848,96.4956,-766.0022,111.7781,-296.8675,1500,1500,1.0000,1.4585,-1.2968,8.4957,-10.5970,5.5470,3.7087,0.5627,-1.8846,9.7971,-6.5244,7.4000,4.1085
2255.8463,-4.7526,1.5661,160.2786,-0.0149,-16.3943,134.9895,-923.9639,118.7258,-348.4247,1500,1500,1.0000,-0.7083,-2.4460,9.5420,-2.7344,6.2340,4.8308,-0.7804,-2.0020,9.6846,2.7046,1.0794,4.3298
2255.8668,-4.9558,1.5559,160.4050,6.4775,-12.9635,167.5261,-1040.5574,122.1284,-385.4443,1500,1500,1.0000,-1.1081,-2.2593,9.6377,4.9984,-9.3538,5.0751,-1.4795,-1.9876,9.3925,7.9565,-12.0351,6.3527
2255.8871,-4.5846,1.4425,160.5333,22.1836,-7.6915,259.3797,-1263.2943,116.0504,-448.6185,1500,1500,1.0000,-0.2486,-1.2011,9.6210,20.6702,-8.3843,6.5484,-0.4812,-0.6780,10.0102,23.6969,-3.9129,5.4520
2255.9070,-4.2045,1.1402,160.6758,24.4049,0.0000,0.0000,-473.4708,109.8206,-207.9336,1500,1500,1.0000,0.2470,-1.1723,9.1757,23.0366,-5.0103,6.4644,-0.3758,-1.4800,8.8681,25.7733,-14.4015,6.7421
2255.9261,-3.7037,0.8300,160.8318,22.2332,0.0000,0.0000,-417.0663,101.5939,-186.0762,1500,1500,1.0000,-1.0937,-0.3966,9.9681,22.4946,-23.8576,5.9301,-1.2928,-0.5152,12.3182,21.9718,-29.7145,6.4749
2255.9449,-3.3388,0.4437,160.9671,18.1988,0.2447,9.7097,-403.9405,95.6071,-178.5464,1500,1500,1.0000,-1.7138,-0.7701,14.4884,20.4106,-33.4912,5.8079,-1.0127,-0.8264,14.7842,15.9870,-31.9282,4.6199
2255.9643,-2.7697,-0.0394,161.1092,23.8706,6.5436,157.6357,-765.8784,86.2446,-281.5103,1500,1500,1.0000,-0.4736,-0.1763,13.6409,19.5786,-29.4454,5.6705,-0.7685,-0.3476,14.0468,28.1626,-27.5313,5.9253
2255.9840,-2.1998,-0.4993,161.2513,26.3820,9.5194,150.8819,-682.2473,76.8627,-250.7918,1500,1500,1.0000,-0.1935,-0.3200,12.3097,27.2351,-25.8958,6.1667,0.1102,-0.0028,11.2144,25.5290,-25.0809,6.1161
2256.0040,-1.4360,-0.8137,161.3626,28.2370,12.3270,140.6404,-472.2904,64.2752,-180.2523,1500,1500,1.0000,0.0124,0.5922,12.0367,26.7007,-21.2622,5.1667,-0.1005,0.4880,13.2304,29.7733,-13.0198,5.1772
2256.0239,-0.6155,-0.4168,161.4439,31.9507,15.2706,147.8584,-412.6172,50.7427,-154.2308,1500,1500,1.0000,-0.7370,0.8292,14.4573,33.6702,6.4401,5.0751,-0.6200,1.1297,15.1188,30.2313,17.5298,3.9100
2256.0435,0.0884,0.2727,161.5303,29.3286,17.3793,107.5206,-299.7080,39.1277,-113.3890,1500,1500,1.0000,-0.9214,0.6114,13.5714,26.7847,24.6615,5.5560,-0.1101,0.5335,12.5863,31.8725,28.3542,3.7726
2256.0632,0.7047,0.8321,161.6090,29.6530,19.2204,93.4954,-189.9167,28.9515,-74.3459,1500,1500,1.0000,-0.2725,0.2211,12.1971,32.8076,25.8142,4.8385,0.6704,0.1121,11.3916,26.4985,27.2321,3.0016
2256.0835,1.0176,1.2111,161.6889,20.2790,19.3791,7.8339,92.0258,23.7780,13.3409,1500,1500,1.0000,-0.1217,-0.3367,11.2993,21.5175,24.0432,4.2354,-0.1963,-0.1728,9.1866,19.0405,15.0718,3.3298
2256.1038,1.4012,1.1575,161.7836,19.6110,19.4139,1.7064,152.8654,17.4350,35.3986,1500,1500,1.0000,-0.4353,0.0870,7.9618,20.2274,2.8829,4.4263,-0.5721,-0.0722,6.6655,18.9947,-14.2335,5.1085
2256.1242,1.8174,0.8330,161.8827,18.9355,19.3422,-3.5249,214.8040,10.5487,58.1120,1500,1500,1.0000,-0.6221,0.2738,7.3848,18.9450,-22.5065,5.1362,-0.6344,0.2725,8.1810,18.9260,-23.6000,5.7726
2256.1443,2.1466,0.3214,161.9747,14.3820,18.5981,-37.0803,348.5058,5.0966,101.4938,1500,1500,1.0000,0.3715,0.3959,7.8924,15.0748,-19.4301,5.1438,0.9841,0.1193,6.7086,13.6893,-16.8977,5.2993
2256.1638,3.0039,-1.2160,162.0545,21.5080,19.0346,22.3515,273.8833,-9.0788,87.6123,1500,1500,1.0000,4.0897,1.9306,7.3489,19.0519,-23.8423,5.1362,4.4246,3.3491,8.4539,23.9641,-23.5160,6.1008
2256.1834,2.2566,0.1940,162.0777,-18.1332,13.4594,-284.6395,1073.8625,3.2292,320.2213,1500,1500,1.0000,-14.7048,-2.6232,11.1772,-19.5054,-19.0484,4.7927,-13.8145,-5.2772,9.5217,-16.7611,-20.8213,0.4520
2256.2037,0.8871,2.0689,161.9325,-55.8355,0.0043,-0.7147,101.9479,25.8166,15.0944,1500,1500,1.0000,-4.7425,-0.4110,2.0936,-16.4367,-5.2316,3.8385,20.1730,0.3779,15.1188,-95.2344,-103.3099,-12.7465
2256.2241,1.6421,0.1204,162.1754,11.7637,1.9016,27.8276,104.7667,13.3421,23.4247,1500,1500,1.0000,7.9228,1.0423,1.0019,-30.2535,-31.1706,22.0140,-6.6821,5.4249,15.1188,53.7809,117.4306,2.8566
2256.2444,1.1237,4.4209,162.8936,27.9813,7.9117,174.1637,-375.0633,21.8855,-125.6503,1500,1500,1.0000,-18.2171,-6.9950,-5.6253,-0.4901,96.6157,30.0369,7.4317,-7.1256,-9.9359,56.4527,63.7435,42.3069
2256.2642,1.6312,4.4049,163.5542,26.1149,10.6422,138.1262,-214.1233,13.4948,-72.3339,1500,1500,1.0000,13.9227,-2.1946,-19.7415,52.6778,61.2416,25.0140,6.4189,-1.9301,2.8605,-0.4481,91.4153,47.1924
2256.2846,-2.1861,1.7543,163.3624,-128.6905,-10.2577,-1026.3135,2709.6123,76.5027,766.9821,1500,1500,1.0000,6.3139,-4.9576,19.4845,-256.3756,-90.1706,-15.1234,8.3127,13.5574,15.1188,-1.0053,-73.1877,3.8413
2256.3045,-0.1717,-1.4602,163.4993,55.0042,0.0000,0.0000,-16.1114,43.2661,-30.7931,1500,1500,1.0000,16.0463,3.9752,8.7585,84.3572,-78.2164,-9.7340,-3.9695,19.2873,-17.0276,25.6511,60.8962,42.1848
2256.3239,0.5958,-1.5165,164.2077,-42.4691,-6.7686,-323.8855,833.2357,30.5960,231.6131,1500,1500,1.0000,6.1703,6.8530,-10.1048,-37.7573,99.3332,53.3270,1.9394,-2.4209,15.1188,-47.1809,50.0413,22.9863
2256.3429,-0.2745,-1.1546,164.0490,-22.2592,-9.0921,-122.6357,322.2854,44.9586,69.7105,1500,1500,1.0000,-0.2582,-0.9473,5.6993,-50.5206,45.6157,-15.4058,11.4372,5.5302,2.1835,6.0023,-23.7603,-2.1587
2256.3621,-1.6392,-1.7172,164.1315,-4.1523,-8.3512,38.6244,-295.8232,67.4936,-129.2432,1500,1500,1.0000,-1.8790,-9.8776,19.4845,25.5099,-56.5828,-0.7875,-4.9368,-3.4505,-3.3902,-33.8145,-36.6000,5.9024
2256.3818,-1.8749,-0.1389,164.1617,3.5500,-6.5660,90.3356,-471.2843,71.4002,-184.2254,1500,1500,1.0000,-3.1863,-1.0047,5.3090,6.1740,17.2264,1.2278,-3.2704,-0.5535,4.0151,0.9260,19.3542,2.6047
2256.4020,-2.4505,0.1528,164.1447,-6.9233,-6.6196,-2.6604,-268.2769,80.9226,-129.0366,1500,1500,1.0000,-0.1217,-1.4668,6.5205,-3.4443,-5.4454,1.6095,1.3456,2.1735,3.1029,-10.4023,31.7588,-2.4488
2256.4220,-3.4998,0.6311,164.2127,-28.0302,-9.8312,-160.0795,66.9285,98.2705,-38.8838,1500,1500,1.0000,0.4673,-4.1148,15.5873,-34.8260,31.3103,8.4110,-0.9528,-0.5152,10.9918,-21.2344,22.6214,1.2917
2256.4417,-3.5735,0.2741,164.3439,-7.0187,-9.4093,21.4245,-464.1119,99.5236,-198.9478,1500,1500,1.0000,-0.1169,-0.1979,5.1845,-8.5741,-11.7049,5.4721,-4.2784,1.0028,4.6974,-5.4634,-31.6076,5.1772
2256.4613,-4.0450,0.2199,164.5511,-14.0225,-10.1013,-35.4482,-353.4160,107.3434,-170.4309,1500,1500,1.0000,-4.7401,-2.5681,16.1955,-7.4977,-42.4530,6.8843,-2.9328,-1.3268,14.2766,-20.5473,-26.3252,10.2306
2256.4812,-4.0213,0.1867,164.6211,-15.8775,-10.9677,-43.5265,-327.4826,106.9928,-162.4404,1500,1500,1.0000,1.7506,0.9561,12.0008,-19.6581,3.7607,4.5102,-1.1420,1.5534,14.8441,-12.0969,25.7970,4.4749
2256.5015,-5.6872,-0.7466,164.6875,-16.4080,-11.7838,-40.2104,-524.6581,134.5361,-238.1191,1500,1500,1.0000,1.2478,-1.3184,1.3610,-22.9787,24.1348,5.1896,1.0727,-0.6660,11.5065,-9.8374,18.2855,3.8337
2256.5218,-5.7055,0.2064,164.6408,-12.4157,-11.8786,-4.6603,-629.1073,134.8957,-269.6696,1500,1500,1.0000,0.2710,0.0631,10.2124,-23.8413,44.4477,0.7927,1.1732,-2.5550,15.1188,-0.9901,52.6977,4.7497
2256.5419,-5.2486,0.9341,164.6743,-1.0493,-10.2542,80.7960,-823.7610,127.4098,-323.5742,1500,1500,1.0000,-2.1711,0.8580,9.5204,4.9450,14.7455,4.2660,2.4517,1.1153,2.9928,-7.0435,6.1023,0.7421
2256.5615,-5.8049,1.4487,164.6755,-17.1599,-11.2900,-52.8448,-501.5343,136.6466,-232.4482,1500,1500,1.0000,-1.2063,-1.4046,7.1861,-11.4672,5.3638,0.9759,-2.2672,-1.3364,9.9264,-22.8527,13.2626,1.5436
2256.5809,-5.7496,1.7816,164.7183,-23.4691,-13.1169,-93.9470,-376.9291,135.7914,-194.5536,1500,1500,1.0000,-1.1081,0.5898,4.2412,-25.0168,-5.3690,-0.8027,0.3233,-0.8384,4.5921,-21.9214,-12.5618,2.1390
2256.6009,-5.8439,1.5025,164.7666,-3.2401,-11.6354,74.3152,-872.1450,137.4056,-344.0868,1500,1500,1.0000,-0.6963,-1.1053,9.5731,-6.7344,-13.9034,-0.3218,-1.6471,-0.4218,11.0899,0.2542,-24.3557,1.4673
2256.6214,-5.7730,1.3167,164.7958,-6.9538,-10.9331,34.2756,-748.8428,136.2932,-306.4287,1500,1500,1.0000,-0.3372,-0.0806,7.7703,-5.6962,-15.7584,-0.5050,0.0647,-0.6014,9.4739,-8.2115,-6.0580,0.6123
2256.6417,-5.8003,1.1781,164.8001,-8.1523,-10.5160,20.5360,-712.3553,136.8027,-295.7882,1500,1500,1.0000,-0.2534,-0.3798,8.9913,-6.6046,-4.5141,-1.6806,-0.2777,-0.1081,10.8026,-9.7000,-10.3481,0.3298
2256.6616,-5.7519,1.3679,164.7895,-4.8050,-9.6594,42.9147,-771.3481,136.0608,-313.0409,1500,1500,1.0000,-1.0147,-0.4181,11.0479,-9.4367,-2.3156,-0.4821,-1.0414,0.0379,10.5584,-0.1733,5.2932,-0.6015
2256.6812,-5.5390,1.4444,164.7861,-2.0225,-8.5138,58.4439,-792.0885,132.6029,-317.1883,1500,1500,1.0000,-1.2326,0.1301,10.3536,1.4106,1.4859,-1.5279,-1.3790,0.1193,7.7668,-5.4557,-15.7679,-0.8457
2256.7007,-5.6326,0.9778,164.8078,-8.3584,-8.4905,1.2008,-637.7712,134.2036,-271.8535,1500,1500,1.0000,-0.4258,-0.6240,9.3983,-7.9329,-26.7355,-2.5203,-0.7158,-0.6349,12.1195,-8.7840,-25.9053,-0.4946
2256.7206,-5.5381,0.6390,164.8118,-6.8660,-8.2469,12.2474,-658.9420,132.6999,-277.3025,1500,1500,1.0000,-0.3420,0.0559,13.1213,-7.9634,-17.7431,-2.5508,-0.0334,-0.4721,11.6095,-5.7687,-18.1343,-0.9144
2256.7409,-5.6170,0.1681,164.8276,-6.5531,-7.9928,12.4880,-668.5276,134.0587,-280.9935,1500,1500,1.0000,0.6444,-0.7126,9.5827,-5.1390,-12.8805,-1.1921,0.3616,-0.3739,9.8091,-7.9672,-15.7068,-0.0671
2256.7612,-5.5516,-0.1100,164.8476,-6.8699,-7.8243,8.2881,-649.0633,133.0348,-274.5399,1500,1500,1.0000,0.1991,-0.1189,12.8627,-7.1161,-15.3156,-0.9173,0.4047,-0.5223,13.0723,-6.6237,-7.7450,0.6047
2256.7812,-5.4402,-0.1566,164.8546,-1.8355,-6.9260,44.9061,-741.9802,131.2518,-301.3451,1500,1500,1.0000,0.0243,-0.3918,11.9122,-0.0474,-1.0103,-0.2455,-0.0909,-0.1417,12.5193,-3.6237,-3.7374,0.5360
2256.8008,-5.4738,-0.3089,164.8922,-5.2401,-6.6731,12.9287,-653.6597,131.8595,-275.2136,1500,1500,1.0000,-0.0834,-0.7509,11.6585,-6.5817,-9.4148,0.6553,-0.1412,-0.5415,11.7986,-3.8985,-8.7221,1.5054
2256.8203,-5.4927,-0.1394,164.9161,-3.2363,-6.1576,26.4564,-694.7572,132.2275,-287.7637,1500,1500,1.0000,-0.0259,-0.9592,12.6664,-3.8565,5.4248,1.6324,0.0719,-0.9916,12.3134,-2.6160,10.0565,2.3451
2256.8402,-5.6267,-0.1090,164.9630,-5.1867,-6.0120,7.3163,-654.7195,134.4937,-277.1121,1500,1500,1.0000,0.6684,-0.9257,8.4742,-5.2229,10.2416,3.1896,0.5675,-1.1520,8.5473,-5.1504,9.5603,3.4520
2256.8605,-5.6903,0.0897,165.0257,-7.2134,-6.1922,-8.8715,-615.2678,135.6008,-265.9408,1500,1500,1.0000,-0.1361,-0.7462,11.8644,-6.8718,8.9363,3.7392,-0.1771,-0.6516,12.1338,-7.5550,6.8428,4.0550
2256.8808,-5.5607,0.1410,165.1348,2.4546,-3.3924,44.3318,-753.8889,133.5170,-306.2769,1500,1500,1.0000,-0.3898,-0.5522,8.4742,-0.1542,0.8447,4.8079,-0.4524,-0.3811,8.3438,5.0634,-7.1114,5.3833
2256.9009,-5.2386,-0.0264,165.2898,6.6492,-0.0272,0.7390,-592.0619,128.2549,-254.5715,1500,1500,1.0000,-0.8807,-0.1189,8.3185,7.2732,-21.2316,5.3728,-0.5267,-0.4553,9.3781,6.0252,-20.0503,6.1161
2256.9205,-4.9625,-0.1321,165.4189,9.8706,0.0000,0.0000,-558.8408,123.7496,-241.9020,1500,1500,1.0000,-0.5359,-0.6193,11.3927,7.4717,-13.7126,5.6247,-0.2489,-0.6899,11.0133,12.2695,-8.8442,5.5512
2256.9401,-4.5537,-0.2033,165.5410,18.0805,0.0000,0.0000,-512.7923,117.0490,-224.0671,1500,1500,1.0000,0.1560,-0.6240,10.0615,17.6931,-4.5141,6.2660,0.3688,-0.6516,9.2871,18.4679,-0.6381,5.8413
2256.9601,-4.0532,-0.1071,165.6559,22.4355,3.1031,100.9201,-747.0739,108.8314,-289.4210,1500,1500,1.0000,0.1824,-0.5762,10.2100,22.0442,4.2264,6.5179,0.2251,-0.4433,11.0588,22.8267,7.7970,5.9863
2256.9804,-3.4143,0.0996,165.7674,28.2904,8.3215,173.0815,-882.9548,98.3249,-323.8814,1500,1500,1.0000,-0.2534,-0.4565,10.4254,26.4641,8.8981,6.3576,-0.5075,-0.3045,10.1993,30.1168,4.4306,5.5131
2257.0009,-2.6304,0.2961,165.8593,33.1149,12.0405,182.1337,-820.7458,85.4166,-297.4737,1500,1500,1.0000,-1.0818,-0.1284,9.8006,32.8076,-1.0484,3.8232,-0.9241,-0.1824,9.5098,33.4221,-4.9587,4.7726
2257.0200,-1.8449,0.4631,165.9527,39.1340,16.1045,211.8431,-681.5423,72.4738,-247.9470,1500,1500,1.0000,-0.9477,-0.2793,9.3600,37.2274,-3.0332,5.2354,-0.4860,-0.3547,10.2304,41.0405,-1.6381,4.2153
2257.0391,-0.9858,0.4348,166.0381,47.3859,20.7967,245.9022,-682.6672,58.3084,-239.7852,1500,1500,1.0000,0.0028,-0.5331,10.1046,45.0442,-0.9263,5.1896,0.0695,-0.5176,10.0604,49.7275,-0.3786,3.8489
2257.0583,-0.0297,0.5332,166.1174,53.5194,25.7051,256.2403,-741.3136,42.5330,-247.9139,1500,1500,1.0000,-0.1313,-0.5091,10.4757,52.6244,3.2569,5.1285,-0.1029,-0.6181,10.5201,54.4145,5.8046,3.3375
2257.0774,0.8891,0.7390,166.1953,53.8897,29.9328,221.0776,-536.5828,27.3636,-177.3930,1500,1500,1.0000,-0.4473,-0.5115,9.7982,54.0519,7.1882,4.8766,-0.4524,-0.4002,9.4787,53.7275,5.9878,3.2840
2257.0965,1.7271,0.9675,166.2654,51.1301,33.1124,166.7923,-285.8821,13.5200,-93.8766,1500,1500,1.0000,-0.5957,-0.4660,9.7191,51.6778,5.9058,4.5026,-0.7613,-0.4122,9.5457,50.5824,7.0642,2.7039
2257.1155,2.5113,1.1743,166.3316,49.3057,35.5414,127.3573,-84.0051,0.5561,-25.5352,1500,1500,1.0000,-0.5311,-0.3870,9.2068,49.2198,6.8523,4.1667,-0.2298,-0.3883,8.6383,49.3916,5.8275,2.5589
2257.1347,3.2030,1.2163,166.3946,48.1492,37.4326,98.9454,75.7143,-10.8888,29.2476,1500,1500,1.0000,-0.0020,-0.5355,8.6585,48.2274,5.2416,3.9072,0.1318,-0.3667,8.5976,48.0710,4.1176,2.7650
2257.1537,3.9117,1.2397,166.4672,46.4278,38.7819,70.8294,236.5072,-22.6225,84.5256,1500,1500,1.0000,-0.0164,-0.2194,8.7327,46.7160,4.9974,4.2278,0.0096,-0.3595,8.3534,46.1397,2.2703,3.4138
2257.1729,4.4867,1.2322,166.5457,41.2675,39.1547,19.4372,449.2738,-32.1546,154.0749,1500,1500,1.0000,-0.0187,-0.2817,8.6801,42.3267,3.0661,4.6782,-0.1436,0.1816,10.4507,40.2084,1.0718,3.7421
2257.1920,4.9328,1.3551,166.6284,31.6416,38.0277,-58.9309,725.2180,-39.5647,241.3042,1500,1500,1.0000,-0.7107,0.0415,9.0655,33.2274,2.9974,4.5637,-0.2226,-0.0866,7.8769,30.0557,-2.3557,4.3833
2257.2107,5.2301,1.2453,166.7067,23.0729,35.7845,-120.3200,935.4996,-44.5218,307.3630,1500,1500,1.0000,0.2686,0.2067,9.1206,25.1282,0.1195,4.7392,0.0025,0.1576,9.6055,21.0176,0.8886,3.9711
2257.2292,5.3184,1.1053,166.7790,13.9355,32.5072,-176.3489,1106.8136,-46.0326,359.6637,1500,1500,1.0000,0.1991,0.0894,8.8117,15.8152,-2.1400,4.2660,0.4262,-0.0004,9.6822,12.0557,-1.9206,4.3375
2257.2478,5.2904,1.0384,166.8562,7.2141,28.7132,-204.9141,1185.9264,-45.6234,383.1519,1500,1500,1.0000,0.0818,0.1589,10.2459,8.7847,-0.0103,4.4644,0.1509,0.1744,9.3158,5.6435,-0.1343,4.2611
2257.2663,5.1192,1.0382,166.9244,0.0691,24.4166,-232.1529,1245.0925,-42.8500,399.2378,1500,1500,1.0000,-0.0427,0.0990,9.6976,1.6778,1.5928,4.6018,-0.0933,-0.0100,9.4930,-1.5397,2.2092,2.7497
2257.2848,4.7861,1.1091,167.0180,-7.6599,19.6051,-259.7372,1287.0135,-37.4010,408.5447,1500,1500,1.0000,-0.2199,-0.0255,9.6784,-6.0092,3.4401,4.9682,-0.3040,0.2079,8.7460,-9.3107,4.0031,4.9329
2257.3033,4.3383,1.1737,167.1136,-17.4958,14.0400,-299.8584,1352.1293,-30.0559,423.6723,1500,1500,1.0000,-0.1576,0.2283,9.6018,-15.0092,3.7989,4.9072,-0.1556,0.3994,9.3757,-19.9824,4.7130,5.0321
2257.3224,3.7800,1.2383,167.2081,-25.7286,8.0747,-312.8704,1326.7277,-20.8818,410.5474,1500,1500,1.0000,-0.1744,0.4294,9.9250,-24.0932,4.4401,4.5942,-0.1986,0.4593,9.2344,-27.3641,3.7054,4.9558
2257.3415,3.1301,1.3119,167.2951,-30.8966,0.0000,-0.0000,352.4682,-10.1893,111.8540,1500,1500,1.0000,-0.4305,0.3624,9.6401,-29.6504,1.3485,4.2049,-0.4141,0.3108,9.3829,-32.1427,1.7054,4.9634
2257.3607,2.3903,1.4104,167.3775,-34.6638,-0.0955,-8.3481,293.2014,1.9933,86.7644,1500,1500,1.0000,-0.6221,0.1876,10.1046,-33.4825,0.4096,3.9148,-0.5650,0.2725,9.9168,-35.8450,1.5603,4.9329
2257.3797,1.6524,1.5391,167.4643,-36.7439,-8.3208,-263.2908,944.3479,14.1514,274.8135,1500,1500,1.0000,-0.6652,0.2283,9.9298,-35.8794,1.2645,4.1667,-0.5410,0.2390,9.5122,-37.6084,3.0336,5.0474
2257.3989,0.9046,1.6582,167.5523,-39.1141,-12.9398,-240.8802,662.9951,26.4818,183.0095,1500,1500,1.0000,-0.4784,0.2762,9.7598,-38.0626,3.2416,4.0675,-0.4357,0.3348,9.6822,-40.1656,4.4229,5.0550
2257.4175,0.1795,1.7105,167.6360,-41.3470,-17.2009,-228.6010,678.5844,38.4436,180.5091,1500,1500,1.0000,-0.1432,0.3552,9.8724,-40.6046,4.1195,3.9377,-0.0813,0.2653,9.8426,-42.0893,4.9955,4.8795
2257.4361,-0.5639,1.7327,167.7087,-42.9119,-21.0575,-208.0911,535.8032,50.7158,130.3115,1500,1500,1.0000,-0.1409,0.2642,10.0352,-42.1390,3.2264,3.5026,-0.0119,0.2606,9.8114,-43.6847,2.8657,4.2535
2257.4547,-1.2998,1.7306,167.7774,-42.8470,-24.3259,-175.8726,360.1540,62.8704,70.3240,1500,1500,1.0000,-0.2941,0.1732,9.7646,-42.6657,-0.1248,3.0598,-0.1532,0.0618,9.8114,-43.0282,-0.0809,4.2153
2257.4732,-2.0046,1.7097,167.8507,-41.2363,-26.8625,-136.6208,167.7354,74.5208,5.6081,1500,1500,1.0000,-0.2893,0.0487,10.1214,-41.2077,-1.4759,3.3270,-0.1771,0.0547,10.1586,-41.2649,-0.5007,4.3985
2257.4917,-2.6297,1.6689,167.9264,-38.0149,-28.5353,-90.5261,-35.4064,84.8608,-61.5384,1500,1500,1.0000,-0.1744,0.0104,9.9155,-38.2153,-2.7507,3.3881,0.0958,-0.2231,9.7899,-37.8145,1.0947,4.5512
2257.5105,-3.2100,1.6676,168.0020,-36.0722,-29.6659,-60.0838,-188.4297,94.4679,-113.2096,1500,1500,1.0000,-0.1456,-0.0135,10.1286,-35.9252,0.6997,3.5331,-0.0837,0.0187,10.0485,-36.2191,2.2474,4.3985
2257.5297,-3.7000,1.6921,168.0738,-33.7706,-30.2816,-32.1506,-324.0549,102.5892,-158.7700,1500,1500,1.0000,-0.1337,0.1493,10.2052,-34.0550,2.2645,3.3957,-0.0765,0.1456,10.2783,-33.4863,3.6061,4.0169
2257.5488,-4.1144,1.7009,168.1482,-31.4996,-30.4643,-9.5749,-435.7452,109.4683,-196.4045,1500,1500,1.0000,-0.1145,0.2020,10.0759,-31.4138,2.3332,3.3805,-0.1388,0.1265,9.8569,-31.5855,2.2321,4.1924
2257.5679,-4.4967,1.7305,168.2255,-29.7286,-30.3539,5.7772,-523.0199,115.8218,-226.3991,1500,1500,1.0000,-0.2725,0.1205,9.7790,-29.7268,1.0966,3.4034,-0.2800,-0.0196,9.8402,-29.7305,1.8657,4.3985
2257.5869,-4.8464,1.7748,168.2872,-25.9348,-29.6911,34.7426,-645.8209,121.6395,-266.7300,1500,1500,1.0000,-0.3659,-0.1284,9.9035,-26.8871,1.1424,1.9072,-0.3375,0.0594,9.8186,-24.9824,1.4916,4.4291
2257.6060,-5.0611,1.7911,168.3908,-19.8966,-28.2219,77.0317,-791.7918,125.2322,-312.6768,1500,1500,1.0000,-0.2821,-0.0997,9.5635,-20.9558,0.4554,4.0522,-0.3208,-0.0196,9.6151,-18.8374,0.6748,6.4902
2257.6252,-5.1478,1.7806,168.4833,-15.0836,-26.2511,102.7266,-875.5612,126.7146,-338.6971,1500,1500,1.0000,-0.2462,0.0272,9.6545,-15.4519,-0.3843,4.1515,-0.1292,0.0307,9.6031,-14.7153,-0.1419,4.8413
2257.6443,-5.1652,1.7303,168.5835,-11.9691,-24.1088,112.0846,-904.4720,127.0534,-347.5736,1500,1500,1.0000,-0.1409,0.0535,9.6665,-12.2077,-1.3614,4.6018,-0.1125,0.0451,9.6127,-11.7305,-1.0045,5.0398
2257.6633,-5.1373,1.7157,168.6860,-9.5454,-21.9243,114.7364,-908.9652,126.6442,-348.6761,1500,1500,1.0000,-0.3156,0.0487,9.5396,-9.9558,-1.7278,4.7316,-0.2920,-0.0627,9.6510,-9.1351,-1.3786,5.1466
2257.6828,-5.0249,1.7126,168.7899,-6.3088,-19.5820,120.6475,-913.3389,124.8412,-348.9064,1500,1500,1.0000,-0.3491,0.1469,9.6258,-6.7115,-1.6744,4.7087,-0.2633,-0.0291,9.7444,-5.9061,-0.9511,5.0932
2257.7020,-4.9160,1.6943,168.8967,-3.6294,-17.1891,124.6136,-912.4938,123.0932,-347.6041,1500,1500,1.0000,-0.2438,-0.0758,9.7575,-4.0626,-1.1782,5.1515,-0.2920,-0.0459,9.6798,-3.1962,-0.5465,5.3146
2257.7211,-4.7516,1.6935,169.0099,-0.8241,-14.7344,128.4271,-904.9589,120.4280,-343.7445,1500,1500,1.0000,-0.3539,-0.0447,9.6665,-1.2306,-1.2469,5.4110,-0.2681,-0.1201,9.6750,-0.4176,-1.3939,5.7039
2257.7403,-4.5378,1.6702,169.1315,2.1645,-12.1995,132.0101,-891.1990,116.9457,-337.5271,1500,1500,1.0000,-0.3252,-0.0590,9.7335,1.7313,-2.1629,5.8766,-0.3591,-0.0243,9.6893,2.5977,-2.1725,5.9634
2257.7594,-4.2994,1.5908,169.2529,4.5843,-9.6820,131.5562,-863.0405,113.0550,-326.7451,1500,1500,1.0000,-0.1935,-0.1165,9.9801,4.1969,-3.4835,5.8690,-0.1843,-0.2015,9.9048,4.9718,-3.5465,5.8642
2257.7785,-4.0433,1.5261,169.3709,6.6683,-7.2294,128.4616,-825.2840,108.8696,-312.9069,1500,1500,1.0000,-0.3132,-0.1739,10.0065,6.2198,-4.5446,5.7850,-0.3351,-0.1895,10.1394,7.1168,-3.9129,5.6276
2257.7977,-3.7753,1.4951,169.4887,9.0080,-3.0921,81.7699,-660.6257,104.4847,-260.8785,1500,1500,1.0000,-0.4162,-0.2865,10.1669,8.5862,-4.0332,5.7316,-0.3399,-0.5367,10.2783,9.4298,-3.2412,5.8031
2257.8169,-3.5159,1.4687,169.6038,11.6301,0.0000,0.0000,-395.9224,100.2409,-178.9212,1500,1500,1.0000,-0.3132,-0.5235,10.3464,11.0137,-2.6362,5.9453,-0.2178,-0.4362,10.2663,12.2466,-1.7755,5.7115
2257.8359,-3.1982,1.4366,169.7121,14.5843,0.0000,0.0000,-360.1383,95.0299,-165.0594,1500,1500,1.0000,-0.1839,-0.4565,10.2698,14.2045,-1.4835,5.7698,-0.1579,-0.4074,10.4387,14.9641,-0.7679,5.3756
2257.8550,-2.8815,1.4247,169.8159,16.3019,0.0000,0.0000,-324.4716,89.8329,-151.2412,1500,1500,1.0000,-0.3132,-0.5618,10.2698,16.1358,-1.1400,5.5255,-0.2274,-0.5128,10.1394,16.4679,-1.9282,5.1848
2257.8742,-2.5389,1.4224,169.9139,18.0805,3.5259,86.6073,-535.3297,84.2068,-211.1230,1500,1500,1.0000,-0.4593,-0.5403,10.2219,17.8458,-2.3919,5.1438,-0.3136,-0.4792,10.1682,18.3153,-2.8824,4.8718
2257.8932,-2.1907,1.4001,170.0011,19.3324,7.0990,113.4638,-573.4580,78.4823,-219.1268,1500,1500,1.0000,-0.3611,-0.5522,10.1597,19.2351,-2.7278,4.7469,-0.2393,-0.5176,10.2113,19.4298,-2.3939,4.2611
2257.9123,-1.8742,1.3542,170.0797,19.8172,9.0067,99.8179,-498.5230,73.2796,-193.5247,1500,1500,1.0000,-0.2797,-0.6743,9.9921,19.5328,-2.7813,4.3576,-0.1484,-0.7498,10.4291,20.1015,-3.0809,3.8184
2257.9314,-1.5487,1.3260,170.1491,19.7141,10.6128,84.1939,-416.8745,67.9247,-165.8171,1500,1500,1.0000,-0.3635,-0.5929,10.4111,20.1358,-2.6973,4.0522,-0.0502,-0.4984,10.4794,19.2924,-2.9435,3.1543
2257.9504,-1.1924,1.3001,170.2075,20.0920,12.0347,74.6471,-291.0457,62.0572,-124.5480,1500,1500,1.0000,-0.2438,-0.4325,10.9258,19.3343,-1.4301,3.4034,0.2036,-0.4002,10.7212,20.8496,-1.0580,2.7268
2257.9695,-0.8036,1.2087,170.2549,21.2943,13.4236,72.9498,-250.4909,55.6504,-108.5375,1500,1500,1.0000,-0.0020,-0.2865,10.0017,20.6091,-1.8347,2.8003,0.0264,-0.3380,10.0892,21.9794,-2.7374,2.1543
