timestamp,roll_deg,pitch_deg,yaw_deg,omega_raw,omega_filtered,alpha,tau_ff,tau_pid,tau_total,pwm_left,pwm_right,deadzone_factor,accel1_x,accel1_y,accel1_z,gyro1_x,gyro1_y,gyro1_z,accel2_x,accel2_y,accel2_z,gyro2_x,gyro2_y,gyro2_z
2089.8078,-1.1028,0.6857,-85.6388,-8.0454,-6.5943,-12.7194,-87.5460,40.7906,-50.7382,1500,1500,1.0000,-0.2079,-0.1907,9.8484,-7.8947,-1.0103,0.2431,-0.1603,-0.1632,9.7707,-8.1962,-0.6992,0.7421
2089.8282,-1.2589,0.6620,-85.6257,-8.0111,-6.8068,-10.4321,-111.7075,43.3783,-59.5393,1500,1500,1.0000,-0.1169,-0.1644,9.8484,-7.7039,-1.3003,0.3270,-0.1101,-0.0914,9.8928,-8.3183,-0.9893,0.9558
2089.8491,-1.4197,0.6638,-85.6153,-7.9577,-6.9794,-8.2346,-136.1462,46.0462,-68.4716,1500,1500,1.0000,-0.1552,-0.1955,9.8484,-7.5588,-1.3232,0.3499,-0.1627,-0.2279,9.8186,-8.3565,0.7435,0.6428
2089.8684,-1.5904,0.6506,-85.6073,-8.4042,-7.1931,-11.0684,-147.2146,48.8798,-73.4923,1500,1500,1.0000,-0.1025,-0.2889,9.9538,-8.0474,-1.5294,0.1438,-0.1148,-0.2853,9.8641,-8.7611,0.6748,0.7192
2089.8877,-1.7711,0.6149,-85.5970,-8.9157,-7.4515,-13.4422,-160.7249,51.8789,-79.3448,1500,1500,1.0000,-0.0882,-0.3272,10.0567,-8.5665,-1.7660,0.2049,-0.1268,-0.2566,9.9072,-9.2649,-1.3481,0.8413
2089.9071,-1.9740,0.5875,-85.5814,-9.6294,-7.7782,-16.7924,-173.9225,55.2462,-85.3245,1500,1500,1.0000,-0.1097,-0.3894,10.1214,-9.2000,-1.5828,0.5331,-0.1532,-0.3571,10.0604,-10.0588,-1.3023,1.0398
2089.9263,-2.2035,0.5851,-85.5652,-11.6561,-8.3599,-30.2391,-161.0390,59.0549,-83.7446,1500,1500,1.0000,-0.1983,-0.3583,9.7838,-12.0016,-1.5981,0.6400,-0.1915,-0.3332,10.0964,-11.3107,-0.9129,0.9787
2089.9456,-2.4172,0.5816,-85.5452,-11.5302,-8.8354,-24.7067,-201.0355,62.6049,-97.8736,1500,1500,1.0000,-0.1959,-0.3487,9.8867,-11.1084,-1.5065,0.6858,-0.2393,-0.3643,10.0533,-11.9519,-1.0961,1.3451
2089.9649,-2.6476,0.6031,-85.5192,-12.7477,-9.4223,-30.3993,-210.5852,66.4328,-103.0353,1500,1500,1.0000,-0.3563,-0.3655,10.1142,-12.0092,-1.8729,0.9530,-0.2370,-0.3260,9.8833,-13.4863,-1.6763,1.6581
2089.9841,-2.9166,0.5800,-85.4939,-14.4996,-10.1839,-39.5797,-214.4419,70.9010,-106.8732,1500,1500,1.0000,-0.2079,-0.4229,9.9945,-13.9863,-2.4530,0.9759,-0.1603,-0.5128,10.0269,-15.0130,-2.3862,1.4596
2090.0033,-3.1966,0.5317,-85.4627,-14.9119,-10.8931,-36.9697,-253.4844,75.5521,-121.3766,1500,1500,1.0000,-0.1337,-0.4780,10.0855,-15.5817,-3.1095,1.1667,-0.2274,-0.4409,10.0652,-14.2420,-2.8061,1.8337
2090.0226,-3.5071,0.5077,-85.4291,-15.5989,-11.5989,-36.5804,-289.5812,80.7116,-135.3013,1500,1500,1.0000,-0.2438,-0.6097,10.1453,-15.6581,-3.2851,1.2202,-0.2633,-0.6660,10.1658,-15.5397,-2.6687,2.0245
2090.0418,-3.7896,0.4706,-85.3899,-15.2859,-12.1520,-28.8110,-343.7622,85.4093,-154.3743,1500,1500,1.0000,-0.1624,-0.5905,10.2435,-14.6886,-3.2316,1.5026,-0.0406,-0.4481,10.9631,-15.8832,-2.2412,2.3298
2090.0610,-4.0396,0.4098,-85.3469,-15.2935,-12.6232,-24.5982,-384.0501,89.5747,-168.9598,1500,1500,1.0000,0.0483,-0.4660,10.9115,-17.7878,-2.4377,1.9377,-0.2154,-0.4242,9.6774,-12.7992,-1.2106,2.2840
2090.0803,-4.2898,0.2861,-85.3112,-12.3088,-12.5761,2.4406,-490.1076,93.7470,-203.2805,1500,1500,1.0000,0.2805,-0.8443,10.7989,-11.2306,-2.9034,2.2431,0.1006,-0.6373,10.1371,-13.3870,-2.6076,0.7726
2090.0996,-4.4949,0.2525,-85.2572,-11.9119,-12.4764,5.1687,-521.0603,97.1756,-214.6234,1500,1500,1.0000,-0.0882,-0.6600,10.3392,-12.0550,-2.5752,2.3347,-0.0406,-0.5822,10.1347,-11.7687,-2.0122,3.0092
2090.1190,-4.6854,0.2064,-85.2008,-11.6256,-12.3488,6.5566,-546.5157,100.3661,-224.1744,1500,1500,1.0000,0.0052,-0.6264,10.0160,-11.6352,-2.5370,2.4110,0.0384,-0.6468,10.3621,-11.6160,-1.2946,3.1695
2090.1384,-4.8590,0.2168,-85.1400,-11.4119,-12.2083,7.2527,-568.0739,103.2792,-232.3897,1500,1500,1.0000,-0.2127,-0.6312,10.4159,-11.3451,-1.7431,2.7774,-0.0263,-0.6061,10.0173,-11.4786,-1.3939,3.3222
2090.1577,-4.9919,0.2134,-85.0719,-10.0073,-11.8781,17.1387,-611.5124,105.5217,-246.7668,1500,1500,1.0000,-0.1097,-0.5857,10.0687,-9.8336,-1.8729,3.0980,-0.1771,-0.5535,10.3861,-10.1809,-0.4931,3.8795
2090.1769,-5.1045,0.2466,-85.0002,-10.2134,-11.6284,13.0092,-612.2985,107.4302,-248.1476,1500,1500,1.0000,-0.1696,-0.5235,10.4661,-9.6886,-0.2240,3.4950,-0.1651,-0.5128,10.0652,-10.7382,0.2397,4.0550
2090.1963,-5.2283,0.2789,-84.9229,-11.2019,-11.5644,3.2867,-598.2478,109.5261,-245.1900,1500,1500,1.0000,-0.2390,-0.4804,10.0543,-10.7497,-0.9110,3.6553,-0.2441,-0.3835,10.0652,-11.6542,-0.9435,4.1848
2090.2156,-5.3522,0.3045,-84.8466,-12.2897,-11.6732,-5.6578,-586.4348,111.6227,-242.9041,1500,1500,1.0000,-0.2127,-0.4134,10.1669,-11.9481,-1.3767,3.5942,-0.3399,-0.4601,10.1562,-12.6313,-0.2565,4.2306
2090.2347,-5.5038,0.3670,-84.7686,-13.2134,-11.9042,-12.0528,-585.0927,114.1791,-244.0353,1500,1500,1.0000,-0.2677,-0.4804,10.0831,-12.9100,-0.0561,3.8079,-0.2178,-0.4816,10.0796,-13.5168,1.1329,4.4825
2090.2540,-5.6699,0.4540,-84.6907,-13.7897,-12.1871,-14.6769,-596.2526,116.9777,-249.0624,1500,1500,1.0000,-0.3108,-0.5139,10.0591,-13.8642,1.0355,3.9682,-0.2465,-0.5128,9.9264,-13.7153,1.7054,4.3985
2090.2733,-5.8354,0.5455,-84.6095,-14.1027,-12.4744,-14.9187,-614.1947,119.7662,-256.1182,1500,1500,1.0000,-0.3563,-0.5211,10.1022,-13.7573,0.9134,4.1209,-0.3136,-0.4553,9.9312,-14.4481,1.5680,4.5436
2090.2924,-5.9900,0.6022,-84.5254,-13.4271,-12.6173,-7.4523,-653.1089,122.3765,-269.3586,1500,1500,1.0000,-0.1863,-0.5570,10.0088,-13.2153,1.8218,4.4415,-0.3016,-0.5104,10.0604,-13.6389,0.9649,4.5741
2090.3117,-6.1381,0.6865,-84.4280,-13.0378,-12.6804,-3.2765,-681.8216,124.8821,-279.4757,1500,1500,1.0000,-0.2127,-0.5714,9.7766,-13.0092,2.5088,4.3118,-0.3184,-0.5559,9.6750,-13.0664,2.5374,6.5283
2090.3310,-6.2874,0.7771,-84.3637,-12.9195,-12.7163,-1.8588,-702.7202,127.4080,-287.2609,1500,1500,1.0000,-0.3204,-0.6097,9.8101,-12.9634,1.6844,4.1362,-0.3591,-0.6516,9.8067,-12.8756,2.2779,2.7268
2090.3502,-6.4252,0.8804,-84.2785,-11.9348,-12.5990,6.1045,-741.1751,129.7456,-300.1999,1500,1500,1.0000,-0.3707,-0.6695,9.7551,-12.1084,1.8447,4.6018,-0.3208,-0.6684,9.7061,-11.7611,2.4153,4.6657
2090.3694,-6.5582,0.9517,-84.1927,-10.9844,-12.3568,12.6413,-774.9856,132.0060,-311.6993,1500,1500,1.0000,-0.2725,-0.7485,9.6306,-10.9558,1.5088,4.4873,-0.2872,-0.6756,9.4787,-11.0130,1.9878,4.8108
2090.3886,-6.6637,1.0201,-84.1000,-9.6943,-11.9574,20.7222,-810.1504,133.8144,-323.3338,1500,1500,1.0000,-0.3108,-0.7509,9.5468,-9.8489,0.8294,4.8232,-0.2705,-0.6157,9.5720,-9.5397,1.5909,4.9940
2090.4079,-6.7072,1.0900,-84.0095,-7.8622,-11.3432,31.8376,-847.0602,134.5988,-334.8773,1500,1500,1.0000,-0.2797,-0.6528,9.5899,-8.0626,1.5012,4.8079,-0.3160,-0.6325,9.5194,-7.6618,2.0718,4.8489
2090.4272,-6.7251,1.1504,-83.9166,-5.8088,-10.5130,43.0638,-881.4091,134.9615,-345.3996,1500,1500,1.0000,-0.2438,-0.7150,9.5061,-5.9787,1.6004,4.8003,-0.2393,-0.7426,9.3039,-5.6389,2.0565,5.1619
2090.4464,-6.7329,1.2109,-83.8242,-5.0187,-9.6889,42.9955,-882.0856,135.1567,-345.7197,1500,1500,1.0000,-0.2606,-0.7318,9.4294,-6.2000,1.5623,4.9682,-0.2322,-0.7043,9.4930,-3.8374,1.9268,4.9558
2090.4657,-6.7285,1.2547,-83.7294,-2.8584,-8.6643,52.9765,-910.3443,135.1528,-354.1949,1500,1500,1.0000,-0.2007,-0.8730,9.5300,-4.2229,1.5546,4.9148,-0.1675,-0.6612,9.3661,-1.4939,1.8733,5.2459
2090.4849,-6.6200,1.2824,-83.6347,0.6110,-7.2730,72.4067,-954.0750,133.4279,-366.2793,1500,1500,1.0000,-0.1600,-0.7007,9.3959,0.1969,1.2874,4.9835,-0.1460,-0.6277,9.4116,1.0252,1.5985,5.0474
2090.5041,-6.4668,1.2672,-83.5381,2.1607,-5.8198,73.2966,-939.3840,130.9654,-360.3945,1500,1500,1.0000,-0.0618,-0.6264,9.4534,2.8916,-0.7965,5.0522,-0.1220,-0.5247,9.4858,1.4298,1.7741,4.9176
2090.5234,-6.2451,1.2450,-83.4424,5.0271,-1.5385,30.8205,-792.0709,127.3687,-314.0425,1500,1500,1.0000,0.0555,-0.5498,9.5899,4.4641,1.3180,5.2049,-0.0957,-0.5439,9.5241,5.5901,1.6138,4.7879
2090.5426,-5.9847,1.2550,-83.3471,7.3324,0.0000,0.0000,-673.9778,123.1324,-276.0727,1500,1500,1.0000,-0.1121,-0.5307,9.5563,6.7847,1.1500,5.0217,-0.0430,-0.4601,9.5457,7.8802,1.1634,4.9253
2090.5617,-5.6624,1.2344,-83.2513,9.9240,0.0000,0.0000,-637.6683,117.8703,-262.0227,1500,1500,1.0000,0.0339,-0.4325,9.6545,9.3038,1.2951,5.2583,0.0240,-0.5702,9.5577,10.5443,1.3695,4.7344
2090.5811,-5.3048,1.2414,-83.1399,12.7408,0.0000,0.0000,-597.3953,112.0238,-246.4329,1500,1500,1.0000,-0.0618,-0.4756,9.4941,12.1511,1.3409,5.0675,-0.0957,-0.5271,9.6367,13.3305,1.7206,6.4978
2090.6012,-4.8741,1.2246,-83.0421,15.3439,0.2302,6.8944,-568.7403,104.9660,-233.6017,1500,1500,1.0000,-0.0116,-0.3870,9.4031,15.3954,1.3485,5.0904,0.0456,-0.3404,9.4787,15.2924,0.8352,4.5207
2090.6209,-4.3767,1.1771,-82.9525,19.6225,5.8726,122.9495,-846.9563,96.8024,-312.1684,1500,1500,1.0000,0.0627,-0.3439,9.5061,18.8534,0.3943,4.6705,-0.0143,-0.3212,9.7300,20.3916,0.4153,4.2230
2090.6405,-3.8165,1.1262,-82.8719,22.7904,8.4285,128.8283,-800.7963,87.5973,-292.7973,1500,1500,1.0000,0.0411,-0.2649,9.6282,22.0671,0.2111,4.3576,0.0575,-0.2877,9.4691,23.5137,-0.2717,3.4902
2090.6609,-3.2187,1.1009,-82.7985,26.2599,11.1032,131.5215,-741.2300,77.7658,-269.0285,1500,1500,1.0000,-0.0594,-0.3846,9.5851,25.3419,1.0890,3.8079,0.0527,-0.3045,9.6223,27.1779,-0.8824,3.1772
2090.6813,-2.5560,1.0682,-82.7340,30.1721,13.9636,139.9535,-690.8812,66.8561,-247.3781,1500,1500,1.0000,-0.0714,-0.3631,9.7455,29.2122,-0.5599,3.4873,-0.0095,-0.3021,9.7444,31.1321,-0.1954,2.5360
2090.7015,-1.8990,1.0636,-82.6828,32.6912,16.7727,138.9615,-614.0473,56.0357,-217.8356,1500,1500,1.0000,-0.1552,-0.4565,9.7120,32.6855,0.0966,2.9682,-0.0694,-0.3907,9.7300,32.6969,-0.0961,1.9253
2090.7212,-1.1984,1.0287,-82.6459,37.3706,19.8624,157.3427,-490.0760,44.4875,-173.7153,1500,1500,1.0000,-0.0355,-0.4708,9.7527,36.3419,0.1119,2.2660,-0.1268,-0.4912,9.7947,38.3992,-0.3862,1.3527
2090.7406,-0.4398,0.9925,-82.6371,41.9317,23.1728,170.0128,-539.1611,31.9752,-180.9334,1500,1500,1.0000,-0.0690,-0.4541,9.6808,40.8687,-0.2622,-0.1005,-0.0287,-0.4936,9.9455,42.9947,-0.9740,0.8566
2090.7608,0.4313,0.8855,-82.6199,45.7943,26.5660,168.7419,-437.4072,17.5971,-141.7804,1500,1500,1.0000,0.1512,-0.2936,10.0543,44.5404,-1.5294,1.3118,-0.0358,-0.3691,10.0485,47.0481,-1.7832,0.2001
2090.7811,1.3906,0.7597,-82.6093,48.5271,29.8602,161.9911,-309.9501,1.7557,-94.0384,1500,1500,1.0000,0.1919,-0.0447,10.0950,47.8152,-1.7965,0.9759,-0.3830,0.0331,9.7109,49.2389,-2.9435,-0.1740
2090.8012,2.2767,0.8506,-82.6084,47.1988,32.4610,129.4998,-116.5881,-12.8886,-27.2433,1500,1500,1.0000,-0.5527,-0.0303,9.9011,47.5328,-0.1782,0.4568,-0.0957,0.1792,9.8689,46.8649,-0.3023,-0.7083
2090.8217,3.1002,0.7779,-82.6134,43.1492,34.0642,77.9178,124.7006,-26.5069,53.3143,1500,1500,1.0000,0.1488,0.1229,10.1621,43.1740,0.1653,0.2202,-0.2441,0.3108,9.6319,43.1244,-0.6992,-0.8534
2090.8409,3.8041,0.7639,-82.6179,39.5309,34.8842,42.8109,305.0827,-38.1597,114.4206,1500,1500,1.0000,-0.0523,0.3049,10.2459,39.7771,0.3180,0.0675,0.0647,0.3444,9.9575,39.2847,0.1939,-0.7312
2090.8598,4.4148,0.7313,-82.6248,35.0843,34.9142,1.5871,492.5867,-48.2806,176.7443,1500,1500,1.0000,0.0172,0.4102,9.8532,36.1587,0.6615,-0.1921,0.0791,0.4784,9.5792,34.0099,-0.7221,-0.6320
2090.8793,4.9319,0.6924,-82.6353,28.8401,34.0031,-46.6559,689.7625,-56.8614,241.0456,1500,1500,1.0000,-0.0355,0.5491,9.8197,30.1282,-1.0026,-0.3676,-0.0813,0.6700,9.5840,27.5519,-0.9740,-0.6015
2090.8996,5.3005,0.6850,-82.6468,22.7866,32.3206,-82.8730,835.5819,-62.9960,288.4722,1500,1500,1.0000,-0.1839,0.4486,9.8891,24.0137,-1.1553,-0.2913,-0.2202,0.4545,9.9599,21.5595,-1.1725,-0.5938
2090.9199,5.5213,0.6510,-82.6594,16.8172,29.9951,-114.9755,952.9053,-66.6942,325.8881,1500,1500,1.0000,-0.1600,0.4007,9.8939,18.0137,-1.4301,-0.2760,-0.2034,0.4425,9.8545,15.6206,-3.0809,-0.4488
2090.9398,5.6273,0.6155,-82.6735,10.8859,27.1287,-144.1772,1048.9534,-68.5005,355.7863,1500,1500,1.0000,-0.1337,0.4677,9.9035,12.3190,-1.1858,-0.4745,-0.1412,0.4880,9.6558,9.4527,-3.0961,-0.4182
2090.9592,5.6380,0.6186,-82.6887,5.8095,23.9308,-164.1824,1107.7662,-68.7324,373.5693,1500,1500,1.0000,-0.1839,0.5228,10.0663,6.9068,-0.7355,-0.5814,-0.3136,0.4497,9.7133,4.7122,-0.8748,-0.7236
2090.9789,5.5629,0.6675,-82.7144,2.8248,20.7649,-160.9354,1089.9564,-67.5490,367.5163,1500,1500,1.0000,-0.3994,0.3983,9.9586,3.6168,-1.0179,-1.0547,-0.3184,0.4377,9.7755,2.0328,-0.9129,-1.2427
2090.9991,5.4479,0.6638,-82.7458,0.4927,17.7241,-150.3019,1046.3834,-65.7066,353.3390,1500,1500,1.0000,-0.2773,0.4342,10.0400,1.1664,-1.3461,-1.2837,-0.1651,0.2677,9.7707,-0.1809,-2.9969,-1.2885
2091.0194,5.2830,0.6549,-82.7768,-1.7744,14.7993,-144.2073,1010.2511,-63.0377,340.8980,1500,1500,1.0000,-0.1073,0.3935,9.9346,-1.2306,-1.0255,-1.5050,-0.0765,0.2989,9.7803,-2.3183,0.1329,-1.3266
2091.0397,5.0712,0.6402,-82.8115,-3.0035,12.1289,-131.8657,950.8574,-59.5946,321.0140,1500,1500,1.0000,-0.0211,0.2642,9.9083,-2.5512,0.2035,-1.7035,-0.0191,0.4353,9.7061,-3.4557,0.1787,-1.6167
2091.0596,4.8829,0.6577,-82.8502,-3.9577,9.7159,-121.0085,898.3812,-56.5366,303.4363,1500,1500,1.0000,-0.1887,0.4079,10.0112,-3.5283,-0.1858,-2.0470,-0.1292,0.3228,9.8067,-4.3870,-0.1114,-1.6931
2091.0791,4.6730,0.6731,-82.8901,-4.9844,7.5109,-113.1981,852.2493,-53.1204,287.5470,1500,1500,1.0000,-0.1863,0.3480,10.0519,-4.4214,-1.0103,-2.1921,-0.1125,0.3276,10.0604,-5.5473,0.7817,-1.7465
2091.0983,4.4260,0.6346,-82.9310,-6.0187,5.0467,-97.4221,778.9933,-49.0888,263.1513,1500,1500,1.0000,-0.0786,0.2115,9.8604,-5.7191,-1.6897,-2.1157,-0.0071,0.3156,9.8330,-6.3183,-1.7526,-1.7389
2091.1180,4.1559,0.5815,-82.9696,-6.3431,0.5217,-12.6320,504.3717,-44.6728,178.1152,1500,1500,1.0000,-0.0283,0.1325,10.1070,-6.2764,-2.3080,-1.8638,-0.0263,0.2462,10.0006,-6.4099,-1.3862,-1.6320
2091.1377,3.9311,0.5631,-83.0056,-6.1599,0.0000,-0.0000,442.6789,-41.0036,157.4058,1500,1500,1.0000,-0.0762,0.2690,10.1740,-5.8794,-0.9110,-1.9325,-0.0215,0.3587,10.0628,-6.4405,-0.5542,-1.5175
2091.1571,3.7255,0.5282,-83.0403,-6.0836,0.0000,-0.0000,419.5227,-37.6483,148.4458,1500,1500,1.0000,-0.0092,0.2953,10.0926,-6.0168,-1.1019,-1.8791,0.0073,0.3515,10.0748,-6.1504,-0.6458,-1.5022
2091.1761,3.5318,0.5015,-83.0675,-6.0607,0.0000,-0.0000,397.7146,-34.4884,140.0074,1500,1500,1.0000,0.0124,0.2905,10.2746,-5.7344,-0.5523,-1.7264,0.0120,0.4329,10.3669,-6.3870,-0.0274,-1.0137
2091.1955,3.3343,0.4669,-83.0913,-6.4348,0.0000,-0.0000,375.4669,-31.2621,131.3973,1500,1500,1.0000,0.0531,0.3001,10.3728,-5.9710,-0.4454,-1.4821,0.0934,0.2965,10.1873,-6.8985,-0.0274,-0.8610
2091.2155,3.0996,0.4684,-83.1132,-7.6905,0.0000,-0.0000,349.0362,-27.4206,121.1632,1500,1500,1.0000,-0.0834,0.2355,10.2578,-7.3909,-0.1782,-1.3371,0.0336,0.2294,10.2113,-7.9901,0.2855,-0.7847
2091.2359,2.8563,0.4546,-83.1294,-8.3431,0.0000,-0.0000,321.6414,-23.4353,110.5536,1500,1500,1.0000,0.0148,0.2379,10.2962,-8.2535,0.1577,-1.0547,-0.2178,0.0092,9.9455,-8.4328,0.5222,-0.5098
2091.2563,2.6062,0.4587,-83.1385,-8.0111,-0.5565,-5.5271,309.3868,-19.3335,104.4161,1500,1500,1.0000,0.0172,0.1325,10.3033,-7.7344,1.1271,-0.6882,-0.2274,-0.0315,10.0796,-8.2878,1.3390,-0.2656
2091.2761,2.3907,0.4547,-83.1162,-7.8050,-1.8294,-12.9504,306.5024,-15.8022,101.4320,1500,1500,1.0000,-0.0211,0.1948,10.2052,-7.8642,0.5165,1.8079,0.0432,0.1409,9.7923,-7.7458,0.5680,0.3298
2091.2952,2.1745,0.4610,-83.1260,-7.4996,-3.1568,-16.2670,291.7043,-12.2561,94.8650,1500,1500,1.0000,-0.0571,0.0822,10.1693,-7.2306,0.0890,0.0980,-0.0765,0.1313,10.1802,-7.7687,1.1176,-1.2121
2091.3145,1.9740,0.5087,-83.1122,-7.3928,-4.2943,-16.5859,270.0476,-8.9680,86.3951,1500,1500,1.0000,-0.1720,0.1158,10.0424,-7.4596,1.3027,0.3805,0.0719,0.1121,10.0580,-7.3260,1.7665,1.0169
2091.3343,1.7850,0.5341,-83.0950,-7.4691,-5.1946,-16.0724,247.2908,-5.8681,77.7081,1500,1500,1.0000,-0.1121,0.1636,10.0472,-7.2458,1.0126,0.6171,-0.1364,0.1648,9.7947,-7.6924,1.0794,1.1085
2091.3541,1.5882,0.5567,-83.0729,-7.5531,-5.7981,-15.1261,222.3980,-2.6358,68.3009,1500,1500,1.0000,-0.0666,0.0990,10.0184,-7.3527,1.1042,0.9072,-0.0502,0.1839,10.0940,-7.7534,1.9115,1.2840
2091.3736,1.4115,0.5859,-83.0455,-7.5607,-6.1014,-13.1810,196.9063,0.2645,58.9132,1500,1500,1.0000,-0.0906,0.1445,10.2459,-7.2764,1.4630,1.2354,-0.0550,0.3587,9.8785,-7.8450,1.8352,1.5207
2091.3929,1.2756,0.6207,-83.0146,-6.8890,-6.2196,-6.1132,161.2407,2.4952,46.8751,1500,1500,1.0000,-0.0762,0.2259,9.8317,-6.7573,3.0813,1.4721,0.0288,0.3180,9.7396,-7.0206,1.1176,1.6199
2091.4125,1.1695,0.6404,-82.9826,-6.2783,-6.2284,-0.4494,132.9877,4.2332,37.3564,1500,1500,1.0000,-0.1169,0.2929,9.9011,-6.1848,0.4401,1.4339,-0.0957,0.3252,9.8641,-6.3718,1.4840,1.7879
2091.4325,1.1140,0.6946,-82.9483,-5.8928,-6.1780,2.5191,118.1900,5.1376,32.3744,1500,1500,1.0000,-0.2270,0.4725,9.9298,-5.7344,1.3180,1.5560,-0.1316,0.3851,9.8067,-6.0511,1.5527,1.7650
2091.4530,1.0301,0.6703,-82.9134,-5.9538,-6.1444,1.6430,92.7161,6.5126,23.9073,1500,1500,1.0000,0.0555,0.3504,9.9681,-5.6428,0.7836,1.6782,0.0599,0.4258,9.6654,-6.2649,0.9649,1.6428
2091.4735,0.9550,0.6526,-82.8777,-6.9882,-6.2710,-6.1844,104.4596,7.7414,26.6930,1500,1500,1.0000,0.0579,0.4701,10.0879,-6.4519,0.8752,1.6018,-0.0382,0.4617,9.8713,-7.5244,1.4306,1.7726
2091.4935,0.8612,0.6901,-82.8495,-8.2057,-6.5612,-14.5050,115.6236,9.2811,29.1184,1500,1500,1.0000,-0.1337,0.4725,10.0041,-7.9710,1.5317,1.1591,-0.1963,0.4497,9.8043,-8.4405,1.7894,1.5360
2091.5124,0.7643,0.7249,-82.8219,-8.5951,-6.8663,-16.0795,110.3075,10.8726,26.5687,1500,1500,1.0000,-0.1504,0.4509,9.9418,-8.3527,1.2874,1.3347,-0.1005,0.4090,9.7396,-8.8374,1.7512,1.4444
2091.5316,0.6686,0.7657,-82.7948,-9.1790,-7.2132,-18.1064,106.1911,12.4452,24.3902,1500,1500,1.0000,-0.1624,0.4940,9.9538,-8.0855,1.5088,1.1285,-0.1436,0.4138,9.9623,-10.2725,1.9649,1.5665
2091.5512,0.5558,0.8001,-82.7710,-8.0225,-7.3346,-6.1999,67.0361,14.2998,11.5309,1500,1500,1.0000,-0.1432,0.3049,9.7359,-7.8565,1.5852,1.1133,-0.1005,0.2845,9.7540,-8.1885,1.6672,1.2230
2091.5709,0.4448,0.8207,-82.7447,-7.9729,-7.4303,-4.8617,53.4029,16.1279,6.3441,1500,1500,1.0000,-0.1145,0.2857,9.5875,-7.8107,1.1500,1.1056,-0.0885,0.3252,9.5888,-8.1351,1.4535,1.4825
2091.5906,0.3297,0.8445,-82.7214,-7.8508,-7.4934,-3.2008,38.6219,18.0227,0.7729,1500,1500,1.0000,-0.1049,0.2427,9.5899,-7.8413,1.3561,0.9148,-0.0933,0.1887,9.5816,-7.8603,1.8657,1.3680
2091.6103,0.2035,0.8673,-82.7010,-7.5187,-7.4972,-0.1930,19.5623,20.1028,-6.1930,1500,1500,1.0000,-0.1049,0.1469,9.5827,-7.5359,1.6004,0.9224,-0.1316,0.1289,9.4834,-7.5015,1.5832,1.1085
2091.6297,0.0720,0.8541,-82.6813,-6.9691,-7.4180,4.0798,-3.0339,22.2722,-14.2735,1500,1500,1.0000,-0.0762,0.0487,9.6449,-6.9176,-0.8194,0.8461,-0.1340,0.0810,9.4499,-7.0206,1.1558,1.1695
2091.6498,-0.0468,0.8898,-82.6620,-5.7057,-7.1611,12.7819,-35.0681,24.2331,-25.0603,1500,1500,1.0000,-0.2246,-0.0087,9.7335,-5.9023,0.8218,0.7850,-0.1412,0.1265,9.7300,-5.5092,0.8962,1.1543
2091.6700,-0.1283,0.8852,-82.6406,-4.6905,-6.7905,18.2794,-55.9099,25.5791,-32.1205,1500,1500,1.0000,-0.0762,0.0463,9.5444,-4.6733,0.3790,0.8537,-0.0023,0.0642,9.3087,-4.7076,0.9497,1.2459
2091.6901,-0.2015,0.9239,-82.6155,-4.8966,-6.5065,14.1385,-52.8442,26.7896,-31.9270,1500,1500,1.0000,-0.2246,0.0775,9.3552,-4.6275,0.7760,1.0980,-0.0311,0.1552,9.2464,-5.1656,1.2168,1.3756
2091.7099,-0.2580,0.9303,-82.5935,-5.5760,-6.3669,7.0703,-41.1768,27.7235,-28.9871,1500,1500,1.0000,-0.1696,0.1900,9.5109,-5.2153,-0.7813,0.9453,-0.0765,0.1720,9.2632,-5.9366,1.1329,1.2001
2091.7294,-0.3403,0.9168,-82.5698,-5.8317,-6.2866,4.1210,-41.8269,29.0858,-29.9996,1500,1500,1.0000,-0.0403,0.0894,9.2882,-5.6733,0.7531,1.0293,-0.1795,-0.0651,9.0094,-5.9901,0.4916,1.3680
2091.7492,-0.4071,0.8773,-82.5419,-5.8241,-6.2172,3.4927,-46.5837,30.1915,-32.0900,1500,1500,1.0000,-0.0523,0.1445,9.3217,-5.6657,-0.6515,1.2125,0.0934,0.0666,9.2704,-5.9824,-0.8977,1.5131
2091.7696,-0.4848,0.8189,-82.5143,-5.4500,-6.1021,5.6400,-59.0236,31.4775,-36.5936,1500,1500,1.0000,-0.0331,0.0655,9.5204,-5.4214,-1.7278,1.0827,-0.0670,0.1528,9.1674,-5.4786,-1.3099,1.5512
2091.7899,-0.5267,0.7380,-82.4852,-5.3431,-5.9880,5.6043,-75.4496,32.1751,-41.9399,1500,1500,1.0000,0.0531,0.1876,9.3864,-5.2916,-1.9645,1.2431,-0.1723,0.1816,9.3518,-5.3947,-1.5542,1.4978
2091.8101,-0.6104,0.7127,-82.4600,-5.9157,-5.9764,0.5410,-70.2925,33.5622,-41.2251,1500,1500,1.0000,-0.1409,0.0535,9.6569,-5.5817,-1.6439,1.1438,-0.0837,0.2414,9.5433,-6.2496,-1.2412,1.2917
2091.8299,-0.6826,0.6954,-82.4380,-5.9386,-5.9700,0.2938,-77.7130,34.7607,-44.1703,1500,1500,1.0000,-0.1313,0.0894,9.6521,-5.6504,-1.2774,0.9453,-0.1125,0.0499,9.5529,-6.2267,-0.7297,1.2001
2091.8494,-0.7463,0.6743,-82.4174,-5.5149,-5.8850,3.5068,-94.1320,35.8182,-49.7305,1500,1500,1.0000,-0.1145,0.0775,9.7742,-5.5283,-1.0713,0.9301,-0.1388,-0.0794,9.5002,-5.5015,-1.0427,1.1085
2091.8693,-0.7846,0.6557,-82.3993,-4.6027,-5.5563,9.5337,-115.8114,36.4593,-56.6190,1500,1500,1.0000,-0.1792,0.1062,10.0615,-4.5741,-1.6439,0.7621,-0.1196,-0.0531,9.6654,-4.6313,-1.6076,0.9558
2091.8898,-0.7973,0.6172,-82.4050,-3.4462,-4.7557,14.6515,-131.9718,36.6755,-61.5969,1500,1500,1.0000,-0.1696,0.1086,9.9442,-3.4214,-2.0103,0.4721,-0.0694,0.1624,9.7612,-3.4710,-3.0198,-1.2503
2091.9101,-0.7948,0.5982,-82.3962,-2.8813,-3.6908,13.5683,-128.5788,36.6434,-60.5597,1500,1500,1.0000,-0.1169,0.1205,9.9035,-2.6962,-1.3156,0.2736,-0.0813,0.1145,9.8833,-3.0664,-0.7603,0.5131
2091.9303,-0.7746,0.6269,-82.3895,-1.4767,-2.1620,12.6708,-123.7192,36.3178,-58.9064,1500,1500,1.0000,-0.2414,0.0798,10.0304,-2.3527,-0.4530,0.1896,-0.0622,0.1552,9.9838,-0.6008,0.2855,0.4291
2091.9502,-0.7618,0.6054,-82.3889,-1.8431,-1.1928,5.7867,-102.4477,36.1137,-52.4025,1500,1500,1.0000,-0.0187,0.0775,10.0831,-1.6733,-0.0484,-0.0852,-0.0095,0.2941,10.0341,-2.0130,-0.0198,0.1008
2091.9697,-0.7391,0.6244,-82.3936,-1.6180,-0.5187,2.6424,-75.7007,35.7472,-44.1585,1500,1500,1.0000,-0.2199,0.1062,9.9873,-1.3756,-0.5828,-0.4592,-0.2058,0.2318,10.0772,-1.8603,-0.0580,-0.0671
2091.9895,-0.7172,0.6475,-82.4027,-2.2401,-0.2447,0.7779,-69.1629,35.3916,-41.9838,1500,1500,1.0000,-0.1911,0.1612,9.8843,-1.7726,0.1500,-0.5127,-0.1196,0.0762,9.8474,-2.7076,0.3008,-0.4717
2092.0099,-0.7228,0.6470,-82.4145,-2.6638,-0.1354,0.2439,-68.4078,35.4914,-41.8172,1500,1500,1.0000,-0.1265,0.0822,9.8125,-2.7191,-0.2240,-0.5127,-0.1077,0.1001,9.7588,-2.6084,-0.1572,-0.7160
2092.0303,-0.7357,0.6438,-82.4278,-3.1103,-0.1084,0.0604,-69.1765,35.7114,-42.1798,1500,1500,1.0000,-0.1145,0.0870,9.6856,-2.9939,-0.5141,-0.7188,-0.0741,0.1025,9.9814,-3.2267,0.1634,-0.6396
2092.0505,-0.7707,0.6108,-82.4446,-3.4767,-0.1243,-0.0419,-72.2220,36.2978,-43.4453,1500,1500,1.0000,-0.0140,0.0224,10.1333,-3.5435,-0.6133,-1.0394,0.0623,0.1768,10.9798,-3.4099,-0.3099,-0.6473
2092.0702,-0.8357,0.6461,-82.4623,-5.5607,-0.4808,-2.2042,-87.7587,37.3787,-48.7548,1500,1500,1.0000,-0.3108,0.0583,10.1381,-4.7573,-0.0103,-1.0699,-0.2058,0.0259,9.5002,-6.3641,-1.0045,-0.7618
2092.0898,-0.9201,0.6380,-82.4837,-4.6256,-0.7026,-1.3332,-99.7663,38.7798,-53.1978,1500,1500,1.0000,-0.2558,-0.1213,9.9514,-4.0168,-1.1629,-1.3371,-0.0574,-0.2159,9.7420,-5.2344,-3.0809,-0.8534
2092.1098,-1.0094,0.6289,-82.5027,-4.8279,-0.9814,-1.8640,-108.2971,40.2639,-56.6475,1500,1500,1.0000,-0.2175,-0.1213,9.5492,-4.8565,-0.7813,-1.0470,-0.1412,-0.1584,9.9096,-4.7992,-3.0427,-0.9068
2092.1300,-1.1449,0.5875,-82.5268,-5.5264,-1.4914,-4.0866,-117.1503,42.5106,-60.6514,1500,1500,1.0000,-0.0906,-0.2793,9.8532,-5.2611,-1.6820,-1.2608,-0.1556,-0.1536,9.6391,-5.7916,-2.0427,-1.1587
2092.1492,-1.2818,0.5645,-82.5672,-4.8470,-1.7268,-2.0135,-138.5414,44.7830,-68.4322,1500,1500,1.0000,-0.1432,-0.4014,9.9586,-4.8871,-1.8958,-1.3371,-0.1771,-0.1465,10.1227,-4.8069,-1.2794,-3.1816
2092.1685,-1.3333,0.5544,-82.5888,-3.4577,-1.4199,2.2336,-156.5687,45.6456,-74.3580,1500,1500,1.0000,-0.1409,-0.1668,10.0615,-2.3374,-1.3156,-1.2913,-0.2441,-0.2877,10.0509,-4.5779,-0.5694,-0.9602
2092.1877,-1.4316,0.5641,-82.6108,-4.1905,-1.4253,-0.0409,-161.0899,47.2822,-76.6963,1500,1500,1.0000,-0.1839,-0.3152,10.0783,-4.1695,-0.5294,-1.3371,-0.1867,-0.2853,10.0604,-4.2115,-0.3481,-0.8915
2092.2070,-1.5462,0.5768,-82.6312,-4.1638,-1.4205,0.0361,-174.2120,49.1879,-81.7764,1500,1500,1.0000,-0.1672,-0.4110,10.0304,-3.9710,-0.4377,-1.1234,-0.1340,-0.2997,10.0892,-4.3565,0.3848,-0.9373
2092.2261,-1.6469,0.5963,-82.6497,-4.1294,-1.4045,0.1215,-185.7953,50.8656,-86.2580,1500,1500,1.0000,-0.0738,-0.3774,10.1214,-3.8642,0.4248,-1.0165,-0.0382,-0.3428,10.0006,-4.3947,2.6519,-0.7999
2092.2453,-1.7403,0.6269,-82.6646,-4.3012,-1.4510,-0.3589,-194.9339,52.4248,-89.9351,1500,1500,1.0000,-0.1959,-0.3439,10.1333,-3.9939,0.5928,-0.9249,-0.0646,-0.3547,9.7707,-4.6084,0.6672,-0.5098
2092.2645,-1.8150,0.6659,-82.6750,-4.0760,-1.4115,0.2967,-205.2277,53.6747,-93.7731,1500,1500,1.0000,-0.2414,-0.2865,9.9298,-3.8718,0.2645,-0.6043,-0.0550,-0.3260,10.0557,-4.2802,0.9573,-0.4259
2092.2837,-1.8912,0.7077,-82.6801,-3.8164,-1.2900,0.8706,-215.4600,54.9507,-97.6084,1500,1500,1.0000,-0.1839,-0.3320,10.0280,-3.7191,1.2187,-0.2837,-0.2489,-0.3643,9.7779,-3.9137,1.6596,-0.1282
2092.3030,-1.9768,0.7358,-82.6603,-3.9157,-1.2227,0.4712,-223.9587,56.3843,-101.0182,1500,1500,1.0000,-0.1169,-0.3798,9.9993,-3.6886,1.3485,1.7698,-0.1963,-0.4002,9.9335,-4.1427,1.6596,0.1314
2092.3216,-2.0708,0.7867,-82.6556,-3.8508,-1.1460,0.5412,-234.7424,57.9556,-105.1961,1500,1500,1.0000,-0.2438,-0.4588,10.1190,-3.6886,1.4096,0.1820,-0.1891,-0.4362,10.0652,-4.0130,1.5145,0.5054
2092.3401,-2.1849,0.8361,-82.6454,-4.2821,-1.2203,-0.5563,-244.4240,59.8591,-109.2427,1500,1500,1.0000,-0.2414,-0.5379,10.1214,-4.0855,1.3867,0.5713,-0.2537,-0.4314,10.0269,-4.4786,1.6290,0.7192
2092.3589,-2.3096,0.9130,-82.6275,-4.8584,-1.4844,-2.1783,-253.7947,61.9397,-113.3023,1500,1500,1.0000,-0.3994,-0.5426,10.0519,-4.5741,1.2111,0.9148,-0.2322,-0.6756,10.0102,-5.1427,1.2397,1.1772
2092.3775,-2.4602,0.9450,-82.6064,-5.1561,-1.8384,-3.2431,-267.6924,64.4500,-118.9777,1500,1500,1.0000,-0.2175,-0.6528,9.8341,-4.9100,0.8065,1.0904,-0.2441,-0.6301,9.8785,-5.4023,1.1558,1.3756
2092.3961,-2.6061,0.9665,-82.5823,-4.5798,-1.9296,-0.8320,-291.0633,66.8830,-127.4488,1500,1500,1.0000,-0.1648,-0.7126,9.9370,-4.6810,1.0279,1.2431,-0.0981,-0.6516,9.9048,-4.4786,1.2016,1.5894
2092.4153,-2.7354,0.9696,-82.5502,-3.6523,-1.6513,2.2060,-314.3797,69.0447,-135.7407,1500,1500,1.0000,-0.1241,-0.7246,9.9370,-3.7344,0.5317,1.6629,-0.1412,-0.6851,9.9575,-3.5702,0.6443,1.8718
2092.4344,-2.8555,0.9776,-82.5136,-3.6218,-1.4173,1.7268,-326.5201,71.0543,-140.5886,1500,1500,1.0000,-0.1480,-0.7318,10.1166,-2.8031,0.3180,1.9072,-0.1771,-0.6397,9.9575,-4.4405,0.9268,2.0856
2092.4536,-2.9686,0.9871,-82.4689,-2.2630,-0.8191,3.1529,-343.3602,72.9496,-146.7778,1500,1500,1.0000,-0.1265,-0.8347,10.1381,-2.2306,0.6004,2.2583,-0.1508,-0.7450,10.1227,-2.2954,1.2855,2.6810
2092.4731,-3.0739,0.9986,-82.4213,-2.5340,-0.4877,1.3791,-350.1195,74.7192,-149.8674,1500,1500,1.0000,-0.0762,-0.7940,10.2243,-2.2306,1.2722,2.4186,-0.0287,-0.8408,10.1873,-2.8374,2.0031,2.7802
2092.4923,-3.1467,1.0294,-82.3703,-3.0378,-0.3587,0.5037,-355.7944,75.9515,-152.3092,1500,1500,1.0000,-0.0810,-0.6193,10.1740,-2.7497,2.1119,2.7392,-0.1939,-0.6540,10.1586,-3.3260,3.0336,2.8871
2092.5114,-3.2345,1.0623,-82.3151,-3.2439,-0.2981,0.2273,-364.8819,77.4320,-155.9238,1500,1500,1.0000,-0.0642,-0.6863,10.1429,-3.2077,2.5394,3.0675,0.0791,-0.4816,9.9599,-3.2802,3.4153,3.0856
2092.5307,-3.2673,1.1021,-82.2553,-2.5035,-0.1497,0.3564,-368.9534,78.0068,-157.4901,1500,1500,1.0000,-0.0810,-0.4996,9.9562,-2.6046,3.0279,3.2354,-0.1172,-0.3787,9.8569,-2.4023,3.1329,3.3222
2092.5499,-3.2443,1.1678,-82.1907,-1.5683,-0.0120,0.0548,-365.4944,77.6597,-156.2441,1500,1500,1.0000,-0.2342,-0.3320,9.8820,-1.6123,2.5394,3.4110,-0.1867,-0.2518,9.8378,-1.5244,2.9649,3.5360
2092.5690,-3.2211,1.1958,-82.1220,-1.5645,0.0000,0.0000,-362.7200,77.3085,-155.2011,1500,1500,1.0000,-0.0882,-0.3272,9.7982,-1.2458,2.3332,3.6858,-0.0670,-0.2901,9.6798,-1.8832,2.8581,3.6886
2092.5883,-3.2064,1.2474,-82.0531,-2.5035,0.0000,0.0000,-361.0587,77.0971,-154.5759,1500,1500,1.0000,-0.2246,-0.2817,9.8101,-2.2306,2.0432,3.5560,-0.0694,-0.2207,9.5936,-2.7763,2.5756,3.7421
2092.6075,-3.1740,1.3148,-81.9886,-3.0264,0.0000,-0.0000,-357.4097,76.5942,-153.1795,1500,1500,1.0000,-0.3228,-0.1548,9.7670,-2.8718,1.9210,3.3118,-0.2034,-0.0483,9.5601,-3.1809,2.2168,3.4367
2092.6266,-3.1035,1.3323,-81.9244,-1.5302,0.0000,0.0000,-349.4766,75.4629,-150.1207,1500,1500,1.0000,-0.1528,-0.0997,9.6928,-2.4672,1.4172,3.3576,-0.1005,0.2007,9.5577,-0.5931,1.7512,3.2840
2092.6457,-2.9930,1.3427,-81.8671,-2.2973,0.0000,0.0000,-337.0336,73.6697,-145.3119,1500,1500,1.0000,-0.1456,0.1493,9.6593,-2.2306,1.2340,2.8995,-0.1436,0.2965,9.5648,-2.3641,1.4458,2.8718
2092.6650,-2.8522,1.3334,-81.8169,-2.7248,0.0000,-0.0000,-321.1774,71.3750,-139.1782,1500,1500,1.0000,-0.0475,0.3336,9.6354,-2.5359,1.2951,2.5713,0.0671,0.4090,9.3182,-2.9137,1.8275,2.3069
2092.6842,-2.7104,1.3153,-81.7756,-2.9577,0.0000,-0.0000,-305.2075,69.0622,-132.9996,1500,1500,1.0000,-0.0164,0.3863,9.5779,-2.7344,1.3638,2.1591,-0.1699,0.2342,9.3781,-3.1809,1.4153,1.7573
2092.7033,-2.5961,1.3010,-81.7452,-3.0569,0.0000,-0.0000,-292.3348,67.2020,-128.0217,1500,1500,1.0000,-0.1217,0.2953,9.4606,-3.0016,0.2569,1.4797,-0.0765,0.2797,9.4212,-3.1122,0.4687,1.2840
2092.7222,-2.5150,1.3113,-81.7230,-2.9844,0.0000,-0.0000,-283.2056,65.8896,-124.4954,1500,1500,1.0000,-0.2773,0.1708,9.5587,-3.0779,0.0279,1.0369,-0.1053,0.2965,9.1985,-2.8908,-0.4626,0.9634
2092.7408,-2.4339,1.2537,-81.7138,-1.5302,0.0000,0.0000,-274.0687,64.5751,-120.9657,1500,1500,1.0000,-0.0475,0.0703,9.5635,-1.4214,-1.1095,0.3118,-0.0454,0.0978,9.4308,-1.6389,-1.0045,0.3146
2092.7593,-2.3379,1.2161,-81.6939,0.1836,0.0000,0.0000,-263.2562,63.0142,-116.7854,1500,1500,1.0000,-0.1337,0.0128,9.5683,-0.1237,-1.4377,1.8079,-0.1795,-0.0411,9.5696,0.4908,-0.8519,-0.1892
2092.7779,-2.2601,1.1834,-81.7042,1.9507,0.0000,0.0000,-254.5006,61.7539,-113.4025,1500,1500,1.0000,-0.1265,-0.2075,9.8149,1.8916,-0.9568,-0.5966,-0.0885,-0.2542,9.8162,2.0099,-0.5389,-0.6778
2092.7965,-2.2419,1.1429,-81.7171,3.0538,0.0000,0.0000,-252.4490,61.4757,-112.6201,1500,1500,1.0000,-0.1241,-0.5570,9.6569,2.9221,-1.0255,-0.6806,-0.1053,-0.4098,9.4188,3.1855,-1.5084,-0.7236
2092.8157,-2.2369,1.0907,-81.7363,4.0691,0.0000,0.0000,-251.8884,61.4159,-112.4161,1500,1500,1.0000,-0.1097,-0.7007,9.7335,3.9832,-2.0179,-0.9936,-0.1915,-0.8168,9.4930,4.1550,-1.3633,-0.9984
2092.8350,-2.2068,1.0728,-81.7566,5.7904,0.0000,0.0000,-248.4954,60.9409,-111.1132,1500,1500,1.0000,-0.1337,-0.7629,10.0184,5.7694,-1.0026,-0.9478,-0.1005,-0.6325,9.8186,5.8115,0.7054,-1.0213
2092.8541,-2.1462,1.0340,-81.7971,6.7294,0.0000,0.0000,-241.6690,59.9621,-108.4779,1500,1500,1.0000,-0.1385,-0.6815,9.7670,6.7618,-1.3919,-1.2684,-0.1699,-0.5391,9.9072,6.6969,-1.4702,-3.1129
2092.8733,-2.0519,1.0050,-81.8218,7.9049,0.0000,0.0000,-231.0550,58.4274,-104.3729,1500,1500,1.0000,-0.1624,-0.6288,9.8724,7.8076,-1.5446,-1.3142,-0.1388,-0.3883,9.9958,8.0023,-0.9664,-1.2579
2092.8926,-1.9047,0.9895,-81.8520,8.9317,0.3120,4.3285,-226.9419,56.0172,-101.6929,1500,1500,1.0000,-0.1648,-0.4684,9.9705,8.9603,-0.7049,-1.4592,-0.1125,-0.4721,9.9144,8.9031,-0.5236,-1.7007
2092.9118,-1.7616,0.9526,-81.8815,9.1607,1.9540,19.5113,-254.5585,53.6742,-108.5721,1500,1500,1.0000,-0.0475,-0.4756,9.8843,9.3114,-0.4072,-1.3753,-0.0454,-0.4481,9.7229,9.0099,-0.4855,-1.6931
2092.9309,-1.6517,0.9114,-81.9123,8.5614,3.7502,24.4658,-256.4558,51.8780,-108.0635,1500,1500,1.0000,-0.0283,-0.5474,9.8628,8.8152,-0.5141,-1.6043,-0.0406,-0.4481,9.7444,8.3076,-0.5542,-1.5556
2092.9501,-1.5435,0.8996,-81.9460,7.9698,4.9900,21.0543,-234.4410,50.1073,-100.3967,1500,1500,1.0000,-0.1385,-0.4876,9.9250,8.0900,-0.3996,-1.7646,-0.0909,-0.4888,9.8474,7.8496,-0.2565,-1.6931
2092.9693,-1.4330,0.8847,-81.9769,8.4317,5.8873,23.1346,-227.9847,48.2977,-97.3740,1500,1500,1.0000,-0.1456,-0.4876,9.7311,8.3114,-0.4835,-1.6272,-0.1340,-0.4625,9.6055,8.5519,-0.8290,-1.5327
2092.9885,-1.3072,0.8501,-82.0070,9.1072,6.3851,25.1041,-219.4908,46.2350,-93.5882,1500,1500,1.0000,-0.1097,-0.4636,9.8628,9.0137,-1.3461,-1.6424,-0.1364,-0.3955,9.8545,9.2008,-1.2106,-1.4869
2093.0073,-1.1736,0.8053,-82.0373,8.8668,6.7574,19.7964,-189.1632,44.0427,-83.1746,1500,1500,1.0000,-0.0523,-0.3822,9.9634,9.0900,-1.4683,-1.6272,-0.0789,-0.2686,9.9048,8.6435,-1.0045,-1.6015
2093.0258,-1.0295,0.7766,-82.0696,7.8515,6.9215,8.8434,-117.8287,41.6757,-60.3540,1500,1500,1.0000,-0.0954,-0.2075,9.7838,8.1664,-0.9950,-1.7951,-0.0406,-0.2159,9.6199,7.5366,-1.0198,-1.7312
2093.0443,-0.8858,0.7503,-82.1082,6.9813,6.9305,0.4844,-84.2789,39.3128,-48.8714,1500,1500,1.0000,-0.0451,-0.1117,9.3864,8.1282,-0.5599,-2.0318,-0.1915,0.0164,9.8330,5.8344,-0.2565,-2.1892
2093.0631,-0.7343,0.7555,-82.1297,5.8019,6.7612,-9.0156,-47.2696,36.8216,-36.2739,1500,1500,1.0000,-0.1600,0.0272,9.5085,7.4183,-0.0332,-0.1921,-0.1101,0.1696,9.1530,4.1855,-0.2335,-2.3648
2093.0817,-0.5960,0.7523,-82.1674,3.4431,6.2635,-26.7397,8.2451,34.5458,-18.2539,1500,1500,1.0000,-0.1480,0.2091,9.5755,3.8076,-0.2316,-2.1615,-0.0574,0.2534,9.2392,3.0786,-0.5771,-1.9984
2093.1003,-0.4575,0.7134,-82.2068,2.8057,5.6272,-27.4019,22.8369,32.2640,-12.5073,1500,1500,1.0000,-0.0355,0.2881,9.5228,3.0595,-0.9950,-2.2913,-0.0694,0.3539,9.3709,2.5519,-1.0274,-2.0900
2093.1196,-0.3510,0.6563,-82.2495,1.3362,3.9501,-26.6287,30.9714,30.5109,-9.0151,1500,1500,1.0000,-0.0044,0.2714,9.6018,1.8687,-1.3843,-2.3142,-0.0502,0.2821,9.2344,0.8038,-1.8213,-2.2350
2093.1387,-0.3450,0.5952,-82.2891,-1.5225,1.2332,-15.5719,5.0024,30.4146,-16.7480,1500,1500,1.0000,-0.0594,0.0894,9.3457,-0.6581,-2.3309,-2.2837,-0.1101,-0.0172,9.4164,-2.3870,-2.9282,-1.8763
2093.1580,-0.4866,0.5334,-82.3270,-3.1905,0.0000,-0.0000,-45.6569,32.7558,-33.3505,1500,1500,1.0000,-0.0475,-0.4086,9.7096,-3.1390,-2.9568,-2.1768,-0.0358,-0.5080,9.2871,-3.2420,-2.0961,-1.6778
2093.1774,-0.7343,0.4729,-82.3800,-6.0722,0.0000,-0.0000,-68.9047,36.8509,-42.7820,1500,1500,1.0000,-0.0116,-0.6576,9.6904,-5.9176,-3.0026,-3.9402,0.0958,-0.2901,10.0772,-6.2267,-1.1419,-1.3037
2093.1966,-0.9308,0.4390,-82.4088,-5.6485,0.0000,-0.0000,-104.8131,40.1026,-55.5055,1500,1500,1.0000,-0.1983,-0.5331,10.0352,-4.3374,-3.4835,-1.5356,0.0815,-0.6780,9.8043,-6.9595,-2.4473,-1.4869
2093.2158,-1.1640,0.3944,-82.4307,-5.9920,0.0000,-0.0000,-131.0680,43.9614,-65.6972,1500,1500,1.0000,-0.0259,-0.7078,10.0495,-6.1161,-2.5599,-1.3218,-0.1436,-0.5391,9.6510,-5.8679,-0.8519,-0.9373
2093.2350,-1.3105,0.4450,-82.4473,-4.1676,0.0000,-0.0000,-147.5721,46.3928,-72.1073,1500,1500,1.0000,-0.2390,-0.5163,10.2531,-4.2382,1.1119,-0.9783,0.0504,-0.5367,9.9862,-4.0969,0.5222,-0.6625
2093.2542,-1.4475,0.4443,-82.4580,-3.3737,0.0000,-0.0000,-162.9929,48.6669,-78.0980,1500,1500,1.0000,-0.0714,-0.5570,9.9825,-2.3909,0.2416,-0.7340,-0.0095,-0.6133,9.7779,-4.3565,-0.1343,-0.3037
2093.2734,-1.5397,0.4283,-82.4640,-0.6676,0.0000,0.0000,-173.3810,50.2045,-82.1370,1500,1500,1.0000,-0.0307,-0.6217,10.0974,-0.6199,-0.4454,-0.4974,0.0934,-0.5894,10.1203,-0.7153,-0.0503,-0.0595
2093.2926,-1.5924,0.4357,-82.4662,0.3630,0.0000,0.0000,-179.3114,51.0893,-84.4470,1500,1500,1.0000,-0.0618,-0.5570,10.2770,0.4870,0.0966,-0.1310,-0.1436,-0.5247,10.3501,0.2389,1.0260,-0.0213
2093.3118,-1.6032,0.4500,-82.4663,1.2599,0.0000,0.0000,-180.5327,51.2843,-84.9304,1500,1500,1.0000,-0.0762,-0.4493,10.2243,1.4565,0.3943,-0.1081,-0.1196,-0.3931,10.3118,1.0634,1.1481,0.1848
2093.3310,-1.6539,0.4695,-82.4626,1.4622,0.0000,0.0000,-186.2365,52.1366,-87.1529,1500,1500,1.0000,-0.0259,-0.6624,10.3177,1.5633,1.2416,0.2278,-0.1508,-0.5104,10.3023,1.3611,1.9802,0.3146
2093.3501,-1.6663,0.4969,-82.4526,1.8591,0.0000,0.0000,-187.6287,52.3573,-87.7030,1500,1500,1.0000,0.0243,-0.5307,10.4230,1.6549,2.3256,0.5637,0.0647,-0.4218,10.3765,2.0634,2.9726,0.6886
2093.3697,-1.6853,0.5411,-82.4377,1.9507,0.0000,0.0000,-189.7688,52.6877,-88.5433,1500,1500,1.0000,0.0052,-0.5642,10.2650,2.0519,3.0737,0.8461,-0.1340,-0.4625,10.2065,1.8496,3.4764,0.9253
2093.3889,-1.7275,0.5953,-82.4184,0.3859,0.0000,0.0000,-194.5243,53.4018,-90.3984,1500,1500,1.0000,-0.0475,-0.5450,10.2985,1.2732,2.9745,1.0446,-0.1077,-0.3212,10.2831,-0.5015,3.7130,1.2077
2093.4081,-1.7008,0.6981,-82.3971,1.1950,0.0000,0.0000,-191.5139,52.9777,-89.2408,1500,1500,1.0000,-0.2366,-0.2960,10.3895,1.3572,3.8065,1.3881,-0.2106,-0.3476,10.1227,1.0328,4.0260,1.0474
2093.4274,-1.6555,0.7733,-82.3781,0.9469,0.0000,0.0000,-186.4115,52.2466,-87.2714,1500,1500,1.0000,-0.1552,-0.1835,10.1166,1.2198,3.6691,1.1362,-0.1579,0.0714,9.9742,0.6740,3.3390,0.9940
2093.4467,-1.5696,0.8250,-82.3605,0.9546,0.0000,0.0000,-176.7468,50.8462,-83.5317,1500,1500,1.0000,-0.1648,0.0128,10.0974,1.1358,1.1806,0.8995,-0.1986,0.0858,10.0006,0.7733,3.5909,0.9634
2093.4658,-1.4891,0.9256,-82.3431,0.6340,0.0000,0.0000,-167.6746,49.5317,-80.0214,1500,1500,1.0000,-0.2653,0.0344,10.0639,0.6015,3.8447,1.0064,-0.1675,0.1385,9.7229,0.6664,3.8962,0.8947
2093.4850,-1.3779,1.0162,-82.3345,2.4202,0.0000,0.0000,-155.1576,47.7114,-75.1741,1500,1500,1.0000,-0.2797,0.0368,9.8580,1.5023,3.2722,0.5942,-0.2106,0.1432,9.9048,3.3382,3.4306,0.3451
2093.5042,-1.2723,1.0903,-82.3318,2.1988,0.0000,0.0000,-143.2654,45.9816,-70.5686,1500,1500,1.0000,-0.1911,0.0463,9.9921,2.1587,3.3638,0.2736,-0.1148,0.0523,9.9000,2.2389,4.0718,0.0398
2093.5235,-1.1811,1.1397,-82.3332,1.9431,0.0000,0.0000,-132.9932,44.4882,-66.5909,1500,1500,1.0000,-0.2366,0.0200,9.7838,2.0900,1.1500,0.0064,-0.1651,0.0259,9.5553,1.7962,2.9039,-0.1816
2093.5427,-1.1334,1.1823,-82.3406,1.4355,0.0000,0.0000,-127.6281,43.7134,-64.5164,1500,1500,1.0000,-0.1887,-0.1141,9.8317,1.7160,2.2951,-0.4363,-0.3351,-0.0531,9.7468,1.1550,2.2550,-0.2808
2093.5618,-1.0957,1.2197,-82.3517,1.1798,0.0000,-0.0000,-123.3797,43.1018,-62.8750,1500,1500,1.0000,-0.2199,-0.1237,9.7287,1.4259,1.6997,-0.6424,-0.2944,-0.1800,9.0884,0.9336,1.7435,-0.4869
2093.5811,-1.0549,1.2574,-82.3650,1.3401,0.0000,0.0000,-118.7905,42.4399,-61.1011,1500,1500,1.0000,-0.2965,-0.1213,10.0352,1.4641,0.9897,-0.6424,-0.2872,-0.1991,9.4954,1.2160,1.0565,-0.7312
2093.6002,-1.0500,1.2934,-82.3822,0.5767,0.0000,-0.0000,-118.2369,42.3693,-60.8926,1500,1500,1.0000,-0.2917,-0.2027,9.8173,-0.2993,0.9516,-0.8562,-0.3112,-0.2398,9.9312,1.4527,1.0565,-0.8915
2093.6189,-1.0541,1.3359,-82.4027,2.1301,0.0000,0.0000,-118.6967,42.4472,-61.0773,1500,1500,1.0000,-0.3372,-0.3894,10.0376,2.1740,1.0050,-0.9478,-0.2441,-0.3117,9.7372,2.0863,1.1176,-1.1129
2093.6377,-1.0827,1.3632,-82.4224,2.7523,0.0000,0.0000,-121.9144,42.9295,-62.3321,1500,1500,1.0000,-0.3539,-0.5474,9.9035,2.8534,1.1958,-0.9325,-0.1723,-0.6923,9.7899,2.6511,-1.1114,-0.9602
2093.6563,-1.1293,1.3404,-82.4453,3.4813,0.0000,0.0000,-127.1677,43.7106,-64.3767,1500,1500,1.0000,-0.1193,-0.7150,10.0639,3.9908,-0.7584,-1.1234,-0.1723,-0.8025,9.7755,2.9718,1.1405,-1.0518
2093.6749,-1.1993,1.3658,-82.4700,2.9584,0.0000,0.0000,-135.0459,44.8770,-67.4400,1500,1500,1.0000,-0.3276,-0.7677,9.7048,3.3725,0.3180,-1.1844,-0.2633,-0.4721,9.5385,2.5443,0.1252,-1.1587
2093.6936,-1.2352,1.3924,-82.4947,2.3553,0.0000,0.0000,-139.0893,45.4818,-69.0159,1500,1500,1.0000,-0.3659,-0.5594,9.6042,2.7160,-0.5446,-1.3600,-0.2992,-0.5415,9.6558,1.9947,0.2550,-1.0747
2093.7124,-1.2943,1.3910,-82.5235,1.1034,0.0000,-0.0000,-145.7383,46.4690,-71.6029,1500,1500,1.0000,-0.2797,-0.5666,9.6449,1.4183,-0.3385,-1.4363,-0.3591,-0.4122,9.5385,0.7885,-0.8824,-1.4335
2093.7316,-1.3230,1.3384,-82.5531,1.7294,0.0000,-0.0000,-148.9741,46.9564,-72.8661,1500,1500,1.0000,-0.2103,-0.4924,9.6713,1.7923,-2.2316,-1.6195,-0.0885,-0.2997,9.7109,1.6664,-2.5465,-1.4182
2093.7509,-1.3055,1.2887,-82.5852,1.5767,0.0000,-0.0000,-147.0031,46.6806,-72.1093,1500,1500,1.0000,-0.3084,-0.2721,9.5994,1.7694,-3.4301,-1.8027,-0.2872,-0.4362,9.6439,1.3840,-3.6458,-1.6549
2093.7701,-1.2849,1.2526,-82.6184,1.0194,0.0000,-0.0000,-144.6903,46.3546,-71.2198,1500,1500,1.0000,-0.3731,-0.2051,9.3648,1.7923,-4.1248,-2.0394,-0.3231,-0.3787,9.9599,0.2466,-3.4778,-1.5785
2093.7892,-1.2790,1.1955,-82.6523,-0.9157,0.0000,-0.0000,-144.0164,46.2687,-70.9661,1500,1500,1.0000,-0.2223,-0.1117,9.8556,-0.5054,-3.1706,-2.0547,-0.2058,-0.1776,9.5457,-1.3260,-2.8595,-1.6702
2093.8084,-1.3477,1.1219,-82.6922,-3.2668,0.0000,-0.0000,-151.7536,47.4158,-73.9756,1500,1500,1.0000,-0.0762,-0.2458,9.8389,-2.6886,-2.3232,-2.3600,-0.0765,-0.1345,9.6582,-3.8450,-2.2183,-1.8763
2093.8271,-1.4573,1.0812,-82.7275,-5.8202,0.0000,-0.0000,-164.0999,49.2395,-78.7737,1500,1500,1.0000,-0.2031,-0.2362,9.8939,-5.6504,-2.0484,-2.2226,0.0456,-0.1201,9.5074,-5.9901,-2.3252,-1.6625
2093.8457,-1.5545,0.9687,-82.7664,-6.7706,0.0000,-0.0000,-175.0444,50.8587,-83.0286,1500,1500,1.0000,0.0722,-0.1141,9.6354,-6.6046,-3.0408,-2.5356,-0.0861,-0.0986,9.8091,-6.9366,-3.0045,-1.8763
2093.8642,-1.5312,0.9670,-82.8047,-7.0569,0.0000,-0.0000,-172.4168,50.4890,-82.0185,1500,1500,1.0000,-0.3731,0.3480,7.5955,-4.8336,-4.6820,-2.4745,-0.4596,0.3396,8.4803,-9.2802,-2.7526,-2.1358
2093.8829,-1.5160,0.8193,-82.8325,-6.9920,0.0000,-0.0000,-170.7128,50.2545,-81.3665,1500,1500,1.0000,0.1895,0.4174,9.6449,-8.5817,-2.8271,-1.7722,0.0049,-0.2350,8.7364,-5.4023,-4.6534,-1.6778
2093.9015,-1.5818,0.6959,-82.8725,-9.6943,-0.8659,-12.1730,-143.0645,51.3561,-73.7330,1500,1500,1.0000,0.0435,0.2642,9.5827,-9.1161,-5.1782,-2.7493,-0.0047,0.1887,9.4715,-10.2725,-3.6992,-1.9831
2093.9204,-1.6918,0.6377,-82.9166,-9.0340,-2.7615,-23.8866,-121.7134,53.1876,-68.4266,1500,1500,1.0000,-0.0738,0.0080,9.3528,-8.1237,-3.4988,-2.7722,-0.0358,0.0116,9.9264,-9.9443,-1.5007,-2.1129
2093.9397,-1.7949,0.5880,-82.9638,-10.0989,-5.0766,-38.9635,-89.9036,54.9070,-59.9153,1500,1500,1.0000,0.0172,0.1229,10.0759,-10.1390,-0.3156,-2.7188,-0.1699,0.0834,9.1483,-10.0588,-1.8442,-2.3572
2093.9590,-1.9021,0.4882,-83.0140,-9.7286,-6.1288,-32.8977,-119.4405,56.6942,-69.8487,1500,1500,1.0000,0.2015,0.0511,9.4366,-9.6504,-1.5065,-2.8562,-0.0358,0.0187,9.5912,-9.8069,-1.5313,-2.5556
2093.9782,-2.0013,0.4262,-83.0688,-9.0493,-6.5669,-22.8071,-159.6686,58.3505,-82.9109,1500,1500,1.0000,0.0483,0.0080,9.5563,-9.0474,-1.8881,-3.1310,-0.2034,0.0379,9.8641,-9.0511,-1.3786,-2.7618
2093.9975,-2.0634,0.3361,-83.1230,-8.2172,-6.8144,-12.8321,-195.3922,59.3962,-94.2554,1500,1500,1.0000,0.2470,0.0870,9.6282,-9.0016,-0.6973,-3.1081,0.0288,-0.0172,9.5648,-7.4328,-0.9587,-2.6625
2094.0168,-2.1364,0.2196,-83.1744,-5.8126,-6.6641,7.8099,-263.0606,60.6219,-115.2913,1500,1500,1.0000,0.2590,-0.1739,9.4725,-7.1313,-1.8271,-3.0012,0.0623,-0.1895,9.6127,-4.4939,-2.5618,-2.5480
2094.0359,-2.2990,0.2001,-83.2259,-6.3393,-6.6154,2.5485,-266.2167,63.3276,-117.8616,1500,1500,1.0000,-0.0666,-0.5546,9.8221,-6.4290,-0.9874,-2.8180,0.0575,-0.4314,10.0006,-6.2496,-1.4626,-2.6625
2094.0551,-2.4868,0.1527,-83.2710,-7.0111,-6.6748,-3.0847,-271.1422,66.4513,-121.2135,1500,1500,1.0000,0.0052,-0.6384,9.9346,-7.4138,-2.2316,-2.6959,-0.0143,-0.6588,10.3980,-6.6084,-1.5923,-2.1663
2094.0743,-2.6449,0.1227,-83.3138,-2.7744,-6.0897,30.5272,-385.7540,69.0873,-157.1786,1500,1500,1.0000,0.0555,-0.8204,8.8261,-4.5512,-1.0942,-2.7722,-0.3734,-0.3907,12.3086,-0.9977,0.0260,-1.7465
2094.0938,-2.8081,0.0124,-83.3438,-4.0645,-5.7018,15.3132,-360.3163,71.8082,-151.1798,1500,1500,1.0000,0.4984,-0.8635,10.3129,-6.2229,0.2493,-1.6806,-0.1412,-0.9341,8.9639,-1.9061,-0.1496,-1.4106
2094.1135,-2.8326,0.0446,-83.3763,-0.7248,-3.7829,29.0208,-402.5524,72.2407,-164.1101,1500,1500,1.0000,-0.1073,-0.5331,10.0472,-0.8260,-0.2927,-1.8944,0.0408,-0.8288,10.2831,-0.6237,1.3619,-1.3648
2094.1330,-2.9275,-0.0015,-83.4024,0.5004,-1.4730,14.9503,-372.7168,73.8358,-156.1165,1500,1500,1.0000,0.3547,-0.9281,9.5276,0.2351,1.2035,-1.4211,-0.1340,-0.6397,9.9742,0.7656,2.5985,-1.0824
2094.1522,-2.8610,0.0970,-83.4280,2.8973,-0.0180,0.3189,-323.0838,72.7663,-140.5849,1500,1500,1.0000,-0.1672,-0.4804,10.6146,3.4106,3.7913,-1.2150,-0.0215,-0.8216,9.5529,2.3840,3.0565,-1.1205
2094.1714,-2.8728,0.1392,-83.4498,0.8630,0.0000,0.0000,-323.4975,72.9903,-140.8434,1500,1500,1.0000,-0.0427,-0.6193,9.8891,2.1511,2.3790,-1.2226,-0.1484,-0.6085,9.8665,-0.4252,1.4993,-0.8686
2094.1907,-2.8589,0.2214,-83.4686,1.5462,0.0000,0.0000,-321.9310,72.7893,-140.2529,1500,1500,1.0000,-0.3108,-0.5857,10.2147,1.6549,0.8447,-1.0699,0.0096,-0.5822,10.0604,1.4374,1.4916,-0.7694
2094.2099,-2.8417,0.2879,-83.4848,1.2294,0.0000,0.0000,-319.9986,72.5346,-139.5204,1500,1500,1.0000,-0.0762,-0.5522,10.4398,1.7313,2.7226,-0.8256,-0.1244,-0.4697,10.2352,0.7275,3.4458,-0.5633
2094.2291,-2.8421,0.3763,-83.4994,1.2752,0.0000,0.0000,-320.0353,72.5684,-139.5516,1500,1500,1.0000,-0.2055,-0.5929,9.6976,1.7236,3.1958,-0.7569,-0.1244,-0.4218,9.4595,0.8267,2.4535,-0.4869
2094.2484,-2.8100,0.4579,-83.5137,0.6149,0.0000,0.0000,-316.4260,72.0677,-138.1684,1500,1500,1.0000,-0.1265,-0.4086,10.0208,-0.0779,2.8523,-0.7722,-0.1819,-0.3045,9.9719,1.3076,4.2321,-0.3877
2094.2676,-2.8303,0.5747,-83.5278,-1.3699,0.0000,-0.0000,-318.7048,72.4299,-139.0694,1500,1500,1.0000,-0.1576,-0.4708,10.1525,-0.8031,4.7149,-0.4134,-0.2657,-0.3332,9.8952,-1.9366,5.6825,-0.5480
2094.2868,-2.8105,0.6779,-83.5387,-2.1141,0.0000,-0.0000,-316.4857,72.1328,-138.2254,1500,1500,1.0000,-0.1792,-0.2075,9.5803,-1.7420,4.5470,-0.5127,-0.1388,-0.2853,9.5553,-2.4863,4.3237,-0.2579
2094.3060,-2.8104,0.7643,-83.5498,-2.7515,0.0000,-0.0000,-316.4720,72.1589,-138.2370,1500,1500,1.0000,-0.2175,-0.2434,9.7191,-2.4061,3.2569,-0.4134,-0.0909,-0.1417,9.6822,-3.0969,3.4306,-0.4869
2094.3252,-2.8095,0.7947,-83.5616,-3.9767,0.0000,-0.0000,-316.3732,72.1726,-138.2155,1500,1500,1.0000,0.0435,-0.1404,9.9969,-4.0321,3.4172,-0.6043,-0.0909,-0.0579,9.8665,-3.9214,3.7817,-0.3877
2094.3444,-2.8178,0.8195,-83.5722,-4.1943,0.0000,-0.0000,-317.2970,72.3361,-138.5908,1500,1500,1.0000,-0.0690,-0.1524,9.4845,-3.8489,2.6691,-0.6043,-0.1508,-0.1105,9.5289,-4.5397,1.4764,-0.4030
2094.3636,-2.8164,0.8429,-83.5843,-3.8775,0.0000,-0.0000,-317.1458,72.3421,-138.5490,1500,1500,1.0000,-0.0714,-0.1404,9.5539,-4.1848,1.8600,-0.7569,-0.1029,-0.1680,9.9359,-3.5702,2.1787,-0.4335
2094.3829,-2.8242,0.8726,-83.5990,-4.4538,0.0000,-0.0000,-318.0214,72.4986,-138.9056,1500,1500,1.0000,-0.0618,-0.1332,9.8652,-4.1924,2.5470,-0.7340,-0.0023,-0.1776,9.7396,-4.7153,2.5680,-0.6702
2094.4022,-2.8952,0.8630,-83.6160,-5.7363,-0.0173,-0.1317,-325.6428,73.6998,-141.9128,1500,1500,1.0000,0.0674,-0.3032,9.7503,-5.4672,2.0432,-0.9096,0.0456,-0.3069,10.0413,-6.0053,2.1100,-0.7236
2094.4214,-2.9511,0.8479,-83.6315,-5.0569,-0.1821,-0.8016,-330.0031,74.6509,-143.7915,1500,1500,1.0000,0.0531,-0.3056,9.7215,-5.2382,2.4401,-0.9402,-0.0215,-0.4888,9.9335,-4.8756,0.8199,-0.5938
2094.4406,-3.0331,0.8691,-83.6422,-3.7744,-0.2317,-0.1849,-341.0182,76.0349,-147.9264,1500,1500,1.0000,0.0100,-0.5426,9.7287,-4.0092,2.6768,-0.5661,-0.0382,-0.6444,9.9431,-3.5397,3.1634,-0.2579
2094.4599,-3.1597,0.8819,-83.6489,-3.4195,-0.2238,0.0269,-355.8835,78.1552,-153.6582,1500,1500,1.0000,0.0842,-0.7988,9.9514,-3.3603,3.4859,-0.2073,0.2251,-0.9078,9.8138,-3.4786,3.3466,-0.0442
2094.4791,-3.3684,0.9074,-83.6452,-4.0111,-0.3106,-0.3738,-378.2319,81.6324,-162.4490,1500,1500,1.0000,-0.0834,-1.1723,10.1262,-3.9023,2.2264,0.3576,0.0623,-1.0443,10.0126,-4.1198,2.1100,0.4520
2094.4983,-3.5656,0.9032,-83.6324,-3.4386,-0.2922,0.0700,-401.7178,84.9218,-171.4684,1500,1500,1.0000,0.0531,-1.1963,10.0495,-3.4825,2.0279,0.6400,0.0982,-1.2478,10.0485,-3.3947,2.2626,1.1161
2094.5175,-3.7201,0.9037,-83.6142,-1.5989,-0.0593,0.2750,-419.7039,87.5077,-178.4158,1500,1500,1.0000,-0.0164,-1.1771,9.8365,-2.5435,1.3943,0.9453,-0.0191,-1.1520,9.8545,-0.6542,1.7130,1.3069
2094.5367,-3.8373,0.8934,-83.5898,-1.4996,0.0000,0.0000,-432.1138,89.4803,-183.3223,1500,1500,1.0000,0.0579,-1.0574,9.9993,-2.0321,1.4401,1.2583,-0.1795,-1.2262,9.9407,-0.9672,2.0718,1.6276
2094.5559,-3.9130,0.8985,-83.5652,0.7217,0.0000,0.0000,-440.6353,90.7679,-186.6513,1500,1500,1.0000,-0.0044,-1.0670,9.8389,0.5023,1.9897,1.3957,-0.1412,-1.1329,9.8450,0.9412,1.7741,1.5589
2094.5751,-3.9499,0.8947,-83.5391,2.2790,0.0000,0.0000,-444.7961,91.4170,-188.2890,1500,1500,1.0000,0.0363,-1.0287,9.7168,1.9679,3.0355,1.5713,-0.1508,-1.0012,9.8593,2.5901,0.9115,1.5436
2094.5944,-3.9570,0.8921,-83.5146,3.3362,0.0000,0.0000,-445.5954,91.5736,-188.6228,1500,1500,1.0000,-0.0642,-0.9880,9.6976,3.4565,0.4935,1.3805,-0.1699,-0.9246,9.9168,3.2160,1.0260,1.3909
2094.6136,-3.9645,0.8948,-83.4918,3.1912,0.0000,0.0000,-446.4349,91.7363,-188.9723,1500,1500,1.0000,-0.1432,-0.9760,9.6330,3.1358,0.5470,1.1744,-0.1675,-0.7330,9.3829,3.2466,-0.2183,1.3298
2094.6322,-3.9317,0.8910,-83.4774,2.2141,0.0000,0.0000,-442.7478,91.2354,-187.5656,1500,1500,1.0000,-0.1504,-0.7102,9.6808,2.4259,1.0737,0.8232,-0.0837,-0.6588,9.7037,2.0023,-1.3252,0.7192
2094.6508,-3.8858,0.8854,-83.4666,2.2752,0.0000,0.0000,-437.5750,90.5164,-185.5823,1500,1500,1.0000,-0.2749,-0.6504,9.7144,2.6091,-1.9645,0.4568,-0.1843,-0.6157,9.8067,1.9412,-1.6000,0.4520
2094.6695,-3.7986,0.8915,-83.4625,2.1607,0.0000,0.0000,-427.7532,89.1154,-181.7952,1500,1500,1.0000,-0.3491,-0.4421,9.6737,2.7618,-2.7049,-0.0318,-0.3854,-0.4601,9.9479,1.5595,-1.4778,0.1008
2094.6882,-3.7359,0.9687,-83.4684,1.6378,0.0000,0.0000,-420.7002,88.1194,-179.0817,1500,1500,1.0000,-0.7179,-0.5283,10.0831,1.8076,-2.2164,-0.3982,-0.3303,0.0690,9.6103,1.4679,-2.0045,-0.5633
2094.7067,-3.5645,0.9209,-83.4888,1.5194,0.0000,0.0000,-401.3914,85.3261,-171.6131,1500,1500,1.0000,-0.2079,0.0272,9.4151,2.3725,-3.5294,-1.2913,-0.3088,0.0092,10.4028,0.6664,-2.7297,-1.5709
2094.7256,-3.4534,0.9190,-83.5271,-0.5683,0.0000,-0.0000,-388.8784,83.5273,-166.7799,1500,1500,1.0000,-0.3252,-0.0566,10.1860,-0.3298,-1.3538,-2.1921,-0.1556,0.0355,9.4763,-0.8069,-2.1038,-2.3037
2094.7449,-3.3719,0.8898,-83.5765,-2.8431,0.0000,-0.0000,-379.6991,82.2161,-163.2394,1500,1500,1.0000,-0.2366,0.0200,9.6689,-2.5435,-2.2240,-2.8104,-0.1963,-0.0148,9.6822,-3.1427,-2.3786,-2.8305
2094.7641,-3.3592,0.8984,-83.6410,-4.3851,0.0000,-0.0000,-378.2690,82.0402,-162.7048,1500,1500,1.0000,-0.3204,-0.1715,11.8117,-2.7039,1.1577,-3.0241,0.3688,0.3061,8.9974,-6.0664,-2.0351,-3.8610
2094.7844,-3.2452,0.8297,-83.7234,-4.8584,0.0000,-0.0000,-365.4327,80.1919,-157.7449,1500,1500,1.0000,-0.2151,0.2977,8.7351,-4.5054,-3.7507,-4.5814,-0.2274,0.1265,9.4427,-5.2115,-4.5313,-4.3877
2094.8037,-3.1698,0.7163,-83.8169,-6.1523,0.0000,-0.0000,-356.9407,78.9794,-154.4698,1500,1500,1.0000,-0.1193,0.3145,9.7838,-5.9710,-5.8118,-5.2455,-0.2657,0.2534,9.7037,-6.3336,-4.9816,-5.3801
2094.8229,-3.0963,0.6683,-83.9395,-6.1599,0.0000,-0.0000,-348.6643,77.7977,-151.2779,1500,1500,1.0000,-0.3132,0.3241,9.7527,-5.7039,-5.1629,-7.9173,0.0527,0.2414,9.6630,-6.6160,-3.5618,-5.7923
2094.8425,-3.0959,0.5956,-84.0601,-6.7057,-0.0332,-0.3310,-347.6694,77.8225,-150.9943,1500,1500,1.0000,-0.1456,0.0535,9.6521,-6.5665,-3.9110,-6.5127,-0.0454,-0.0363,9.6127,-6.8450,-3.5923,-6.3877
2094.8617,-3.1963,0.4925,-84.1838,-7.0683,-0.6075,-4.8848,-345.8568,79.5105,-151.4633,1500,1500,1.0000,0.0172,-0.3631,9.8628,-5.8565,-3.7507,-6.7569,0.0288,-0.3308,9.9599,-8.2802,-3.4549,-6.5633
2094.8809,-3.3096,0.4230,-84.3024,-5.1485,-0.9795,-2.6727,-364.9917,81.4137,-158.3457,1500,1500,1.0000,-0.0571,-0.6169,9.8843,-6.2153,-3.3232,-6.7646,-0.0047,-0.7809,10.1418,-4.0817,-2.5847,-6.0137
2094.9002,-3.4201,0.3541,-84.4160,-3.2477,-0.7749,1.1285,-388.3770,83.2703,-166.4753,1500,1500,1.0000,0.0148,-0.7916,9.9921,-4.2840,-2.5370,-6.3600,0.0719,-1.0658,9.9814,-2.2115,-1.8824,-5.7083
2094.9194,-3.5599,0.2778,-84.5101,-1.2248,-0.2260,1.3439,-404.7395,85.6123,-172.7892,1500,1500,1.0000,0.0052,-1.0766,9.5899,-1.1084,-2.8881,-5.3218,0.1126,-1.3459,9.6486,-1.3412,-2.8748,-4.8228
2094.9385,-3.7617,0.1920,-84.5828,-0.1447,0.0000,0.0000,-423.6045,88.9810,-180.4699,1500,1500,1.0000,0.0459,-1.5243,9.8772,-0.3145,-3.7584,-4.4821,-0.0478,-1.4992,10.0293,0.0252,-2.6534,-3.5175
2094.9578,-3.9355,0.1227,-84.6340,1.1912,0.0000,0.0000,-443.1742,91.8875,-188.0848,1500,1500,1.0000,0.0100,-1.5961,10.2291,1.6855,-4.6210,-3.1692,0.2179,-1.5375,10.1299,0.6969,-1.3633,-2.5480
2094.9770,-4.1100,0.0817,-84.6602,1.0996,0.0000,0.0000,-462.8207,94.8069,-195.7304,1500,1500,1.0000,0.0387,-1.6057,10.1094,1.5633,-1.6591,-2.0165,0.0527,-1.5518,10.0461,0.6359,-1.0809,-0.9526
2094.9961,-4.2695,0.0636,-84.6610,0.8133,0.0000,0.0000,-480.7845,97.4814,-202.7242,1500,1500,1.0000,-0.0187,-1.5506,10.1597,1.3496,-1.5217,-0.3676,-0.1819,-1.5088,9.9575,0.2771,-0.5923,0.1161
2095.0154,-4.4311,0.0388,-84.6384,0.5118,0.0000,0.0000,-498.9906,100.1930,-209.8130,1500,1500,1.0000,0.1584,-1.5674,10.2028,0.9984,0.1195,0.9224,-0.0334,-1.3196,10.1730,0.0252,0.7665,1.4673
2095.0346,-4.6051,0.0518,-84.6166,-0.5645,0.0000,0.0000,-518.5842,103.1096,-217.4410,1500,1500,1.0000,-0.0283,-1.5291,10.0088,-0.4748,0.2035,-0.1005,0.0264,-1.4872,10.0748,-0.6542,0.4916,2.3069
2095.0537,-4.7443,0.0699,-84.5591,-1.0187,0.0000,0.0000,-534.2619,105.4538,-223.5508,1500,1500,1.0000,-0.0164,-1.3926,10.2698,-0.6733,0.2951,2.5866,0.0623,-1.3819,10.1179,-1.3641,0.9497,3.4978
2095.0729,-4.9037,0.0974,-84.4843,-1.5989,0.0000,-0.0000,-552.2175,108.1333,-230.5452,1500,1500,1.0000,-0.0259,-1.4237,10.0232,-0.7878,0.6539,3.7392,-0.1053,-1.3555,10.1011,-2.4099,1.1710,4.2077
2095.0922,-5.0224,0.1588,-84.3972,0.3210,0.0000,0.0000,-565.5858,110.1419,-235.7609,1500,1500,1.0000,-0.0403,-1.4668,10.2363,0.0977,3.0584,4.6400,-0.0622,-1.4178,10.3430,0.5443,2.0260,4.8642
2095.1118,-5.0989,0.2511,-84.2980,1.3820,0.0000,0.0000,-574.2076,111.4560,-239.1359,1500,1500,1.0000,-0.1265,-1.3974,10.3416,1.1969,2.5317,5.1515,-0.1891,-1.3220,10.4722,1.5672,3.7894,5.6123
2095.1311,-5.1531,0.3705,-84.1945,0.9202,0.0000,0.0000,-580.3106,112.4015,-241.5341,1500,1500,1.0000,-0.1720,-1.2633,10.3297,1.0366,3.8905,5.6171,-0.0550,-1.2933,10.4196,0.8038,4.7206,5.9405
2095.1504,-5.1862,0.5019,-84.0808,0.2561,0.0000,0.0000,-584.0407,112.9998,-243.0121,1500,1500,1.0000,-0.1792,-1.1125,10.3129,0.3572,4.6310,6.2889,-0.2130,-1.1305,10.1921,0.1550,5.3771,6.4673
2095.1697,-5.1714,0.6570,-83.9677,0.1569,0.0000,0.0000,-582.3712,112.8070,-242.3956,1500,1500,1.0000,-0.2175,-0.8850,10.2674,0.0824,5.6386,6.5408,-0.2920,-0.7282,9.9431,0.2313,6.4306,6.2840
2095.1889,-5.1140,0.7846,-83.8572,0.6836,0.0000,0.0000,-575.9077,111.9113,-239.9191,1500,1500,1.0000,-0.0978,-0.7126,9.9179,0.7923,6.1958,6.3652,-0.0837,-0.2374,9.7468,0.5748,6.3848,6.2611
2095.2080,-4.9563,0.9148,-83.7467,1.3553,0.0000,0.0000,-558.1467,109.3589,-233.0594,1500,1500,1.0000,-0.1935,-0.2936,9.7311,1.4946,5.4096,6.3423,-0.1579,-0.1512,9.6822,1.2160,5.7512,6.0321
2095.2272,-4.7379,1.0608,-83.6428,1.6874,0.0000,0.0000,-533.5457,105.8023,-223.5451,1500,1500,1.0000,-0.2677,-0.0303,9.6545,1.5252,5.5241,6.0522,-0.1819,0.0666,9.5337,1.8496,6.0489,5.4444
2095.2464,-4.5021,1.1518,-83.5501,1.2752,0.0000,0.0000,-506.9834,101.9559,-213.2686,1500,1500,1.0000,-0.1073,0.1182,9.4390,1.2580,4.8981,5.2736,-0.1986,0.1480,9.3661,1.2924,5.3619,4.8184
2095.2656,-4.2634,1.2636,-83.4679,1.4546,0.0000,0.0000,-480.1066,98.0610,-202.8686,1500,1500,1.0000,-0.3276,0.1589,9.2834,1.7236,4.7378,4.6095,-0.3543,0.1480,9.2967,1.1855,2.8657,4.1161
2095.2848,-4.0075,1.3874,-83.4017,1.7217,0.0000,0.0000,-451.2803,93.8779,-191.7108,1500,1500,1.0000,-0.3875,0.2403,9.2379,1.7007,3.9287,3.6858,-0.2753,0.2989,9.3542,1.7427,3.9420,3.2382
2095.3042,-3.7252,1.4543,-83.3489,2.0080,0.0000,0.0000,-419.4842,89.2567,-179.3993,1500,1500,1.0000,-0.2175,0.3672,9.3361,1.8610,3.4096,2.8843,-0.1795,0.3683,9.2943,2.1550,3.3542,2.4138
2095.3234,-3.4506,1.4783,-83.3126,2.6492,0.0000,0.0000,-388.5636,84.7609,-167.4256,1500,1500,1.0000,-0.1504,0.3384,9.2451,2.6549,2.1958,2.0751,-0.1172,0.2821,9.2775,2.6435,2.1787,1.3909
2095.3426,-3.2016,1.5074,-83.2726,2.3019,0.0000,0.0000,-360.5273,80.6851,-156.5693,1500,1500,1.0000,-0.2079,0.3121,9.5204,3.1664,1.5852,1.1438,-0.1388,0.2821,9.3972,1.4374,2.1329,2.6123
2095.3619,-2.9414,1.5335,-83.2689,4.8172,0.0000,0.0000,-331.2232,76.4210,-145.2195,1500,1500,1.0000,-0.2151,0.1924,9.3768,4.9145,1.5241,0.2049,-0.1244,-0.0459,9.5601,4.7198,1.9726,-0.1053
2095.3812,-2.7437,1.5538,-83.2808,6.4813,0.0000,0.0000,-308.9559,73.1858,-136.5983,1500,1500,1.0000,-0.2103,-0.1763,9.7335,7.4335,1.4248,-0.4745,-0.2178,-0.3117,9.6941,5.5290,1.8962,-0.7923
2095.4005,-2.5998,1.5715,-83.2986,6.4278,0.0306,0.2881,-293.5813,70.8375,-130.5769,1500,1500,1.0000,-0.2270,-0.3774,9.8652,6.7465,2.0737,-0.6959,-0.1699,-0.4050,9.6869,6.1092,0.8657,-1.0824
2095.4198,-2.5251,1.5869,-83.3245,5.9546,0.3627,2.1803,-290.6174,69.6300,-128.9632,1500,1500,1.0000,-0.1576,-0.6049,9.5659,6.1358,1.8218,-0.9707,-0.1579,-0.6684,9.9719,5.7733,2.3848,-1.3877
2095.4390,-2.4826,1.6339,-83.3527,6.5423,1.1060,6.3130,-297.7366,68.9541,-130.6934,1500,1500,1.0000,-0.3108,-0.8108,9.8843,6.1893,1.9897,-1.2608,-0.2154,-0.7187,9.7037,6.8954,2.2092,-1.2579
2095.4583,-2.4179,1.6432,-83.3836,7.4927,2.3951,14.1424,-313.0030,67.9112,-134.6476,1500,1500,1.0000,-0.1935,-0.7749,9.7790,7.5099,1.8065,-1.2226,-0.1771,-0.7618,9.4691,7.4756,1.3161,-1.6015
2095.4777,-2.3704,1.6152,-83.4168,8.4393,4.1015,24.0201,-336.1011,67.1510,-141.1210,1500,1500,1.0000,-0.1337,-0.9640,10.2267,7.9450,1.9516,-1.4287,-0.0239,-0.9605,8.9902,8.9336,-0.9816,-1.6091
2095.4970,-2.2902,1.5318,-83.4517,9.6988,5.7594,35.1667,-359.1696,65.8503,-147.2611,1500,1500,1.0000,0.0914,-0.8036,8.9626,9.7236,0.2035,-1.6501,-0.0598,-0.7689,9.4906,9.6740,-0.0198,-1.6549
2095.5162,-2.1957,1.4242,-83.4893,8.6340,6.2420,21.9817,-310.5534,64.3127,-131.7537,1500,1500,1.0000,0.0507,-0.6791,9.4917,9.1664,-2.7431,-1.6730,-0.0095,-0.8240,9.3996,8.1015,-1.0656,-2.1816
2095.5355,-2.1285,1.3344,-83.5276,7.0576,6.3643,6.3328,-257.9133,63.2246,-115.3088,1500,1500,1.0000,-0.0068,-0.6552,9.4654,7.5633,-1.6973,-2.0394,-0.0167,-0.5798,9.3996,6.5519,-1.9129,-1.8992
2095.5547,-2.0789,1.2467,-83.5691,5.8172,6.2822,-4.2821,-221.7601,62.4275,-103.9845,1500,1500,1.0000,-0.0547,-0.6240,9.6258,6.2351,-2.1706,-2.1921,-0.0239,-0.6205,9.2704,5.3992,-2.7526,-2.1816
2095.5739,-2.0666,1.1263,-83.6145,4.9393,6.0808,-10.4615,-202.5752,62.2447,-98.1194,1500,1500,1.0000,0.0076,-0.6959,9.5156,5.1816,-3.2927,-2.4592,-0.0718,-0.8408,9.4619,4.6969,-3.8977,-2.3419
2095.5933,-2.0495,1.0193,-83.6611,4.4431,5.7842,-12.5766,-194.5655,61.9842,-95.5602,1500,1500,1.0000,-0.0954,-0.6504,9.7287,4.6702,-4.3767,-2.5585,-0.0885,-0.6349,9.8138,4.2160,-4.2412,-2.4411
2095.6125,-2.0626,0.9232,-83.7076,3.2332,4.9545,-18.4577,-179.1027,62.2209,-91.0633,1500,1500,1.0000,-0.1696,-0.7007,9.9681,2.9832,-5.3080,-2.5737,-0.4596,-0.4769,10.7236,3.4832,-4.4702,-2.4793
2095.6317,-2.0710,0.8004,-83.7568,2.3630,3.6520,-17.6525,-182.3609,62.3792,-92.1358,1500,1500,1.0000,0.0315,-0.6073,10.0735,2.7236,-4.4683,-2.8104,-0.1723,-0.4745,9.9192,2.0023,-3.8442,-2.5480
2095.6511,-2.1413,0.7597,-83.8149,-0.4806,1.3921,-14.1515,-200.3654,63.5613,-98.2464,1500,1500,1.0000,-0.2318,-0.6384,10.0400,0.2274,-3.0179,-3.1005,-0.1508,-0.4505,10.4028,-1.1885,-3.0045,-3.0518
2095.6703,-2.1612,0.6566,-83.8750,-1.4615,0.1049,-1.3888,-239.3666,63.9119,-110.1571,1500,1500,1.0000,-0.0164,-0.3367,10.0926,-1.1924,-3.0255,-3.4211,-0.0957,-0.2877,9.8450,-1.7305,-4.7908,-3.1663
2095.6894,-2.1822,0.5800,-83.9294,-2.4195,0.0000,-0.0000,-245.7301,64.2800,-112.2870,1500,1500,1.0000,-0.1217,-0.2529,9.8221,-2.5359,-3.9034,-3.3371,-0.1292,-0.3643,10.0245,-2.3031,-4.0961,-2.7160
2095.7086,-2.1779,0.4807,-83.9883,-2.5378,0.0000,-0.0000,-245.2390,64.2298,-112.1096,1500,1500,1.0000,0.0196,-0.1356,9.7598,-2.8642,-3.6133,-3.6119,-0.1364,-0.0914,9.9312,-2.2115,-3.7603,-2.8839
2095.7274,-2.1885,0.4093,-84.0507,-3.5912,0.0000,-0.0000,-246.4402,64.4277,-112.5887,1500,1500,1.0000,-0.0978,-0.1117,9.8293,-3.4061,-3.8652,-3.6882,-0.0406,-0.1105,9.8402,-3.7763,-3.8290,-3.3419
2095.7459,-2.2090,0.3122,-84.0911,-4.8241,0.0000,-0.0000,-248.7417,64.7870,-113.4947,1500,1500,1.0000,0.0339,-0.0542,9.7335,-4.5054,-3.7889,-3.5279,0.0695,-0.0172,9.3446,-5.1427,-4.0351,-1.2579
