timestamp,roll_deg,pitch_deg,yaw_deg,omega_raw,omega_filtered,alpha,tau_ff,tau_pid,tau_total,pwm_left,pwm_right,deadzone_factor,accel1_x,accel1_y,accel1_z,gyro1_x,gyro1_y,gyro1_z,accel2_x,accel2_y,accel2_z,gyro2_x,gyro2_y,gyro2_z
471.3311,-0.4556,1.1964,-10.5663,7.4360,1.3075,9.7074,-66.9900,9.1175,-0.0000,1500,1500,0.0000,-0.1048,-0.3798,9.8713,7.5681,0.6801,2.4294,0.0076,-0.2853,9.6847,7.3040,-0.1937,2.5621
471.3503,-0.3000,1.1586,-10.5168,9.3330,3.4278,28.3512,-96.8075,6.0025,-1.6620,1499,1500,0.0552,0.0125,-0.1834,9.6654,8.9268,0.3748,2.4905,-0.0954,-0.1895,9.7613,9.7391,0.7300,2.7453
471.3699,-0.1195,1.1402,-10.4691,10.0047,5.4828,37.8200,-102.2302,2.3919,-27.4674,1486,1513,0.9211,-0.0904,-0.1260,9.9144,10.2245,0.2145,2.3989,-0.0619,-0.0818,9.7469,9.7849,0.4781,2.5239
471.3884,0.0471,1.0683,-10.4259,9.8024,6.2913,33.3906,-75.6205,-0.9426,-20.7024,1489,1510,1.0000,0.1466,-0.0925,9.6582,9.6902,0.0694,2.2233,0.0746,-0.0818,9.5674,9.9147,0.1956,2.5163
471.4069,0.2087,1.0430,-10.3807,9.3292,6.7470,24.7208,-39.3208,-4.1754,-8.9221,1495,1504,1.0000,0.0173,-0.0470,9.8761,9.4306,0.6114,2.5058,-0.0284,0.0260,9.5195,9.2277,1.4094,2.4094
471.4253,0.3832,1.0537,-10.3377,9.8215,7.2082,25.0155,-23.2872,-7.6688,-2.6860,1498,1501,1.0000,-0.0521,-0.0015,9.5169,10.0261,1.3595,2.3455,-0.0068,0.0739,9.5985,9.6170,2.9437,2.3025
471.4438,0.5768,1.0179,-10.2947,9.2299,7.5114,16.4220,19.0747,-11.5415,11.1116,1505,1494,1.0000,-0.0282,0.1637,9.5840,9.2932,-0.1443,2.3455,-0.0475,0.2032,9.4429,9.1666,-0.1632,2.2644
471.4621,0.7599,1.0060,-10.2565,8.5887,7.6730,8.7878,62.1294,-15.2051,24.9988,1512,1487,1.0000,-0.1431,0.2068,9.8114,9.0642,-0.4802,2.0783,-0.1193,0.2654,9.7637,8.1132,0.0429,2.0353
471.4805,0.9314,1.0098,-10.2253,7.8253,7.6959,1.2425,103.5945,-18.6369,38.3249,1519,1480,1.0000,-0.1982,0.2451,9.5624,8.2093,-0.1748,1.8264,-0.1936,0.2463,9.4118,7.4414,-0.0639,1.4628
471.4990,1.0830,0.9867,-10.1942,6.4475,7.5086,-10.1548,153.8627,-21.6703,53.9167,1526,1473,1.0000,-0.1455,0.2978,9.6031,6.9116,-1.1748,1.7271,-0.1457,0.2750,9.5003,5.9834,-0.6212,1.6079
471.5174,1.2224,0.9655,-10.1687,6.1803,7.3094,-10.8368,171.8695,-24.4708,60.3589,1530,1469,1.0000,-0.0785,0.3002,9.7851,6.4230,-0.5336,1.4829,-0.0715,0.3468,9.9289,5.9376,0.4857,1.2262
471.5357,1.3286,0.9570,-10.1483,5.5162,7.0404,-14.6237,195.0001,-26.6088,67.9044,1533,1466,1.0000,-0.0809,0.2308,10.0484,5.8276,0.4587,1.2462,-0.1361,0.3779,9.6416,5.2048,0.6613,0.9132
471.5541,1.4308,0.9544,-10.1304,4.3482,6.6366,-21.9754,227.9252,-28.6657,78.1519,1539,1460,1.0000,-0.1311,0.3241,9.7109,4.8123,-0.0909,0.9867,-0.1600,0.3253,9.7230,3.8842,0.6231,0.9132
471.5726,1.5027,0.9648,-10.1188,3.4513,6.1588,-25.9260,247.5826,-30.1198,84.3830,1542,1457,1.0000,-0.1527,0.2810,9.8354,3.7360,0.1000,0.5287,-0.0236,0.3253,9.5650,3.1666,1.4704,0.6918
471.5910,1.5521,1.0253,-10.1141,3.1078,5.5427,-24.1853,248.2516,-31.1229,79.7435,1539,1460,0.9374,-0.3658,0.2188,9.8593,3.5604,0.6343,0.2310,-0.2438,0.2415,9.6272,2.6552,1.4246,0.2338
471.6093,1.6024,1.0327,-10.1127,3.4131,4.7267,-16.4665,231.8071,-32.1445,49.5985,1524,1475,0.6125,-0.1814,0.2044,9.7923,3.7436,0.2755,0.0248,-0.1648,0.2558,9.7757,3.0826,0.4017,0.1422
471.6277,1.6564,0.9758,-10.1172,3.3330,3.8639,-12.6405,227.0087,-33.2423,20.2429,1510,1489,0.2525,0.0724,0.2451,9.9407,3.1940,-0.4039,-0.1736,0.1895,0.2558,9.9289,3.4719,0.0735,-0.3005
471.6461,1.7034,0.9768,-10.1281,3.4284,3.1409,-8.6595,220.9456,-34.1982,22.4299,1511,1488,0.2841,-0.1072,0.2140,9.9790,3.3314,0.4816,-0.4026,-0.1241,0.1936,9.6679,3.5254,1.0658,-0.8196
471.6645,1.7469,1.0065,-10.1402,4.3215,2.9252,-2.4644,208.1074,-35.0854,23.8201,1511,1488,0.3142,-0.2484,0.1230,9.7923,4.4154,0.7335,-0.5248,-0.2438,0.1960,9.6943,4.2277,0.5468,-0.7891
471.6828,1.8038,1.0206,-10.1575,4.7337,2.9237,-0.0164,207.6124,-36.2427,27.0508,1513,1486,0.3548,-0.2269,0.1589,9.7228,4.8963,0.1610,-0.8072,-0.1912,0.1361,9.6296,4.5712,0.0048,-1.0334
471.7012,1.8871,0.9658,-10.1783,4.9627,3.0233,1.1688,213.7810,-37.9270,32.7646,1516,1483,0.4157,0.1370,0.2810,10.0891,5.0261,0.1916,-1.0973,0.2278,0.2558,9.9074,4.8994,1.0582,-1.1860
471.7196,1.9445,0.9489,-10.2013,5.6765,3.4256,5.1623,208.8880,-39.0950,35.7742,1517,1482,0.4584,-0.0090,0.1134,10.0269,4.3543,-0.2283,-1.1584,0.1416,0.3205,11.9137,6.9987,2.1880,-1.3387
471.7380,2.0163,0.9261,-10.2078,5.2605,3.5835,2.0889,226.0015,-40.5511,42.8004,1521,1478,0.5122,0.0365,0.2308,10.3908,4.9803,2.1000,-1.3187,0.4792,0.2319,8.4924,5.5406,0.1422,0.6766
471.7563,2.0712,1.0098,-10.2344,6.3673,4.2036,9.3535,211.3934,-41.6692,44.2776,1522,1477,0.5533,-0.6243,0.0512,9.8425,7.4383,-1.5107,-1.2576,-0.1983,0.1936,10.1827,5.2964,-0.0181,-1.4914
471.7747,2.1561,0.9485,-10.2634,8.1612,5.3706,23.3354,180.8935,-43.3885,64.1288,1532,1467,0.8864,0.0867,0.0512,9.0189,8.1406,-0.5718,-1.5171,0.0602,-0.0387,9.5794,8.1819,0.0353,-1.4990
471.7931,2.2182,0.8303,-10.2901,6.8330,5.7283,9.7816,227.0800,-44.6537,83.9231,1541,1458,0.9769,0.3597,0.0751,10.0245,7.0261,0.0694,-1.4103,-0.1026,0.1242,9.8882,6.6399,-1.3158,-1.3234
471.8115,2.2953,0.7255,-10.3200,7.4246,6.0448,13.2562,225.9422,-46.2181,86.3728,1543,1456,1.0000,0.2831,0.1015,9.5935,7.6215,-0.4649,-1.6393,-0.1696,0.1146,9.3543,7.2277,-1.2624,-1.4456
471.8298,2.3665,0.6933,-10.3292,5.3215,5.9284,-5.8985,289.2991,-47.6654,104.6601,1552,1447,0.9983,-0.0210,0.2739,9.9359,5.9039,-0.9229,-1.4866,0.0483,0.0906,10.1971,4.7391,-0.1250,0.7071
471.8482,2.3823,0.6946,-10.3524,4.0353,5.4397,-14.9387,317.1512,-48.0049,102.4690,1551,1448,0.9084,-0.0545,0.1350,9.8976,4.2093,0.7565,-1.4255,0.1967,0.1242,9.5291,3.8613,0.9208,-1.0792
471.8666,2.3539,0.7245,-10.3740,1.9475,3.9855,-23.6255,338.9087,-47.4618,89.4865,1544,1455,0.7544,-0.2389,0.1111,10.0245,2.7971,0.3061,-1.2042,0.0746,-0.0195,9.5698,1.0979,0.3101,-1.0715
471.8850,2.3067,0.6979,-10.3939,1.3444,2.3411,-15.8126,310.9781,-46.5412,79.7616,1539,1460,0.7228,-0.0306,0.0656,9.8473,2.0795,-0.1061,-1.1584,0.0770,0.0595,9.7206,0.6094,-0.6746,-0.8654
471.9033,2.2449,0.6283,-10.4148,-0.2701,0.6874,-7.0745,278.6950,-45.3267,68.4746,1534,1465,0.6800,0.1681,0.1302,9.9479,0.0566,-0.5336,-1.1355,0.1177,0.1481,9.4525,-0.5968,-0.4838,-1.0257
471.9217,2.1657,0.6010,-10.4320,-3.4304,0.0000,-0.0000,249.2032,-43.7637,57.1136,1528,1471,0.6231,-0.0234,0.3050,9.8808,-2.0961,-0.7474,-0.9675,-0.1002,0.2486,9.7062,-4.7647,-0.3311,-0.8273
471.9401,2.0479,0.5918,-10.4509,-6.2892,0.0000,-0.0000,235.6513,-41.4288,46.4603,1523,1476,0.5359,-0.1072,0.3457,9.4738,-5.3556,-0.9687,-1.0744,-0.1576,0.3205,9.7230,-7.2227,-0.2700,-0.9265
471.9585,1.8932,0.6009,-10.4657,-7.4876,0.0000,-0.0000,217.8537,-38.3544,33.6922,1516,1483,0.4202,-0.1814,0.2667,9.6965,-6.8900,-0.6023,-1.1049,-0.2917,0.2008,9.9457,-8.0853,-0.4074,-0.4074
471.9769,1.7150,0.5996,-10.4816,-7.7052,0.0000,-0.0000,197.3473,-34.8075,21.2209,1510,1489,0.2921,-0.0713,0.1589,9.8761,-7.6381,0.2603,-1.1660,-0.1457,-0.0195,10.0558,-7.7723,0.2643,-0.4990
471.9952,1.5281,0.5639,-10.4945,-7.9380,0.0000,-0.0000,175.8385,-31.0844,11.1643,1505,1494,0.1724,0.0700,0.1039,9.6606,-7.9892,-0.1748,-1.0515,-0.0331,-0.0554,10.1061,-7.8868,0.2872,-0.2547
472.0136,1.3212,0.5926,-10.5008,-9.1556,-0.0380,-0.6817,153.9905,-26.9590,3.9099,1501,1498,0.0691,-0.2101,0.0823,9.5050,-9.3251,0.3748,-0.6622,-0.0858,-0.0291,9.7948,-8.9861,-0.0639,0.0888
472.0320,1.1235,0.6673,-10.5120,-9.7777,-1.4332,-18.4463,182.4035,-23.0163,0.6862,1500,1499,0.0110,-0.5238,0.1398,10.0628,-9.3480,-0.2817,-0.7232,-0.4785,0.1792,9.6416,-10.2074,-1.2548,-0.3921
472.0503,0.9306,0.7368,-10.5221,-9.2739,-3.5398,-29.8046,160.7665,-19.1679,4.6671,1502,1497,0.0855,-0.5022,0.0847,9.7899,-9.0350,-0.8542,-0.6698,-0.4952,0.0499,9.9672,-9.5128,-0.6212,-0.3234
472.0687,0.6913,0.7479,-10.5328,-9.9915,-5.5439,-40.0218,162.3427,-13.8331,49.1095,1524,1475,0.9377,-0.2341,-0.0996,9.8737,-10.0884,-0.8237,-0.6164,-0.1409,-0.0267,9.5746,-9.8945,-0.3616,-0.4303
472.0871,0.4823,0.7558,-10.5383,-9.8273,-6.3206,-33.6978,127.1254,-9.6514,40.4208,1520,1479,1.0000,-0.2413,-0.0230,9.7348,-8.9434,-1.0985,-0.5095,-0.1768,-0.0410,9.6344,-10.7113,-0.6517,0.0430
472.1054,0.2904,0.7412,-10.5435,-10.0487,-6.8798,-30.4763,100.9933,-5.8116,31.1839,1515,1484,1.0000,-0.1670,0.0440,9.9000,-9.7678,-1.7550,-0.3568,-0.2414,0.1242,9.6464,-10.3296,-0.5906,-0.1631
472.1238,0.1374,0.7757,-10.5432,-9.0334,-7.2029,-17.5483,55.2929,-2.7497,16.8569,1508,1491,1.0000,-0.3634,0.1087,10.0197,-8.6839,-1.1977,-0.1049,-0.2869,0.2079,9.7206,-9.3830,-0.2777,0.1651
472.1423,-0.0049,0.8168,-10.5406,-9.6327,-7.5673,-19.7497,46.9246,0.0990,13.0894,1506,1493,1.0000,-0.3993,0.1853,9.9479,-9.0426,-0.9229,-0.0973,-0.2558,0.1768,9.5913,-10.2227,-0.6212,0.3789
472.1606,-0.1892,0.8206,-10.5392,-11.3808,-8.1393,-31.1237,56.5540,3.7860,13.9421,1506,1493,1.0000,-0.2341,0.1087,9.7946,-10.5999,-1.0298,-0.1813,-0.0978,0.0930,9.7589,-12.1616,-0.6670,0.3483
472.1790,-0.3869,0.8455,-10.5351,-12.5373,-8.7990,-35.9424,58.9962,7.7415,12.6482,1506,1493,1.0000,-0.2676,0.1206,9.9455,-12.4396,-0.5107,-0.1355,-0.2055,0.0595,9.6296,-12.6349,0.4628,0.6079
472.1974,-0.5637,0.9037,-10.5312,-11.6899,-9.2327,-23.6154,3.1445,11.2803,-4.7597,1497,1502,1.0000,-0.3849,0.1111,9.9000,-11.6457,0.3290,-0.0210,-0.5216,0.0834,9.9720,-11.7342,0.4323,0.4476
472.2159,-0.7063,0.9721,-10.5222,-9.8311,-9.3224,-4.8536,-67.2936,14.1328,-25.9086,1487,1512,1.0000,-0.4615,0.0871,9.7085,-10.0732,-0.1061,0.1699,-0.4354,0.0092,9.9217,-9.5891,0.2719,0.7911
472.2343,-0.8362,1.0061,-10.5278,-8.9342,-9.2642,3.1528,-105.3057,16.7332,-37.8522,1481,1518,1.0000,-0.3179,0.0392,9.7420,-8.5846,0.5122,0.3913,-0.0475,0.0380,10.0199,-9.2838,-0.3616,-1.2013
472.2527,-0.9387,1.0058,-10.5157,-8.4151,-9.1368,6.9208,-127.9435,18.7827,-45.2156,1477,1522,1.0000,-0.1910,0.0991,9.8162,-8.6075,0.1229,0.3760,-0.0164,0.2151,9.6727,-8.2227,-0.5983,0.8827
472.2712,-1.0560,1.0143,-10.5026,-7.4342,-8.8814,13.8585,-161.4205,21.1297,-55.7626,1472,1527,1.0000,-0.2748,-0.0685,9.5840,-7.7755,-1.0985,0.4447,-0.2558,0.0643,9.9672,-7.0929,-0.4838,0.9590
472.2895,-1.1166,1.0530,-10.4873,-5.6785,-8.4010,26.1509,-203.8050,22.3544,-68.2426,1465,1534,1.0000,-0.3753,0.0225,9.7683,-5.7144,-0.4191,0.5974,-0.3324,-0.0171,9.6943,-5.6426,-0.0945,1.0124
472.3079,-1.1531,1.0866,-10.4695,-4.5105,-7.8174,31.7401,-224.0985,23.0954,-74.2953,1462,1537,1.0000,-0.3107,0.0249,9.7707,-4.6228,0.0389,0.7424,-0.2678,-0.0051,9.7637,-4.3983,0.5620,1.1346
472.3263,-1.1615,1.1486,-10.4471,-3.4189,-7.1577,35.9454,-237.1809,23.2757,-78.0485,1460,1539,1.0000,-0.4065,0.0512,9.7061,-3.4701,0.1992,1.0401,-0.4833,0.1816,9.5410,-3.3677,1.2948,1.3483
472.3447,-1.1339,1.2586,-10.4289,-2.2243,-6.4176,40.2408,-246.3726,22.7346,-80.3516,1459,1540,1.0000,-0.6004,0.1158,9.6199,-2.2487,0.7030,0.9103,-0.5264,0.1696,9.5027,-2.1998,1.6460,0.9590
472.3630,-1.0689,1.3660,-10.4084,-0.6403,-5.2153,44.3096,-250.6070,21.4445,-67.1842,1466,1533,0.8305,-0.6435,0.1565,9.6055,-0.3632,0.6038,1.0630,-0.3228,0.1912,9.6009,-0.9174,0.9284,1.0048
472.3814,-0.9773,1.4386,-10.3882,1.0238,-2.4303,28.5250,-194.6131,19.6233,-0.0000,1500,1500,0.0000,-0.5621,0.1518,9.6797,1.1253,-0.2817,1.0325,-0.6700,0.1026,9.5099,0.9223,0.2872,0.9666
472.3998,-0.9150,1.5805,-10.3646,1.9666,-0.3559,5.2879,-120.5182,18.3093,-0.0000,1500,1500,0.0000,-1.0122,-0.0494,9.6007,2.3390,-1.5489,1.2691,-0.9621,-0.0410,9.5865,1.5941,-1.3158,1.1575
472.4182,-0.8400,1.6591,-10.3416,3.0849,0.0000,0.0000,-96.6622,16.8091,-0.0000,1500,1500,0.0000,-0.8518,-0.0781,9.7180,3.4765,-2.5794,1.1241,-0.5144,0.0308,9.2753,2.6933,-2.4609,1.2415
472.4366,-0.7556,1.5981,-10.3209,3.6956,0.0000,0.0000,-72.4576,15.1201,-0.0000,1500,1500,0.0000,-0.2365,-0.0805,10.0436,4.3467,-2.7397,1.0859,-0.1983,0.1481,9.6177,3.0445,-2.6441,1.0353
472.4550,-0.5972,1.5452,-10.2999,4.3101,0.0000,0.0000,-57.2657,11.9499,-0.0000,1500,1500,0.0000,-0.2054,0.2379,9.9790,4.7360,-2.5642,1.0401,-0.1193,0.3061,9.6775,3.8842,-1.4532,0.9590
472.4734,-0.4411,1.5583,-10.2801,3.4666,0.0000,0.0000,-42.3005,8.8270,-0.0000,1500,1500,0.0000,-0.4041,0.3289,9.9910,4.1329,-1.3123,0.9561,-0.2798,0.3660,9.8906,2.8002,-0.2700,0.9056
472.4918,-0.3121,1.5747,-10.2471,3.4589,0.0000,0.0000,-29.9281,6.2452,-0.0000,1500,1500,0.0000,-0.3538,0.2284,9.9407,3.9421,-0.2512,0.9103,-0.0858,0.1385,9.8475,2.9758,0.2490,2.5621
472.5102,-0.2147,1.6139,-10.2349,3.3902,0.0000,0.0000,-20.5830,4.2951,-0.0000,1500,1500,0.0000,-0.4113,0.1087,9.9766,3.8429,0.4664,0.5821,-0.1864,0.1194,9.7446,2.9376,0.7681,0.6460
472.5285,-0.1420,1.6199,-10.2187,2.7490,0.0000,0.0000,-13.6169,2.8415,-0.0000,1500,1500,0.0000,-0.2269,0.0632,10.0724,3.1635,0.7946,0.6203,-0.1553,0.1242,10.0079,2.3345,1.2032,1.1040
472.5469,-0.0491,1.6394,-10.1994,1.6460,0.0000,0.0000,-4.7101,0.9829,-0.0000,1500,1500,0.0000,-0.3251,0.2667,9.9144,1.9803,0.4969,0.8493,-0.1744,0.2558,9.8020,1.3116,0.6689,1.0811
472.5654,0.0102,1.6522,-10.1830,1.0047,0.0000,-0.0000,0.9800,-0.2045,0.0000,1500,1500,0.0000,-0.3538,0.1757,9.8952,1.5681,-0.1519,0.7729,-0.5264,0.2199,9.6631,0.4414,-0.1861,0.8827
472.5838,0.0504,1.6804,-10.1680,0.1803,0.0000,-0.0000,4.8345,-1.0088,0.0000,1500,1500,0.0000,-0.4304,0.1637,9.8641,1.8352,-0.3046,0.6050,-0.2965,0.1601,9.6153,-1.4746,0.0658,0.9361
472.6022,-0.0179,1.6300,-10.1557,-3.1289,0.0000,-0.0000,-1.7144,0.3578,-0.0000,1500,1500,0.0000,-0.1072,-0.0541,9.9646,-1.6915,-0.5489,0.6584,0.0123,-0.0363,9.6919,-4.5662,-0.6288,0.7224
472.6205,-0.1114,1.5381,-10.1448,-3.5602,0.0000,-0.0000,-10.6809,2.2288,-0.0000,1500,1500,0.0000,0.0915,-0.1379,9.8952,-3.3861,-1.0603,0.5668,0.1416,-0.1488,9.7565,-3.7342,-0.2471,0.7071
472.6389,-0.1758,1.4136,-10.1318,-2.4227,0.0000,-0.0000,-16.8617,3.5186,-0.0000,1500,1500,0.0000,0.3022,-0.1140,9.9814,-2.3861,-0.4497,0.6584,0.0842,-0.2015,9.7853,-2.4594,-0.1021,0.8216
472.6573,-0.2278,1.3989,-10.1153,-1.7357,0.0000,-0.0000,-21.8404,4.5576,-0.0000,1500,1500,0.0000,-0.0641,-0.1499,11.7268,-1.4396,2.5045,0.6584,0.4672,-0.1608,8.9856,-2.0319,0.4857,1.2185
472.6756,-0.2747,1.2270,-10.0995,-1.5029,0.0000,-0.0000,-26.3441,5.4974,-0.0000,1500,1500,0.0000,0.5201,-0.1140,8.6933,-1.7373,0.8099,0.6432,-0.0451,-0.2278,10.1755,-1.2685,-0.5983,1.1346
472.6940,-0.3264,1.1452,-10.0822,-3.2281,0.0000,-0.0000,-31.2973,6.5310,-0.0000,1500,1500,0.0000,0.1227,-0.0087,9.6318,-3.6075,-1.6329,0.7500,0.2518,-0.2158,10.5825,-2.8487,0.6307,1.1193
472.7123,-0.4040,1.0494,-10.0652,-2.1594,0.0000,-0.0000,-38.7444,8.0850,-0.0000,1500,1500,0.0000,0.2663,-0.2553,10.5895,-2.2106,0.7641,0.7500,0.4002,-0.1320,9.6895,-2.1082,-0.8349,1.1804
472.7307,-0.4451,0.9451,-10.0413,-1.9533,0.0000,-0.0000,-42.6771,8.9056,-0.0000,1500,1500,0.0000,0.2831,-0.0948,9.9958,-2.1877,-0.5871,1.0248,0.4122,-0.1703,9.8762,-1.7189,-0.0334,1.5926
472.7491,-0.4767,0.8306,-10.0214,-1.0602,0.0000,0.0000,-45.7150,9.5396,-0.0000,1500,1500,0.0000,0.2855,-0.1260,9.2607,-0.8976,-1.5947,0.9790,0.2398,-0.2039,9.9912,-1.2227,-0.0487,1.1956
472.7674,-0.5030,0.7952,-9.9944,-0.8922,0.0000,0.0000,-48.2283,10.0640,-0.0000,1500,1500,0.0000,0.0724,-0.1355,9.9838,-0.8518,0.1992,1.4218,0.2182,0.0643,9.6464,-0.9326,0.9895,1.5468
472.7858,-0.5034,0.7166,-9.9693,0.0505,0.0000,0.0000,-48.2751,10.0738,-0.0000,1500,1500,0.0000,0.2065,-0.0925,9.8401,0.2398,0.1687,1.4523,-0.0092,-0.2158,9.9145,-0.1387,-0.8807,1.2720
472.8043,-0.5288,0.6911,-9.9414,-0.3808,0.0000,0.0000,-50.7033,10.5805,-0.0000,1500,1500,0.0000,0.0867,-0.1762,10.0077,-0.1495,0.2679,1.4600,0.1584,-0.1943,10.0175,-0.6120,1.8597,1.6079
472.8227,-0.5370,0.6948,-9.9076,-0.1594,0.0000,0.0000,-51.4922,10.7451,-0.0000,1500,1500,0.0000,0.0556,-0.1188,9.9144,0.2093,2.0465,1.6737,0.0530,-0.1320,9.7206,-0.5281,2.3865,2.0582
472.8411,-0.5819,0.6830,-9.8712,-0.2930,0.0000,0.0000,-55.7966,11.6433,-0.0000,1500,1500,0.0000,0.0676,-0.2744,9.6414,-0.3709,1.8404,1.9561,-0.0068,-0.2015,9.4046,-0.2151,1.1727,2.0888
472.8595,-0.5879,0.6581,-9.8326,0.4971,0.0000,0.0000,-56.3762,11.7643,-0.0000,1500,1500,0.0000,0.0652,-0.1739,9.8689,0.5986,0.3366,1.9790,-0.1600,-0.1608,9.8140,0.3956,1.0582,2.2567
472.8778,-0.5937,0.6428,-9.7705,1.1345,0.0000,0.0000,-56.9349,11.8809,-0.0000,1500,1500,0.0000,0.0413,-0.2313,9.8832,1.2627,0.7412,2.2768,0.0123,-0.1799,9.7110,1.0063,1.1193,4.6079
472.8962,-0.6079,0.6502,-9.7178,0.2185,0.0000,0.0000,-58.2882,12.1633,-0.0000,1500,1500,0.0000,-0.0785,-0.1858,9.6893,0.5375,0.6801,2.6050,-0.0212,-0.2661,9.3974,-0.1006,0.8063,3.2033
472.9146,-0.6453,0.6552,-9.6622,-0.2472,0.0000,-0.0000,-61.8828,12.9134,-0.0000,1500,1500,0.0000,-0.0090,-0.2553,9.5768,-0.0121,0.1152,2.8035,0.0602,-0.2469,9.4836,-0.4823,2.9513,3.3331
472.9331,-0.7123,0.6744,-9.6015,-1.0182,0.0000,-0.0000,-68.3060,14.2537,-0.0000,1500,1500,0.0000,-0.0809,-0.3367,9.7683,-0.7984,0.8710,3.2157,-0.0331,-0.3260,9.4932,-1.2380,1.9361,3.4552
472.9515,-0.7818,0.6555,-9.5345,-1.0640,0.0000,-0.0000,-74.9678,15.6439,-0.0000,1500,1500,0.0000,0.0365,-0.3510,9.5648,-0.6152,0.7412,3.3531,0.1177,-0.3331,9.7781,-1.5128,0.7147,4.0353
472.9699,-0.8551,0.5969,-9.4564,-1.0258,0.0000,-0.0000,-98.3939,17.1102,-0.0000,1500,1500,0.0000,0.1083,-0.3798,9.5385,-1.0197,-0.8313,4.1546,0.1895,-0.4145,9.6248,-1.0319,-0.3769,4.4018
472.9883,-0.9276,0.5157,-9.3683,-1.0220,0.0000,-0.0000,-106.7364,18.5610,-0.0000,1500,1500,0.0000,0.2184,-0.3965,9.7013,-0.8594,-0.9916,4.6126,0.2111,-0.4313,9.7541,-1.1845,-0.4380,5.0277
473.0068,-1.0119,0.4368,-9.2726,-0.8884,0.0000,-0.0000,-116.4397,20.2483,-0.0045,1499,1500,0.0001,0.1969,-0.4707,9.6342,-0.8976,-0.9916,5.0325,0.1488,-0.4265,9.5243,-0.8792,-1.0334,5.4094
473.0253,-1.0914,0.3429,-9.1677,-1.0220,0.0000,-0.0000,-125.5870,21.8491,-0.2800,1499,1500,0.0061,0.2783,-0.4564,9.7755,-0.9052,-1.4573,5.5897,0.2302,-0.3906,9.6608,-1.1387,-0.6135,5.7300
473.0437,-1.1492,0.2768,-9.0576,0.1841,0.0000,0.0000,-132.2433,23.0175,-0.7705,1499,1500,0.0159,0.2376,-0.4636,9.6773,-0.2487,-0.6787,5.8340,0.1584,-0.6348,9.8236,0.6170,0.2490,6.1498
473.0621,-1.1921,0.2460,-8.9379,1.4360,0.0000,0.0000,-137.1779,23.8871,-1.3048,1499,1500,0.0259,0.1753,-0.5210,9.7635,1.3314,0.5351,6.3989,0.0602,-0.4481,9.7158,1.5406,1.0200,6.6918
473.0805,-1.2155,0.2631,-8.8133,2.6192,0.0000,0.0000,-139.8620,24.3658,-1.6593,1499,1500,0.0323,-0.0210,-0.5306,9.6079,2.5146,0.7717,6.7653,-0.0930,-0.4457,9.6081,2.7239,1.2719,6.8903
473.0989,-1.2253,0.3018,-8.6817,3.6536,0.0000,0.0000,-140.9947,24.5749,-1.8228,1499,1500,0.0352,-0.1216,-0.5665,9.6749,3.6062,0.6954,7.0706,-0.3348,-0.3571,9.7493,3.7010,1.2872,7.2796
473.1173,-1.1510,0.3985,-8.5480,5.3597,0.0000,0.0000,-132.4448,23.1004,-0.7898,1499,1500,0.0162,-0.4759,-0.3247,9.7132,5.1329,1.0084,7.2920,-0.4641,-0.2350,9.5674,5.5865,-0.8426,7.2720
473.1357,-1.0142,0.5360,-8.3911,7.6078,0.0000,0.0000,-116.7069,20.3752,-0.0065,1499,1500,0.0002,-0.6914,-0.2122,9.5911,7.0719,-0.2130,9.5210,-0.7203,-0.1847,9.5961,8.1437,-0.0258,7.4705
473.1541,-0.8148,0.6925,-8.2505,9.9017,0.2136,3.8278,-87.3201,16.3950,-0.0000,1500,1500,0.0000,-0.8159,-0.0972,9.5887,9.6520,-0.5336,7.5287,-0.7706,-0.0674,9.6320,10.1513,0.0964,7.7147
473.1725,-0.5970,0.8464,-8.1084,10.9780,2.4810,33.2712,-137.1005,11.9466,-0.0000,1500,1500,0.0000,-0.7728,-0.0709,9.6989,10.8505,0.0084,7.6737,-0.8376,-0.1081,9.6344,11.1055,1.1574,7.7682
473.1908,-0.3628,1.0098,-7.9632,10.8788,5.1586,47.9500,-149.8677,7.2593,-36.8461,1481,1518,0.8082,-0.8231,0.0512,10.8409,11.1787,4.8939,7.7424,-0.8113,0.1313,8.6935,10.5788,-0.8884,7.9743
473.2092,-0.1129,1.0935,-7.8381,11.0963,6.3626,45.4076,-119.8017,2.2586,-34.6738,1482,1517,1.0000,-0.5573,0.1302,8.9710,11.5986,-0.8695,5.6508,-1.1321,0.1912,10.3790,10.5941,-0.4761,7.6995
473.2276,0.1596,1.2035,-7.6979,9.7948,6.8774,27.9816,-51.8536,-3.1932,-12.9224,1493,1506,1.0000,-0.7488,0.3960,9.7659,8.9268,-0.2435,7.2844,-0.6700,0.2008,9.8690,10.6628,-0.8273,7.7147
473.2460,0.4170,1.2198,-7.5588,9.9093,7.3322,24.7590,-23.3234,-8.3439,-2.3586,1498,1501,1.0000,-0.3682,0.3816,10.2376,10.4841,-0.4649,7.3684,-0.4138,0.4976,9.9289,9.3345,-1.0639,7.5850
473.2644,0.6780,1.2228,-7.4244,8.2452,7.4691,7.4522,56.5510,-13.5661,22.6173,1511,1488,1.0000,-0.3083,0.5612,9.6749,8.0719,-1.0985,7.2462,-0.2079,0.4905,9.5506,8.4185,-0.8044,7.1498
473.2828,0.9098,1.2175,-7.2924,6.9895,7.3972,-3.9155,115.9668,-18.2051,41.5733,1520,1479,1.0000,-0.2963,0.6019,9.8545,8.4306,-2.3581,7.3226,-0.2390,0.5982,10.1157,5.5483,-0.1861,6.8674
473.3011,1.0490,1.2184,-7.1638,2.8711,6.7183,-36.9537,227.1307,-20.9898,74.0915,1537,1462,1.0000,-0.2676,0.5660,10.0053,3.9345,-1.0451,7.0401,-0.1193,0.6198,9.6344,1.8078,0.0887,6.7987
473.3195,1.1224,1.2349,-7.0460,0.1765,5.6125,-52.2103,279.5178,-22.4694,85.4056,1542,1457,0.9543,-0.2652,0.5205,10.1250,1.3390,1.0313,6.3913,-0.1026,0.6245,9.8834,-0.9861,0.0735,6.2567
473.3379,1.1155,1.2246,-6.9287,-2.2701,2.3495,-33.8364,225.8049,-22.3423,0.7153,1500,1499,0.0096,-0.2269,0.3601,10.2232,-1.6533,-0.3886,6.1088,-0.2151,0.5096,9.9193,-2.8868,-0.6059,6.5392
473.3563,1.0963,1.1926,-6.8199,-4.3006,0.0452,-1.0145,129.0714,-21.9697,0.3172,1500,1499,0.0067,-0.0928,0.4869,10.2256,-3.5694,-0.3199,5.8340,-0.2750,0.4498,10.0438,-5.0319,-0.2166,5.8674
473.3747,1.0567,1.2158,-6.7167,-5.1670,0.0000,-0.0000,121.5882,-21.1874,0.1054,1500,1499,0.0024,-0.3011,0.4678,10.4363,-5.0350,0.6496,5.3836,-0.1505,0.3253,9.8331,-5.2990,0.3406,5.6537
473.3931,0.9676,1.2353,-6.6188,-5.9838,0.0000,-0.0000,111.3436,-19.4165,0.0000,1500,1500,0.0000,-0.2556,0.2882,10.2017,-5.1342,0.7183,5.2615,-0.1744,0.2917,9.7565,-6.8334,0.7376,5.3102
473.4115,0.8664,1.2375,-6.5264,-6.5640,0.0000,-0.0000,99.6955,-17.3366,0.0000,1500,1500,0.0000,-0.1838,0.2547,9.7946,-6.0045,0.1458,4.9867,-0.1217,0.1672,9.8762,-7.1235,0.8292,4.9972
473.4299,0.7108,1.2698,-6.4396,-7.1632,0.0000,-0.0000,68.1639,-14.2241,0.0000,1500,1500,0.0000,-0.2915,0.0344,10.2376,-6.5770,0.4893,4.7806,-0.1672,0.1098,10.0630,-7.7494,1.5010,4.6995
473.4483,0.6210,1.2919,-6.3586,-5.5602,0.0000,-0.0000,59.5446,-12.4255,0.0000,1500,1500,0.0000,-0.2868,0.1757,9.8473,-5.5235,-0.1061,4.3455,-0.2343,-0.0267,10.1252,-5.5968,0.9208,4.4170
473.4666,0.5191,1.3148,-6.2815,-3.9037,0.0000,-0.0000,49.7760,-10.3870,0.0000,1500,1500,0.0000,-0.2652,-0.0446,9.9862,-4.1266,0.1076,4.2386,-0.1672,-0.0770,9.9648,-3.6807,1.4399,4.2185
473.4850,0.4669,1.2920,-6.2077,-0.8121,0.0000,0.0000,44.7748,-9.3434,0.0000,1500,1500,0.0000,-0.0521,-0.0925,9.7994,-1.0961,0.7335,3.9790,0.0147,-0.2302,9.7469,-0.5281,0.9055,4.1193
473.5034,0.4777,1.3068,-6.1328,1.3597,0.0000,0.0000,45.8093,-9.5592,0.0000,1500,1500,0.0000,-0.2125,0.0033,9.8713,1.1177,0.8175,4.0706,-0.3276,0.0188,9.8260,1.6017,1.0200,4.1117
473.5217,0.5061,1.3019,-6.0609,3.4398,0.0000,0.0000,48.5340,-10.1278,0.0000,1500,1500,0.0000,-0.1168,-0.0901,9.9335,3.4230,0.8862,3.9638,-0.2534,-0.0458,9.7876,3.4567,1.0964,3.9437
473.5401,0.5469,1.3215,-5.9936,3.7986,0.0000,0.0000,52.4396,-10.9428,0.0000,1500,1500,0.0000,-0.2437,-0.0518,9.7731,4.2932,0.8481,3.8111,-0.2271,-0.0147,9.5363,3.3040,0.8521,3.5926
473.5585,0.6333,1.3442,-5.9291,6.0925,0.0000,0.0000,60.7235,-12.6715,0.0000,1500,1500,0.0000,-0.3107,-0.0350,9.7180,6.0337,0.0084,3.4905,-0.4210,0.0068,9.6512,6.1513,0.3865,3.5621
473.5769,0.7576,1.4175,-5.8682,8.6231,0.0000,0.0000,72.6506,-15.1603,0.0000,1500,1500,0.0000,-0.5573,-0.0637,9.5935,8.2169,0.0771,3.4371,-0.4976,0.0619,9.5889,9.0292,0.0887,3.2720
473.5953,0.9343,1.4900,-5.8084,10.2452,0.0542,1.1293,104.2559,-18.6952,0.0000,1500,1500,0.0000,-0.5741,0.0632,9.8737,9.8505,0.0923,3.1394,-0.5623,0.1146,9.6512,10.6399,0.2414,3.3560
473.6137,1.1722,1.5581,-5.7535,12.3063,2.5062,40.3952,18.5517,-23.4567,0.3550,1500,1499,0.0210,-0.5405,0.2068,9.7516,12.4612,0.1458,3.0096,-0.3851,0.2295,9.5363,12.1513,0.6613,2.9056
473.6321,1.4115,1.6253,-5.7024,11.4093,5.3599,53.0037,9.7735,-28.2564,14.8892,1507,1492,0.8829,-0.5358,0.3289,9.6965,11.7436,0.2679,2.7271,-0.4665,0.3396,9.4213,11.0750,0.7223,2.7071
473.6506,1.6159,1.6554,-5.6542,9.4246,6.1859,31.0475,96.5235,-32.3599,43.2065,1521,1478,1.0000,-0.3993,0.3816,9.6917,10.0871,0.1152,2.6279,-0.3300,0.3803,9.5339,8.7620,0.3712,2.5010
473.6690,1.7728,1.6931,-5.6097,6.7948,6.2772,4.9583,189.7107,-35.5148,70.8764,1535,1464,1.0000,-0.4472,0.4247,9.8497,7.3696,0.0313,2.3913,-0.3588,0.4881,9.6775,6.2200,0.4323,2.3331
473.6873,1.8817,1.7032,-5.5635,4.3826,5.9929,-15.4886,261.1389,-37.7134,91.9740,1545,1454,1.0000,-0.3179,0.4415,9.8856,5.1024,0.1839,2.3836,-0.3923,0.4402,9.4836,3.6628,0.4170,2.5163
473.7057,1.9750,1.6798,-5.5204,2.1803,4.8935,-28.0774,308.1267,-39.5984,73.4289,1536,1463,0.6922,-0.1024,0.5612,9.6294,2.5223,0.6877,2.2157,-0.2869,0.3827,9.5817,1.8384,1.1574,2.2415
473.7241,1.9952,1.5954,-5.4778,-0.9762,2.1450,-25.0324,301.6768,-40.0215,51.8613,1525,1474,0.4964,0.2184,0.5109,9.6630,-0.4243,1.3824,2.2615,0.0770,0.3827,9.6105,-1.5281,1.4323,2.1575
473.7426,1.9477,1.5350,-5.4364,-4.3655,0.0192,-0.4374,225.3795,-39.0914,38.0859,1519,1480,0.4608,0.0867,0.4917,9.6749,-3.9358,1.1992,1.9180,0.0459,0.3396,9.7829,-4.7952,0.8674,2.3331
473.7610,1.8139,1.4967,-5.3978,-6.9266,0.0000,-0.0000,208.7304,-36.4348,27.7570,1513,1486,0.3621,-0.0665,0.2978,9.7875,-7.2106,0.5274,1.8264,-0.1146,0.2175,9.7972,-6.6426,0.0658,2.3025
473.7794,1.5569,1.4349,-5.3598,-11.7510,0.0000,-0.0000,179.1499,-31.3091,12.4666,1506,1493,0.1894,0.0556,0.1206,9.6630,-11.1190,-0.4955,1.7653,-0.0523,0.0906,9.8499,-12.3830,0.9590,2.3712
473.7978,1.2561,1.3383,-5.3214,-14.9456,0.0000,-0.0000,144.5414,-25.3065,2.3906,1501,1498,0.0450,0.0556,0.1446,9.6414,-14.7144,-1.5184,1.9180,0.3092,0.1050,9.5123,-15.1769,-1.6746,2.3331
473.8164,0.9111,1.2251,-5.2837,-16.6060,-2.7310,-66.5106,246.9948,-18.4158,0.0000,1500,1500,0.0000,0.1969,0.0416,9.8904,-16.3098,-1.3199,1.8569,0.2230,0.0212,9.8834,-16.9021,-0.9647,2.2644
473.8348,0.5588,1.1021,-5.2459,-16.5640,-6.4543,-96.9134,286.1716,-11.1807,85.7184,1542,1457,1.0000,0.3070,-0.0637,9.7228,-16.4548,-0.7245,1.8187,0.1919,-0.2134,9.8260,-16.6731,-0.5448,2.3178
473.8532,0.1923,1.0238,-5.1832,-16.5563,-7.9696,-82.3931,216.1796,-3.8472,62.4539,1531,1468,1.0000,0.1250,-0.1954,9.7707,-16.5388,-0.7016,2.1012,-0.1289,-0.2900,9.5889,-16.5739,-0.5830,4.5621
473.8716,-0.2072,0.9325,-5.1434,-16.1289,-9.1935,-66.4330,139.5724,4.1457,37.0074,1518,1481,1.0000,0.3046,-0.4636,10.2376,-15.6686,-0.2741,2.0859,-0.1122,-0.3044,9.5195,-16.5891,0.9208,2.3483
473.8902,-0.5972,0.9413,-5.0977,-14.1670,-9.9395,-40.1497,46.9129,11.9498,7.1607,1503,1496,1.0000,-0.3490,-0.5928,9.3757,-13.1342,-1.6558,2.5287,0.0746,-0.3762,10.1971,-15.1998,-2.0029,2.5926
473.9086,-0.9271,0.8511,-5.0500,-13.9151,-10.5359,-32.4286,-13.2903,18.5520,-12.9973,1493,1506,1.0000,0.1107,-0.4803,10.4339,-14.2793,-1.5794,2.3913,0.3092,-0.5271,9.2705,-13.5510,-1.9800,2.8216
473.9269,-1.2006,0.7553,-5.0026,-12.5029,-10.8309,-16.0573,-91.9067,24.0239,-37.7458,1481,1518,1.0000,0.2591,-0.3774,10.1777,-12.3174,-1.5260,2.2157,-0.0068,-0.4074,10.3335,-12.6884,-0.0410,2.8903
473.9454,-1.3754,0.7396,-4.9544,-10.0716,-10.7170,6.1755,-176.0487,27.5332,-63.0602,1468,1531,1.0000,-0.0425,-0.1523,9.3805,-10.5083,-0.4191,2.3760,-0.1265,-0.2446,10.0199,-9.6349,0.4628,2.7987
473.9638,-1.5060,0.7773,-4.9058,-7.8846,-10.2922,23.1176,-239.8718,30.1605,-82.2444,1458,1541,1.0000,-0.2748,-0.1810,10.0724,-8.1037,0.2908,2.2615,0.0123,-0.0363,9.7493,-7.6655,0.4933,2.9743
473.9822,-1.5394,0.7683,-4.8608,-4.5907,-9.4369,46.4735,-310.9765,30.8433,-102.4951,1448,1551,1.0000,0.0604,-0.0278,10.0173,-4.9968,1.3900,2.3073,-0.2367,0.0451,9.7757,-4.1845,1.8139,2.5697
474.0005,-1.5420,0.7543,-4.8140,-3.6861,-8.5743,46.9287,-312.5887,30.9111,-102.9804,1448,1551,1.0000,0.0891,0.0344,9.8521,-3.8900,1.8023,2.5058,-0.1505,0.0930,9.8690,-3.4823,1.5926,2.5850
474.0189,-1.5253,0.7807,-4.7645,-3.2014,-7.7684,43.8757,-301.8742,30.5923,-99.8209,1450,1549,1.0000,-0.1144,0.0871,9.9862,-3.4548,3.0160,2.3073,-0.1792,-0.0698,9.6392,-2.9479,0.3712,2.9819
474.0373,-1.4593,0.7906,-4.7231,-2.4189,-6.9660,43.6646,-293.6737,29.2873,-96.8723,1451,1548,1.0000,-0.1694,0.2499,9.7420,-2.5465,0.2374,2.2233,0.0722,0.1529,9.5650,-2.2914,0.0048,2.1346
474.0557,-1.3499,0.8144,-4.6819,-0.7739,-6.0371,50.5346,-300.8741,27.1134,-97.8014,1451,1548,1.0000,-0.2341,0.3194,9.6438,-1.1419,-0.1214,2.1852,-0.1193,0.0882,9.5578,-0.4059,0.2261,2.1269
474.0740,-1.2390,0.8387,-4.6429,1.6192,-3.3732,43.1105,-266.7273,24.9070,-3.7094,1498,1501,0.0426,-0.2508,0.1422,9.8114,1.4383,0.1610,2.0706,-0.3564,0.1744,9.9074,1.8002,-0.2166,2.0430
474.0947,-1.1060,0.8550,-4.6001,3.1612,-0.4832,7.6577,-149.3261,22.2594,-0.4307,1499,1500,0.0081,-0.2365,0.0656,9.7755,3.4688,-0.1977,2.2004,0.1751,0.1481,9.4501,2.8536,-0.2853,1.8674
474.1163,-0.9610,1.0056,-4.5496,3.2986,0.0000,0.0000,-110.5866,19.3689,-0.0000,1500,1500,0.0000,-0.7177,0.1111,9.7635,3.9574,-0.1367,2.1928,-0.2750,-0.0626,9.4644,2.6399,0.7452,2.3636
474.1348,-0.8723,1.0074,-4.5083,2.5353,0.0000,0.0000,-100.3695,17.4538,-0.0000,1500,1500,0.0000,-0.1168,0.0392,9.8521,3.6826,0.3671,2.1775,-0.2223,-0.0578,9.4022,1.3880,0.9513,2.2262
474.1532,-0.7846,1.0181,-4.4712,1.5544,0.0000,0.0000,-75.2389,15.7004,-0.0000,1500,1500,0.0000,-0.1934,0.1254,9.6294,2.2474,0.1152,1.8035,-0.3516,0.1409,9.5722,0.8613,0.3177,2.0811
474.1716,-0.7201,1.0366,-4.4343,0.0620,0.0000,0.0000,-69.0541,14.4098,-0.0000,1500,1500,0.0000,-0.2508,0.1589,10.1681,0.4154,0.0389,2.0401,-0.0834,0.4905,9.3016,-0.2914,0.3712,1.8674
474.1901,-0.6425,1.0329,-4.4018,0.7261,0.0000,0.0000,-61.6064,12.8557,-0.0000,1500,1500,0.0000,-0.1287,0.1781,9.9766,1.3314,0.3061,1.7577,-0.3444,0.2965,9.6057,0.1208,0.3330,1.6537
474.2086,-0.5612,1.0244,-4.3675,0.9895,0.0000,0.0000,-53.8187,11.2306,-0.0000,1500,1500,0.0000,-0.1503,0.1733,9.4092,0.9650,-0.4955,1.8111,-0.4042,0.1074,9.5961,1.0139,-0.1479,1.7758
474.2271,-0.5005,1.0627,-4.3322,0.7605,0.0000,0.0000,-47.9941,10.0152,-0.0000,1500,1500,0.0000,-0.3634,0.1254,9.8784,1.1100,-0.3962,1.8340,-0.1744,-0.0410,9.6224,0.4109,0.1880,1.8903
474.2455,-0.4607,1.0373,-4.2814,0.0582,0.0000,0.0000,-44.1753,9.2183,-0.0000,1500,1500,0.0000,-0.0761,0.0943,9.8258,0.4001,-0.2359,3.5897,-0.0308,0.0643,9.7781,-0.2838,-0.0792,2.0353
474.2639,-0.4312,1.0227,-4.2436,-0.1479,0.0000,0.0000,-41.3513,8.6290,-0.0000,1500,1500,0.0000,-0.1168,0.0704,9.7420,0.0871,-0.1519,1.8951,-0.1337,0.0547,9.7446,-0.3830,-0.0792,2.1193
474.2823,-0.4236,1.0327,-4.2084,-1.3311,0.0000,-0.0000,-40.6206,8.4765,-0.0000,1500,1500,0.0000,-0.1934,0.0775,9.7468,-0.9205,-0.0451,1.8264,-0.1193,0.0811,9.7709,-1.7418,0.5849,1.9208
474.3007,-0.4330,1.0076,-4.1745,-2.7243,0.0000,-0.0000,-41.5201,8.6642,-0.0000,1500,1500,0.0000,-0.0066,0.1206,9.9335,-2.1724,0.1610,1.6050,0.0866,0.2151,9.8834,-3.2761,0.9819,1.9590
474.3190,-0.4634,0.9486,-4.1370,-3.2739,0.0000,-0.0000,-44.4363,9.2727,-0.0000,1500,1500,0.0000,0.1203,0.0632,9.8880,-3.0732,0.4511,1.8645,-0.0451,0.1146,9.7661,-3.4746,-0.0945,2.1346
474.3374,-0.5135,0.9080,-4.0953,-5.1250,0.0000,-0.0000,-49.2404,10.2752,-0.0000,1500,1500,0.0000,-0.0258,0.1302,10.1705,-4.7907,-0.6023,2.0783,0.0339,0.1960,9.7900,-5.4594,-0.6059,2.3254
474.3558,-0.5659,0.8647,-4.0508,-5.9380,0.0000,-0.0000,-54.2615,11.3230,-0.0000,1500,1500,0.0000,-0.0042,0.1829,9.9814,-5.5617,-0.6634,2.2157,0.0818,0.0834,9.8858,-6.3143,-0.5372,2.4781
474.3742,-0.6422,0.7687,-4.0074,-7.6327,-0.0292,-0.3953,-60.6285,12.8496,-0.0000,1500,1500,0.0000,0.2088,0.2044,9.7516,-7.2411,-1.3581,2.2157,0.3116,0.0787,9.7182,-8.0242,-0.8044,2.3483
474.3926,-0.8141,0.6737,-3.9813,-9.3311,-1.2359,-15.1432,-50.0700,16.2909,-0.0000,1500,1500,0.0000,0.2424,-0.1068,10.0700,-8.4777,-1.3733,2.0935,0.2135,0.0188,10.0414,-10.1845,-0.5219,0.8750
474.4110,-0.9917,0.6047,-3.9149,-10.4304,-3.8348,-39.2468,-1.0782,19.8430,-1.9342,1499,1500,0.1892,0.2256,-0.0733,10.2831,-9.9739,-0.7168,2.2997,0.2374,-0.0650,10.1683,-10.8868,0.6307,4.5621
474.4294,-1.1950,0.5419,-3.8651,-11.1479,-5.9567,-49.7295,5.7153,23.9116,-10.3491,1494,1505,0.9994,0.2160,-0.1643,10.0891,-10.9129,-0.2283,2.3684,0.2973,-0.2182,9.8427,-11.3830,0.5468,2.9514
474.4478,-1.4091,0.5093,-3.8154,-10.6518,-6.6636,-38.2606,-51.9526,28.2078,-28.6506,1485,1514,1.0000,0.1658,-0.2984,10.1250,-10.2487,0.0160,2.5974,0.2230,-0.1823,9.6703,-11.0548,2.0048,2.8369
474.4662,-1.5982,0.5120,-3.7616,-9.6212,-7.1073,-24.1067,-114.4774,32.0061,-48.0567,1475,1524,1.0000,0.0077,-0.3031,10.0053,-9.5312,0.4435,2.9180,0.0339,-0.3643,9.5506,-9.7113,1.7605,2.9972
474.4846,-1.7432,0.4700,-3.7041,-7.9304,-7.2307,-6.7173,-181.2403,34.9229,-68.2087,1465,1534,1.0000,0.1274,-0.2696,9.9670,-7.5923,-0.3275,2.9561,0.5127,-0.4624,10.1923,-8.2685,0.6078,3.2644
474.5030,-1.9162,0.4161,-3.6425,-6.4456,-7.1130,6.4068,-238.9500,38.4029,-86.1075,1456,1543,1.0000,0.2232,-0.5761,10.1274,-6.5923,-0.0451,3.1775,0.1871,-0.4816,9.6703,-6.2990,0.7834,3.5621
474.5214,-2.0457,0.4203,-3.5801,-4.2357,-6.6814,23.4223,-302.8505,41.0123,-105.3043,1447,1552,1.0000,0.0006,-0.5857,10.0221,-4.3327,0.2603,3.3531,0.0076,-0.4289,9.8188,-4.1387,1.5239,3.5086
474.5399,-2.1278,0.3978,-3.5126,-0.9647,-5.7660,45.9398,-377.1582,42.6773,-124.7473,1437,1562,0.9827,0.1394,-0.6479,9.6534,-1.5694,0.8099,3.5287,0.1105,-0.5007,9.6967,-0.3601,1.4017,3.8903
474.5584,-2.1150,0.3896,-3.4422,1.7872,-2.7657,36.4974,-348.4817,42.4408,-69.5955,1465,1534,0.5858,0.0843,-0.4707,9.7707,-0.0045,0.9320,3.8035,0.1632,-0.4193,9.7972,3.5788,1.4704,3.9208
474.5768,-1.9865,0.4515,-3.3679,7.5925,0.0000,0.0000,-228.5873,39.8915,-41.1256,1479,1520,0.4899,-0.3346,-0.4252,9.7970,6.7131,0.5809,4.0706,0.2566,-0.2805,9.7661,8.4719,-0.0792,4.0277
474.5952,-1.7823,0.4734,-3.2867,12.1116,0.0000,0.0000,-205.0881,35.8251,-25.5619,1487,1512,0.3393,-0.3107,-0.4372,9.9527,12.0871,-0.1367,4.3073,0.3116,-0.3475,9.3375,12.1361,-2.7510,4.4399
474.6137,-1.5557,0.4495,-3.2064,15.7910,0.0000,0.0000,-179.0170,31.3093,-12.4138,1493,1506,0.1887,-0.0785,-0.6144,9.8162,16.1711,-1.6558,4.5363,0.2446,-0.6420,9.4118,15.4109,-0.9571,4.1117
474.6322,-1.2901,0.4721,-3.1194,18.2032,1.7520,53.9870,-303.9289,26.0088,-5.5919,1497,1502,0.0570,-0.2221,-0.5785,9.5241,18.6749,-1.5947,4.9409,0.1584,-0.5127,9.5339,17.7315,0.3941,4.5315
474.6506,-0.9998,0.5132,-3.0294,19.7986,6.6347,126.1185,-398.5522,20.2128,-121.7010,1439,1560,1.0000,-0.2006,-0.5761,9.9311,20.2169,1.0389,5.2539,0.1225,-0.5366,9.3232,19.3803,0.6918,4.6460
474.6690,-0.5949,0.4760,-2.9346,23.3979,9.1492,136.6386,-384.9802,11.9044,-113.7466,1443,1556,1.0000,0.0963,-0.2864,9.5696,23.8887,-0.3504,5.3455,0.2111,-0.2254,9.4189,22.9071,0.5544,5.0201
474.6874,-0.1473,0.4242,-2.8539,24.6536,11.4749,126.3081,-317.2665,2.9480,-90.3086,1454,1545,1.0000,0.0915,-0.1355,9.9407,25.2093,-0.5947,3.6737,0.6827,-0.0506,9.4549,24.0979,-0.7433,5.0277
474.7058,0.2507,0.7439,-2.7564,24.3253,13.4024,104.8317,-273.0713,-5.0158,-73.9521,1463,1536,1.0000,-1.4934,-0.2672,10.0867,25.8887,2.9626,5.6126,-0.8448,0.1840,8.8108,22.7620,0.4170,4.9743
474.7242,0.6460,0.9013,-2.6495,23.9093,14.9785,85.6919,-172.4527,-12.9274,-41.8231,1479,1520,1.0000,-0.8422,-0.1619,9.6965,25.3619,1.0313,5.8798,-0.3564,-0.0075,9.0742,22.4567,-0.3235,5.7453
474.7426,1.0894,0.8469,-2.5382,22.3139,16.0788,59.7356,-46.6804,-21.7992,-2.1709,1498,1501,1.0000,0.0580,0.2619,9.7970,23.3467,-0.8542,6.0325,0.1105,0.1912,9.2968,21.2811,0.0811,6.0277
474.7611,1.4751,0.8262,-2.4203,20.3482,16.7192,34.7502,69.6608,-29.5280,34.2690,1517,1482,1.0000,0.0053,0.2475,10.2783,21.6444,-0.4878,6.6890,-0.0020,0.4450,9.2466,19.0521,1.8139,6.1269
474.7795,1.7546,0.8922,-2.2975,17.6498,16.8588,7.5868,180.0522,-35.1353,67.9823,1533,1466,1.0000,-0.4950,0.0488,9.3493,20.0795,-0.4573,6.8111,-0.7083,0.3971,9.3208,15.2200,-0.8349,6.6384
474.7979,1.9635,1.0924,-2.1742,11.8940,16.1141,-40.4714,342.5015,-39.3335,115.5672,1557,1442,1.0000,-1.0864,0.2547,9.7013,13.2703,-0.3733,6.6890,-1.0100,0.2702,8.9305,10.5177,0.5239,6.6842
474.8162,2.0371,1.1681,-2.0443,8.5009,14.9721,-62.1154,413.3070,-40.8261,136.1390,1568,1431,1.0000,-0.5812,-0.0494,10.0820,9.9726,0.0160,7.0248,-0.7299,0.0308,9.1364,7.0292,-0.1784,7.2567
474.8346,2.0195,1.0801,-1.9088,2.8597,13.1552,-98.8631,517.1094,-40.4934,165.0373,1582,1417,1.0000,0.0796,0.0081,9.6893,2.5681,-0.3123,7.1394,-0.0140,-0.0506,9.1843,3.1513,-2.0716,7.7987
474.8530,1.8858,0.9089,-1.7702,-2.3235,10.8334,-126.2218,580.5198,-37.8387,181.4649,1590,1409,1.0000,0.3812,-0.0901,10.1227,-1.8136,-1.5489,7.4829,-0.0475,-0.0961,9.4261,-2.8334,-3.7433,7.9361
474.8714,1.6924,0.8279,-1.6321,-5.7968,8.3389,-135.6325,585.3682,-33.9876,180.8969,1590,1409,1.0000,-0.0904,-0.0901,9.9742,-5.4396,-3.1672,7.4829,-0.2917,-0.1919,9.6296,-6.1540,-3.7281,7.9056
474.8898,1.3950,0.7990,-1.4973,-9.3960,5.4971,-139.9247,563.5047,-28.0531,158.9449,1579,1420,0.9251,-0.2915,-0.2984,9.8521,-8.4243,-3.1596,7.3302,-0.2438,-0.3714,9.7876,-10.3677,-3.0639,7.6918
474.9082,1.0376,0.7471,-1.3620,-12.1441,0.0000,-0.0013,119.3942,-20.9145,0.0458,1500,1499,0.0010,-0.0952,-0.4157,10.4219,-12.0732,-1.4726,7.1852,0.1751,-0.5941,9.4572,-12.2151,-2.6975,7.8445
474.9266,0.5983,0.5899,-1.2225,-15.8884,0.0000,-0.0000,57.3708,-12.1353,0.0000,1500,1500,0.0000,0.4195,-0.5354,10.1849,-15.2564,-3.0222,7.5363,0.0554,-0.4505,10.0031,-16.5204,-1.6670,7.8445
474.9450,0.2233,0.6017,-1.0802,-15.2853,0.0000,-0.0000,21.4116,-4.4681,0.0000,1500,1500,0.0000,-0.2748,-0.3486,10.1203,-16.1419,-1.2817,7.4752,0.0578,-0.2781,10.2880,-14.4288,-1.0945,8.0811
474.9635,-0.0652,0.6276,-0.9402,-15.2166,-1.2665,-32.8031,72.4726,1.3052,0.0000,1500,1500,0.0000,-0.3155,-0.0063,10.1538,-15.3327,-0.0985,7.4447,-0.0882,-0.0291,9.7493,-15.1006,-1.7281,7.7758
474.9819,-0.2882,0.7206,-0.8173,-12.0258,-4.5563,-55.5636,105.7176,5.7667,14.1107,1507,1492,0.5281,-0.6626,-0.0254,9.9215,-12.5923,-1.3962,5.6279,-0.3803,-0.0530,9.8714,-11.4594,-1.1861,7.7758
475.0103,-0.3522,0.7146,-0.7400,-6.9342,-5.1921,-22.9048,21.1995,7.0474,1.9816,1500,1499,0.8215,-0.1838,-0.0063,10.2687,-7.2869,-0.8619,7.3531,-0.4785,-0.1201,10.1133,-6.5815,-1.8120,8.0124
475.0299,-0.4712,0.6807,-0.5888,-6.1327,-5.3941,-4.3529,-34.7405,9.4295,-12.9127,1493,1506,0.8941,-0.1623,-0.0589,9.6366,-6.7526,-2.7321,7.5668,-0.1672,-0.3260,10.5514,-5.5128,-1.8502,7.8903
475.0485,-0.5661,0.6765,-0.4472,-5.8082,-5.4514,-1.3824,-61.1624,11.3282,-20.7821,1489,1510,0.9119,-0.1862,-0.0278,10.1586,-5.6457,-1.0680,7.5363,0.0459,-0.0841,9.9528,-5.9708,-0.8884,7.6231
475.0670,-0.6401,0.6976,-0.3106,-5.6098,-5.4365,0.3663,-74.7157,12.8093,-24.7949,1487,1512,0.9074,-0.1718,0.0392,10.2088,-6.4930,0.7259,7.3378,0.0004,0.1002,9.7278,-4.7265,0.2719,7.4170
475.0855,-0.6927,0.6752,-0.1776,-5.2205,-5.2946,3.3081,-89.2358,13.8610,-27.4521,1486,1513,0.8601,0.0149,0.0871,9.9024,-5.6686,0.0771,7.1241,-0.0715,0.2271,10.0893,-4.7723,0.4552,7.2567
475.1039,-0.6918,0.6588,-0.0479,-3.4266,-4.4619,14.9068,-122.5390,13.8434,-19.8303,1490,1509,0.4809,0.0269,0.1805,10.0460,-4.1037,-0.2054,6.9561,0.1728,0.2032,10.1635,-2.7494,1.7910,7.0735
475.1223,-0.6724,0.6494,0.0863,-1.6098,-2.8571,18.0470,-107.7901,13.4548,-0.0000,1500,1500,0.0000,0.0676,0.1063,10.1203,-1.6762,1.0160,7.3531,0.0722,0.1122,10.0127,-1.5433,2.0582,7.1956
475.1407,-0.6106,0.6760,0.2168,0.5200,-0.8963,9.7473,-81.9429,12.2178,-0.0000,1500,1500,0.0000,-0.1551,0.1254,9.8832,-0.0808,0.9397,7.1012,-0.1696,0.2247,9.4022,1.1208,0.7758,7.0506
475.1691,-0.5809,0.7163,0.2833,-0.4991,-0.1773,2.6568,-62.0782,11.6236,-0.0000,1500,1500,0.0000,-0.4232,0.1877,9.8593,-0.5617,-0.4039,6.4981,-0.5694,0.1050,9.9241,-0.4365,1.2719,6.6766
475.1876,-0.5407,0.8003,0.4009,-0.9113,-0.0015,0.0101,-51.8685,10.8186,-0.0000,1500,1500,0.0000,-0.4567,0.1565,10.0125,-0.5159,0.7106,6.3226,-0.5240,0.1960,9.8714,-1.3067,0.6384,6.3407
475.2060,-0.4952,0.8857,0.5155,-1.5487,0.0000,0.0000,-47.4840,9.9087,-0.0000,1500,1500,0.0000,-0.6962,0.2475,9.9000,-1.7678,-2.7932,6.0401,-0.6102,0.2678,9.5817,-1.3296,-0.7128,6.2567
475.2244,-0.4695,0.9657,0.6307,-1.4685,0.0000,0.0000,-45.0226,9.3951,-0.0000,1500,1500,0.0000,-0.5429,0.1518,9.9048,-1.1266,-0.6405,6.1317,-0.3324,0.1050,9.6320,-1.8105,0.4017,6.3102
475.2428,-0.4425,0.9831,0.7447,-1.5602,0.0000,0.0000,-42.4300,8.8541,-0.0000,1500,1500,0.0000,-0.1670,0.1709,9.8569,-1.6381,0.3671,6.1165,-0.3276,0.2079,9.7038,-1.4823,1.4399,6.2185
475.2612,-0.4194,1.0365,0.8587,-1.6098,0.0000,0.0000,-40.2196,8.3928,-0.0000,1500,1500,0.0000,-0.3753,0.1565,9.6223,-1.5312,0.1152,6.1623,-0.3564,0.1601,9.8307,-1.6884,0.6689,6.1422
475.2797,-0.3988,1.0674,0.9714,-1.1823,0.0000,0.0000,-38.2379,7.9793,-0.0000,1500,1500,0.0000,-0.1934,0.1087,10.0317,-0.0732,0.4206,5.8111,-0.0451,0.0284,9.8523,-2.2914,2.9132,6.3941
475.2981,-0.4394,1.0363,1.0832,-2.8082,0.0000,-0.0000,-42.1303,8.7915,-0.0000,1500,1500,0.0000,0.0580,-0.0302,10.0006,-2.6381,0.9244,5.9485,0.0961,0.0595,9.8164,-2.9784,1.2567,6.2185
475.3165,-0.4926,0.9805,1.1950,-3.5182,0.0000,-0.0000,-47.2370,9.8572,-0.0000,1500,1500,0.0000,0.1250,-0.0302,9.7468,-3.4090,0.2297,5.9867,0.0842,-0.0961,9.7062,-3.6273,0.7223,6.1575
475.3350,-0.5580,1.0104,1.3071,-4.1212,0.0000,-0.0000,-53.5105,11.1663,-0.0000,1500,1500,0.0000,-0.2413,-0.0470,9.8593,-3.7144,0.3137,6.0554,-0.1505,-0.0387,9.7996,-4.5281,1.2643,6.0506
475.3535,-0.6345,1.0734,1.4208,-5.3350,-0.0084,-0.0585,-60.7014,12.6961,-0.0000,1500,1500,0.0000,-0.3035,-0.0087,9.8761,-4.9052,1.5427,6.1852,-0.3540,0.0691,9.7733,-5.7647,2.1956,6.1269
475.3719,-0.6821,1.1141,1.5368,-5.2090,-0.1728,-0.8737,-63.3058,13.6479,-0.0000,1500,1500,0.0000,-0.2125,0.0919,9.5983,-3.9892,1.5427,6.2768,-0.3420,0.1385,9.7182,-6.4288,1.9208,6.2567
475.3904,-0.7307,1.1796,1.6518,-6.0334,-0.6710,-3.7696,-61.0231,14.6219,-0.0000,1500,1500,0.0000,-0.3394,0.1589,9.6366,-5.8671,1.3290,6.0630,-0.2798,0.1481,9.6224,-6.1998,2.1193,6.3712
475.4088,-0.8066,1.2779,1.7632,-7.1479,-1.7338,-10.9710,-61.2187,16.1402,-0.0000,1500,1500,0.0000,-0.4783,0.1182,9.8258,-6.5388,1.7565,5.9332,-0.4019,0.0882,9.4860,-7.7571,2.4323,6.1193
475.4274,-0.8931,1.3947,1.8753,-7.6632,-3.1349,-17.6564,-51.9231,17.8718,-0.1381,1499,1500,0.0059,-0.6650,0.0919,9.6342,-5.9892,0.8862,5.8111,-0.6939,0.0236,9.5530,-9.3372,0.7758,6.1956
475.4459,-1.0484,1.5215,1.9875,-9.6594,-5.1796,-36.8251,-14.5807,20.9782,-11.8984,1494,1505,0.8165,-0.7584,-0.0613,9.7444,-9.5006,0.2832,5.9790,-0.7035,0.0571,9.6440,-9.8181,1.1116,6.1651
475.4643,-1.1846,1.6669,2.0951,-10.5640,-6.2902,-40.9808,-18.2834,23.7138,-16.9763,1491,1508,1.0000,-0.8015,0.0727,9.6989,-10.3174,0.8023,5.6279,-0.8065,0.1816,9.4740,-10.8105,2.0887,6.0201
475.4826,-1.2957,1.8175,2.2015,-10.6174,-6.9392,-35.3425,-47.3069,25.9489,-26.2204,1486,1513,1.0000,-0.8853,0.1709,9.5504,-10.5388,0.7030,5.5897,-0.9741,0.1026,9.3806,-10.6960,0.9055,5.8140
475.5010,-1.4149,1.9744,2.3070,-10.5029,-7.4738,-29.0520,-79.1445,28.3479,-36.3344,1481,1518,1.0000,-1.0218,0.1087,9.7132,-10.6839,-0.3199,5.4600,-0.8711,0.1242,9.6584,-10.3219,0.5315,5.8292
475.5194,-1.5258,2.0527,2.4126,-8.8846,-7.6854,-11.5179,-142.4014,30.5806,-55.1627,1472,1527,1.0000,-0.6602,-0.0158,9.8306,-8.8671,0.1381,5.5897,-0.6125,0.0188,9.8643,-8.9021,0.6994,5.7605
475.5378,-1.6126,2.0930,2.5127,-7.2205,-7.6157,3.7923,-196.4818,32.3326,-71.1812,1464,1535,1.0000,-0.5693,-0.0565,9.6510,-7.4777,-0.8466,5.2081,-0.7993,-0.2302,9.6895,-6.9632,-0.4303,5.5163
475.5562,-1.7005,2.1432,2.6119,-6.1365,-7.3938,12.0808,-230.4631,34.1069,-81.5831,1459,1540,1.0000,-0.6794,-0.1762,9.7516,-6.2411,-1.2283,5.2157,-0.6293,-0.1153,9.6703,-6.0319,-1.1555,5.4628
475.5746,-1.7606,2.0751,2.7054,-4.6174,-6.9773,22.5953,-267.6631,35.3269,-92.6091,1453,1546,1.0000,-0.1287,-0.1858,9.7731,-5.0579,-1.3886,5.0554,-0.2247,-0.2015,9.9098,-4.1769,-0.7281,4.9132
475.5930,-1.7733,2.0489,2.7945,-2.7548,-6.3440,34.4063,-303.1425,35.5990,-102.6794,1448,1551,1.0000,-0.2054,-0.1332,9.9551,-3.5083,-0.2894,4.7271,-0.6652,-0.1799,10.2042,-2.0013,0.6231,4.8216
475.6114,-1.7341,2.1061,2.8825,1.1269,-4.3543,50.7620,-345.7426,34.8335,-48.8194,1475,1524,0.4274,-0.5980,-0.2217,9.7899,0.1177,0.1381,4.6584,-0.4258,-0.2278,9.9385,2.1361,0.0887,4.8674
475.6298,-1.6321,2.0241,2.9665,4.9131,-0.5145,11.4838,-220.8810,32.8093,-18.5094,1490,1509,0.2365,0.0317,-0.2505,9.8617,4.0719,-0.1748,4.5974,0.0554,-0.1991,10.0606,5.7544,0.2185,4.4934
475.6483,-1.4495,2.0072,3.0473,8.4589,0.0000,0.0000,-166.7906,29.1709,-7.8950,1496,1503,0.1288,-0.1838,-0.1619,9.9120,7.4688,1.0542,4.3684,-0.4019,-0.1727,10.0271,9.4490,0.5926,4.3254
475.6667,-1.1952,2.0179,3.1254,12.0849,0.0000,0.0000,-137.5264,24.0965,-1.3502,1499,1500,0.0267,-0.3275,-0.1020,9.9287,10.7818,1.4816,4.1546,-0.5096,-0.1153,9.8164,13.3880,-0.3082,4.2415
475.6851,-0.9050,1.9438,3.1985,13.5238,0.0000,0.0000,-104.1378,18.3024,-0.0000,1500,1500,0.0000,-0.1287,-0.0182,10.0915,12.9039,-0.8161,3.9256,0.0099,-0.0075,9.9792,14.1437,-2.3311,3.8063
475.7045,-0.5744,1.8102,3.2705,14.6612,1.2045,28.4293,-123.3068,11.4931,-0.0000,1500,1500,0.0000,0.2232,0.0464,10.2663,14.3772,-0.7855,3.7653,0.3403,-0.0674,9.9912,14.9452,-0.1861,3.5010
475.7231,-0.2406,1.6196,3.3326,15.6918,5.7618,92.4050,-244.8388,4.8135,-69.6908,1465,1534,0.9821,0.5919,0.0847,9.9407,15.5146,0.1458,3.3913,0.5582,0.0906,9.9409,15.8689,0.2338,3.1727
475.7415,0.1276,1.4894,3.3936,17.3444,7.5498,93.9471,-213.2412,-2.5525,-58.4313,1470,1529,1.0000,0.3381,0.1829,9.8425,17.0032,-0.1825,3.3836,0.2949,0.2199,9.8978,17.6857,0.4323,3.1117
475.7600,0.4945,1.4008,3.4535,17.6727,9.0682,82.5013,-180.7031,-9.8948,-45.6495,1477,1522,1.0000,0.2639,0.2044,10.0796,18.0566,0.5427,3.4523,0.2135,0.4929,9.9672,17.2887,1.9895,2.9056
475.7784,0.8702,1.2928,3.5105,15.4437,10.0245,51.9658,-49.5336,-17.4118,-5.1635,1497,1502,1.0000,0.4435,0.5085,10.0365,15.9192,1.4282,3.0783,0.4002,0.6509,10.0821,14.9681,2.7834,2.8521
475.7968,1.1959,1.1960,3.5623,13.2299,10.5053,26.1066,62.4259,-23.9302,29.4443,1514,1485,1.0000,0.3764,0.5253,9.8952,13.7971,1.2679,2.7958,0.3619,0.4665,9.8714,12.6628,2.3330,2.5926
475.8152,1.4696,1.0788,3.6077,10.8101,10.5511,2.4785,161.9659,-29.4183,60.0596,1530,1469,1.0000,0.3764,0.5324,9.7539,11.7589,0.0618,2.3989,0.4050,0.5096,9.9145,9.8613,1.1116,2.3712
475.8336,1.6451,1.0096,3.6500,6.3750,9.9246,-34.0602,287.3893,-32.9442,96.9411,1548,1451,1.0000,0.2448,0.5229,10.1155,7.2245,0.4893,2.3455,0.1728,0.6078,10.0438,5.5254,2.1956,2.0430
475.8521,1.7767,0.9568,3.6878,3.2223,8.9193,-54.4083,361.1396,-35.5947,118.9164,1559,1440,1.0000,0.1179,0.6186,10.0484,3.8963,0.6725,1.8951,0.2135,0.6365,9.5770,2.5483,0.4704,2.0582
475.8705,1.8434,0.8928,3.7229,0.1460,7.6033,-71.5646,418.2255,-36.9473,135.5768,1567,1432,1.0000,0.0628,0.6019,9.9622,0.5986,-1.1367,1.6813,-0.1433,0.6844,9.8714,-0.3067,-0.4227,2.1575
475.8889,1.8206,0.8423,3.7534,-2.0067,6.1618,-78.3355,435.1018,-36.5094,140.0832,1570,1429,1.0000,0.1681,0.4031,10.4124,-1.9434,0.4435,1.4752,0.0195,0.3157,10.1085,-2.0700,1.5849,1.8216
475.9073,1.7331,0.8453,3.7833,-3.8388,2.7063,-47.3759,335.8739,-34.7775,33.9429,1516,1483,0.3046,-0.0066,0.2308,10.0628,-3.4167,2.3671,1.6279,0.4002,0.2079,9.3687,-4.2609,1.2872,1.5163
475.9257,1.5405,0.8523,3.8073,-7.2663,0.0000,-0.0000,177.2657,-30.9404,11.6951,1505,1494,0.1796,-0.0689,0.0297,9.9551,-7.8671,2.9473,1.4447,0.4146,0.0188,9.3375,-6.6655,-0.5983,1.1346
475.9443,1.3036,0.7547,3.8310,-8.8426,0.0000,-0.0000,149.9998,-26.2145,3.4232,1501,1498,0.0621,0.5321,-0.0877,9.7851,-7.5770,1.4740,1.1317,0.4648,-0.0841,9.9864,-10.1082,4.4246,1.4094
475.9627,1.0434,0.7202,3.8491,-10.3311,0.0000,-0.0000,120.0660,-21.0222,0.0615,1500,1499,0.0014,0.2807,-0.1116,9.3972,-9.5617,1.8404,0.9943,-0.2199,-0.0387,9.7374,-11.1006,4.5773,0.9285
475.9811,0.8178,0.7608,3.8599,-10.1327,0.0000,-0.0000,94.1016,-16.5176,0.0000,1500,1500,0.0000,-0.1718,-0.0015,9.4619,-10.3174,0.7946,0.5210,-0.3444,0.0427,9.4740,-9.9479,2.6155,0.6918
475.9996,0.5785,0.7823,3.8702,-7.1861,0.0000,-0.0000,55.4718,-11.5756,0.0000,1500,1500,0.0000,-0.0880,-0.3486,9.5648,-7.3938,1.4206,0.4218,0.1033,-0.2254,9.7661,-6.9784,2.0735,0.8979
476.0179,0.4057,0.6932,3.8807,-4.6479,-0.0066,-0.0323,38.9785,-8.1176,0.0000,1500,1500,0.0000,0.4004,-0.2840,9.4379,-5.5999,1.3900,0.4600,0.0578,-0.1871,9.3591,-3.6960,1.6460,0.8292
476.0367,0.3184,0.6944,3.8903,-1.5220,0.0000,0.0000,30.5354,-6.3720,0.0000,1500,1500,0.0000,-0.0378,-0.1810,9.3589,-2.1266,0.4435,0.4142,-0.3276,-0.1679,9.6368,-0.9174,1.6231,0.7300
476.0552,0.3341,0.7439,3.9025,1.1116,0.0000,0.0000,32.0339,-6.6847,0.0000,1500,1500,0.0000,-0.3155,0.0344,9.3374,0.9192,0.2755,0.4218,-0.1696,-0.0722,9.6296,1.3040,0.1803,1.0048
476.0736,0.3807,0.7792,3.9143,0.9971,0.0000,0.0000,36.5066,-7.6180,0.0000,1500,1500,0.0000,-0.2868,0.1829,9.3924,0.8581,-0.0374,0.5821,-0.0571,0.1385,9.2753,1.1361,-0.0334,0.6842
476.0921,0.4233,0.7616,3.9210,0.4131,0.0000,0.0000,40.5885,-8.4698,0.0000,1500,1500,0.0000,-0.0952,0.2188,9.6965,0.7436,-0.7016,0.3073,0.2589,0.2415,9.5363,0.0826,-0.0487,0.3865
476.1104,0.4959,0.6943,3.9288,2.1154,0.0000,0.0000,47.5516,-9.9228,0.0000,1500,1500,0.0000,0.1418,0.2188,9.4523,2.1940,-1.3275,0.3149,0.3092,0.2726,9.7278,2.0368,0.9971,0.5392
476.1289,0.5918,0.6083,3.9383,3.3177,0.0000,0.0000,56.7522,-11.8427,0.0000,1500,1500,0.0000,0.1394,0.2379,9.4619,3.1940,-1.7474,0.5210,0.0387,0.3181,9.2801,3.4414,-1.4151,0.4934
476.1473,0.7024,0.5817,3.9457,2.4780,0.0000,0.0000,67.3537,-14.0550,0.0000,1500,1500,0.0000,-0.0785,0.4055,10.1969,3.1329,-1.0374,0.4065,-0.1457,0.4857,9.3615,1.8231,-1.2395,0.3407
476.1657,0.8354,0.5538,3.9506,2.0124,0.0000,0.0000,96.1344,-16.7173,0.0000,1500,1500,0.0000,-0.0569,0.5372,9.4116,2.3085,-1.0756,0.1699,-0.1600,0.5790,9.5554,1.7162,-1.0410,0.3102
476.1842,0.9119,0.5192,3.9504,-1.0563,0.0000,-0.0000,104.9269,-18.2463,0.0000,1500,1500,0.0000,-0.0402,0.5803,9.7923,-0.4930,-1.2435,0.0325,0.0674,0.5192,9.3687,-1.6197,-1.1784,-0.1479
476.2026,0.9078,0.4650,3.9500,-4.0373,0.0000,-0.0000,104.4549,-18.1642,0.0000,1500,1500,0.0000,0.0580,0.4534,9.6534,-2.6228,-1.5565,-0.0362,0.0818,0.4713,9.8379,-5.4517,-0.7128,-0.0257
476.2210,0.8414,0.4333,3.9456,-6.4647,0.0000,-0.0000,96.8186,-16.8363,0.0000,1500,1500,0.0000,-0.0162,0.3912,9.6773,-6.0197,-1.1214,-0.4637,-0.0188,0.2726,9.5315,-6.9097,-0.7891,0.0659
476.2395,0.7191,0.4379,3.9439,-8.1136,0.0000,-0.0000,68.9576,-14.3897,0.0000,1500,1500,0.0000,-0.1766,0.2643,9.8354,-7.6228,-1.3657,-0.3110,-0.3492,0.3779,9.8882,-8.6044,-0.4380,0.2338
476.2580,0.5775,0.4409,3.9398,-8.4991,-0.0791,-1.2018,58.2579,-11.5551,0.0000,1500,1500,0.0000,-0.2197,0.1853,9.5217,-8.1495,-1.9229,-0.3416,-0.1050,0.1481,9.8140,-8.8487,-1.0868,-0.0181
476.2765,0.3953,0.3917,3.9595,-9.6403,-1.5553,-19.0380,83.6010,-7.9108,0.0000,1500,1500,0.0000,-0.0162,0.0680,9.9575,-8.8900,-2.1290,1.7119,0.2278,0.0116,9.5530,-10.3906,-1.5906,0.2033
476.2949,0.1391,0.3270,3.9563,-10.2624,-4.1053,-39.2315,107.4911,-2.7828,9.6741,1504,1495,0.3072,0.1586,-0.2577,9.8952,-9.8976,-1.3962,-0.4332,0.1201,0.0284,9.5889,-10.6273,-0.2013,0.2491
476.3133,-0.0889,0.3082,3.9584,-10.1060,-5.8555,-40.3480,88.3074,1.7795,23.6758,1511,1488,0.9933,-0.0138,-0.1762,9.7563,-9.7373,-1.1138,0.0325,-0.0355,-0.1991,9.6224,-10.4746,0.2796,0.2644
476.3317,-0.3204,0.3207,3.9629,-9.7166,-6.4573,-31.2484,44.2712,6.4115,9.1902,1504,1495,1.0000,-0.1575,-0.2624,9.7180,-9.5235,-0.9993,0.1623,-0.0786,-0.1632,9.6464,-9.9097,0.0887,0.4018
476.3501,-0.5198,0.3270,3.9689,-8.9991,-6.8385,-20.7317,-0.1007,10.4003,-5.2284,1497,1502,1.0000,-0.1216,-0.2170,9.8497,-8.8442,-0.4573,0.2081,-0.0691,-0.1464,9.5315,-9.1540,-0.3693,0.5086
476.3685,-0.6892,0.2876,3.9923,-7.7968,-6.9823,-7.7880,-56.8706,13.7900,-22.8188,1488,1511,1.0000,0.0939,-0.2050,9.7468,-7.9434,-1.2741,0.2920,0.2350,-0.1823,9.6584,-7.6502,0.8979,2.6231
476.3869,-0.8249,0.2271,4.0081,-5.6365,-6.7804,10.9813,-126.5492,16.5067,-43.6871,1478,1521,1.0000,0.0676,-0.2600,9.5911,-6.0503,-2.0145,0.6813,0.1584,-0.0985,9.6584,-5.2227,-1.7357,1.0582
476.4053,-0.9256,0.1511,4.0286,-3.2853,-6.2561,28.5135,-188.6227,18.5206,-62.0746,1468,1531,1.0000,0.1035,-0.3247,9.7132,-3.3098,-2.7016,0.8187,0.0171,-0.3643,9.6823,-3.2609,-2.2242,1.4399
476.4237,-1.0137,0.1097,4.0544,-1.4953,-5.1940,36.3595,-221.3592,20.2838,-59.3009,1470,1529,0.8222,-0.0402,-0.4396,9.7372,-1.6762,-2.9077,1.1546,-0.0619,-0.2374,9.9217,-1.3143,-1.8426,1.6537
476.4560,-0.9777,0.0521,4.0763,2.2528,-1.9089,36.8370,-218.5960,19.5743,-0.0000,1500,1500,0.0000,0.2376,-0.1355,9.6845,1.9650,-1.2206,1.3684,0.2613,-0.3236,9.9217,2.5406,-1.0639,1.8216
476.4744,-0.9244,-0.0334,4.1089,4.4131,-0.0030,0.0709,-106.5706,18.4966,-0.0000,1500,1500,0.0000,0.3094,-0.2960,9.8832,3.9497,-1.1519,1.6584,0.1799,-0.2517,9.9744,4.8765,-0.8120,1.8750
476.4928,-0.8094,-0.0013,4.1482,6.6765,0.0000,0.0000,-93.1389,16.1964,-0.0000,1500,1500,0.0000,-0.1431,-0.1954,10.0029,6.3314,-0.0832,2.0783,0.0195,-0.1584,10.0630,7.0216,0.2185,2.2109
476.5112,-0.6697,0.0110,4.1911,8.7872,0.0000,0.0000,-64.2209,13.4013,-0.0000,1500,1500,0.0000,-0.0952,-0.2385,9.9503,8.4154,-0.2741,2.1546,0.1464,-0.2350,9.7757,9.1590,-0.5677,2.5621
476.5296,-0.5047,-0.0396,4.2556,10.1689,0.0000,0.0000,-48.3939,10.0986,-0.0000,1500,1500,0.0000,0.1849,-0.2146,9.6821,10.2093,-0.6252,2.6661,0.2302,-0.2230,9.6871,10.1284,-0.4761,4.6155
476.5480,-0.3112,-0.0903,4.3092,10.0276,0.0000,0.0000,-29.8371,6.2263,-0.0000,1500,1500,0.0000,0.2663,-0.0470,9.9551,10.2627,-0.2665,2.8416,0.1081,-0.0410,9.8738,9.7926,0.7681,3.0201
476.5673,-0.0847,-0.0815,4.3708,9.2643,0.5812,7.8072,-26.8563,1.6942,-0.0000,1500,1500,0.0000,0.0125,0.1542,9.9886,9.6673,0.1916,3.2233,0.0171,0.1625,9.7446,8.8613,0.7071,3.1575
476.5868,0.1416,-0.0698,4.4345,9.1650,2.4158,22.0481,-39.3367,-2.8335,-0.0000,1500,1500,0.0000,-0.0354,0.1901,9.7132,9.3467,-0.2970,3.3073,0.0052,0.1289,9.8978,8.9834,0.4933,3.1956
476.6064,0.3372,-0.0563,4.5006,8.6803,4.2242,25.7262,-29.4109,-6.7469,-1.7679,1499,1500,0.3636,0.0149,0.1374,9.8377,8.8429,0.5503,3.3073,0.0961,-0.0458,9.7446,8.5177,1.0658,3.4628
476.6254,0.5220,-0.0840,4.5707,8.4627,5.4804,25.0607,-12.1068,-10.4456,1.6870,1500,1499,0.9204,0.2065,0.1613,9.8784,8.8429,0.8557,3.6355,0.3619,0.2032,9.8188,8.0826,0.9437,3.7605
476.6442,0.7047,-0.0850,4.6444,8.3024,6.0653,21.0434,20.4823,-14.1007,12.7854,1506,1493,1.0000,0.0317,0.1901,9.7132,9.6826,0.1152,3.8798,-0.0954,0.2750,9.6871,6.9223,0.2490,4.0048
476.6634,0.8548,0.0180,4.7216,5.0124,5.8908,-8.1792,121.9169,-17.1045,42.5235,1521,1478,0.9961,-0.4184,0.3601,10.0796,5.6291,0.2755,3.9332,-0.5120,0.3803,9.6799,4.3956,0.7223,4.0964
476.6830,0.9705,0.1669,4.7981,3.3024,5.1331,-18.6178,165.2953,-19.4199,44.6692,1522,1477,0.7978,-0.6148,0.3672,9.9311,3.9726,0.5122,3.8340,-0.6485,0.3157,9.6751,2.6323,0.8139,3.9895
476.7025,1.0280,0.2813,4.8706,2.0582,3.6974,-19.6592,174.9128,-20.5709,8.1179,1504,1495,0.1370,-0.5070,0.2356,9.5887,2.2932,0.1305,3.6203,-0.4426,0.0882,9.7038,1.8231,0.3635,3.8216
476.7216,1.0977,0.3734,4.9420,1.7948,2.2980,-12.7972,163.1644,-21.9748,0.3923,1500,1499,0.0069,-0.4400,0.3337,9.7875,1.7818,0.1534,3.6126,-0.6006,0.2702,9.8212,1.8078,0.4399,3.8750
476.7403,1.1803,0.4768,5.0117,2.9398,1.6745,-4.9550,150.0865,-23.6390,1.2338,1500,1499,0.0229,-0.5501,0.3074,9.9335,3.8047,0.1992,3.8035,-0.5383,0.2989,9.7302,2.0750,-0.2013,3.6079
476.7595,1.2412,0.6170,5.0786,1.9933,0.9135,-4.1342,154.7317,-24.8697,2.2375,1501,1498,0.0401,-0.8039,0.2954,9.7085,2.0490,-1.0222,3.4600,-0.4928,0.3348,9.7398,1.9376,-1.1403,3.5163
476.7790,1.3068,0.6780,5.1372,1.9437,0.4244,-1.7882,155.5211,-26.1943,3.5895,1501,1498,0.0634,-0.4903,0.3289,9.8497,2.3085,-1.7168,3.0706,-0.4234,0.3277,9.8427,1.5788,-0.6517,2.9437
476.7986,1.3590,0.7674,5.1908,2.6078,0.2427,-0.5505,157.9649,-27.2521,4.9232,1502,1497,0.0851,-0.5549,0.2236,9.7731,2.5375,-0.7932,2.7958,-0.3396,0.3372,9.8523,2.6781,-0.0410,2.6918
476.8176,1.4087,0.7669,5.2254,3.6727,0.2722,0.1152,161.7614,-28.2593,6.4289,1503,1496,0.1082,-0.1383,0.1398,9.8354,3.5604,-0.4115,2.6813,-0.2726,0.1960,9.7661,3.7849,0.3177,0.7529
476.8363,1.4836,0.8317,5.2724,4.9666,0.5557,1.7396,165.7023,-29.7722,9.0149,1504,1495,0.1471,-0.3849,0.1542,9.7492,4.8429,0.0542,2.5439,-0.4833,0.2750,9.8738,5.0903,1.1193,2.4781
476.8556,1.6034,0.9286,5.3145,5.9360,1.1651,4.9345,170.2928,-32.1854,13.9127,1506,1493,0.2182,-0.5549,0.2810,9.8306,5.5910,0.4816,2.3302,-0.4689,0.2463,9.9265,6.2811,0.1345,1.9819
476.8752,1.7486,1.0007,5.3454,7.8521,2.6148,16.3932,154.0015,-35.1071,19.1390,1509,1490,0.3154,-0.5429,0.2379,9.9311,7.6520,-0.2588,1.6890,-0.4042,0.3061,9.7469,8.0521,-1.1097,1.4857
476.8947,1.8814,1.0427,5.3732,9.3063,4.6548,31.3512,126.2021,-37.7816,31.2959,1515,1484,0.5771,-0.4496,0.0847,9.8330,8.9039,-1.2741,1.4676,-0.6149,0.1385,10.0271,9.7086,-0.8273,1.5315
476.9137,2.0367,1.1618,5.3953,11.0467,6.1886,45.1163,104.4274,-40.9076,49.6935,1524,1475,1.0000,-0.8135,0.0751,9.8377,10.6444,-1.3428,1.2157,-0.7323,0.1696,9.8116,11.4490,-0.6517,1.2796
476.9325,2.2183,1.2871,5.4131,12.7757,7.1767,52.4057,104.3338,-44.5623,51.4946,1525,1474,1.0000,-0.8470,0.0823,9.7587,12.1635,-0.8848,1.0859,-0.7394,0.0643,9.7350,13.3880,-0.8884,0.9590
476.9518,2.4420,1.4162,5.4130,14.6765,8.3017,58.4192,112.7492,-49.0594,56.0995,1528,1471,1.0000,-0.8278,0.1134,9.8761,14.6215,-0.4497,1.0096,-0.7155,0.3372,9.8307,14.7315,-0.0563,-1.1173
476.9713,2.7087,1.5560,5.4248,15.4284,9.3707,54.6779,154.2180,-54.4211,70.3916,1535,1464,1.0000,-0.8542,0.2643,9.8066,15.2016,0.1305,0.6508,-0.8352,0.3229,9.7853,15.6552,-0.0105,0.6002
476.9910,2.9797,1.6575,5.4338,15.5047,10.2908,46.9314,207.7180,-59.8717,88.0969,1544,1455,1.0000,-0.7919,0.3241,9.7923,15.3772,-0.6252,0.5134,-0.7538,0.0763,9.7924,15.6323,-1.2777,0.5621
477.0101,3.2268,1.7200,5.4377,16.0085,11.1484,44.7917,242.3098,-64.8450,100.2692,1550,1449,1.0000,-0.7057,0.2451,9.8330,15.9650,-1.4955,0.4142,-0.5479,0.1912,9.9026,16.0521,-1.6746,0.3178
477.0288,3.4563,1.7927,5.4397,16.4055,11.9370,42.1643,276.2940,-69.4708,112.0977,1556,1443,1.0000,-0.7560,0.1972,9.6917,16.1558,-1.9306,0.3684,-0.6317,0.2056,9.8810,16.6552,-1.0563,0.2415
477.0480,3.6998,1.8766,5.4436,16.1879,12.5746,33.2119,330.1002,-74.3781,129.6171,1564,1435,1.0000,-0.8039,0.2810,9.7970,17.0261,-1.6634,0.4294,-0.6269,0.3301,9.5889,15.3498,-0.9876,0.3483
477.0675,3.8870,1.9154,5.4476,14.1460,12.8103,12.0787,412.5004,-78.1598,154.5800,1577,1422,1.0000,-0.6076,0.2284,9.6941,14.9345,-1.6558,0.3607,-0.5120,0.4019,9.4860,13.3574,-1.0563,0.5392
477.0871,4.0713,1.8793,5.4505,11.5047,12.6145,-9.9934,497.2794,-81.8869,180.1817,1590,1409,1.0000,-0.3155,0.4726,9.9239,13.5146,-1.9077,0.3531,0.0985,0.3684,9.7493,9.4948,-1.0639,0.3178
477.1062,4.1555,1.7506,5.4486,7.6727,11.8732,-38.8457,590.0616,-83.6120,207.0233,1603,1396,1.0000,0.1131,0.4079,9.9359,8.8810,-1.5489,0.1241,0.4002,0.5431,9.6847,6.4643,-1.6823,0.1422
477.1249,4.1637,1.6377,5.4494,4.1345,10.7124,-62.1129,658.0205,-83.8186,226.1551,1613,1386,1.0000,0.0820,0.3936,10.1562,5.5223,-1.6176,0.2004,0.1105,0.3971,9.2537,2.7468,-1.5677,0.3789
477.1440,4.0911,1.6337,5.4456,0.0429,9.1120,-83.6294,711.6294,-82.4069,240.4597,1620,1379,1.0000,-0.3442,0.3936,10.5823,2.0871,-0.4955,-0.1126,0.0770,0.2965,9.7374,-2.0013,-0.6670,0.0506
477.1636,3.8958,1.5584,5.4422,-4.7395,7.0343,-106.1414,753.9885,-78.5399,250.3867,1625,1374,1.0000,0.0341,0.2236,9.6438,-2.2869,-0.2130,0.0706,0.3380,0.3372,9.5147,-7.1922,0.0277,-0.1250
477.1831,3.5561,1.3486,5.4319,-12.8235,1.1530,-43.4553,534.3592,-71.7812,185.5112,1592,1407,1.0000,0.6422,0.2475,10.0700,-9.8518,-1.4878,-0.2271,0.5199,0.4522,9.3351,-15.7952,0.9132,-0.6059
477.2022,3.1389,1.2362,5.4217,-18.8273,0.0000,-0.0000,361.1989,-63.4689,132.8701,1566,1433,1.0000,0.3764,0.3385,10.0341,-16.6457,0.5351,-0.7003,0.1632,0.3013,9.6560,-21.0090,1.6307,-0.3387
477.2209,2.7109,1.2367,5.4102,-21.8159,0.0000,-0.0000,311.9509,-54.9367,108.3131,1554,1445,0.9434,-0.0258,0.4319,9.9383,-19.6610,1.7412,-1.0591,-0.1576,0.4857,9.6871,-23.9708,2.6307,-0.2624
477.2400,2.2607,1.2511,5.3967,-23.9151,-5.9057,-165.2857,736.1620,-45.9544,228.4379,1614,1385,0.9971,-0.2197,0.5085,9.9215,-23.9587,0.6267,-1.3339,-0.1505,0.5288,9.7062,-23.8716,0.7376,-0.0028
477.2598,1.8780,1.1772,5.3814,-22.4037,-8.3913,-124.9928,576.0789,-38.3189,180.4615,1590,1409,1.0000,0.1634,0.6498,9.8186,-21.7984,0.4664,-1.3034,0.0387,0.5144,10.1492,-23.0090,0.7758,-0.3463
