timestamp,roll_deg,pitch_deg,yaw_deg,omega_raw,omega_filtered,alpha,tau_ff,tau_pid,tau_total,pwm_left,pwm_right,deadzone_factor,accel1_x,accel1_y,accel1_z,gyro1_x,gyro1_y,gyro1_z,accel2_x,accel2_y,accel2_z,gyro2_x,gyro2_y,gyro2_z
0.0101,-0.0089,0.0077,-0.0006,0.1826,0.0000,0.0000,-0.8513,0.1776,-0.0000,1500,1500,0.0000,-0.0621,-0.0917,9.8500,0.0169,0.1402,-0.0823,0.0480,-0.0833,9.7883,0.3482,-0.0053,-0.0344
0.0290,-0.0129,0.0069,-0.0034,0.0757,0.0000,0.0000,-1.2417,0.2591,-0.0000,1500,1500,0.0000,0.0001,-0.0247,9.8260,0.0703,-0.0735,-0.1204,-0.0119,-0.1120,9.7404,0.0810,0.0176,-0.1794
0.0478,-0.0230,0.0069,-0.0041,0.1368,0.0000,0.0000,-2.2079,0.4607,-0.0000,1500,1500,0.0000,0.0025,-0.0606,9.7039,0.1161,-0.0277,0.0781,0.0145,0.0125,9.7764,0.1574,0.1168,-0.1489
0.0667,-0.0424,0.0153,-0.0038,0.1635,0.0000,0.0000,-4.0705,0.8494,-0.0000,1500,1500,0.0000,-0.0286,-0.1061,9.7207,0.1238,0.0563,0.0857,-0.0310,-0.0473,9.8027,0.2032,0.1855,-0.0573
0.0855,-0.0471,0.0176,-0.0040,0.2169,0.0000,0.0000,-4.5165,0.9425,-0.0000,1500,1500,0.0000,0.0193,-0.0462,9.9984,0.2612,0.3921,-0.0670,-0.0262,-0.1287,9.7764,0.1726,0.3306,0.0496
0.1042,-0.0489,0.0224,-0.0052,-0.0083,0.0000,-0.0000,-4.6885,0.9784,-0.0000,1500,1500,0.0000,-0.0190,-0.0151,9.7518,0.0245,0.0639,-0.0746,0.0001,-0.0330,9.9176,-0.0411,0.0863,-0.0496
0.1229,-0.0547,0.0097,-0.0066,-0.0006,0.0000,-0.0000,-5.2474,1.0950,-0.0000,1500,1500,0.0000,0.0504,-0.0343,9.7686,-0.0060,0.0715,0.0170,0.0648,-0.0641,9.7165,0.0047,-0.1503,-0.1718
0.1412,-0.0661,-0.0213,-0.0068,0.1558,0.0000,0.0000,-6.3430,1.3236,-0.0000,1500,1500,0.0000,0.1462,-0.0774,9.8308,0.0245,-0.0735,-0.0365,0.0384,-0.0354,9.6950,0.2871,0.0634,0.0191
0.1593,-0.0771,-0.0246,-0.0066,0.0986,0.0000,0.0000,-7.3922,1.5426,-0.0000,1500,1500,0.0000,0.0312,-0.0726,9.8428,-0.0136,0.1097,0.0781,-0.0238,-0.0210,9.8697,0.2108,0.1474,-0.0573
0.1775,-0.0775,-0.0234,-0.0089,0.1558,0.0000,0.0000,-7.4283,1.5501,-0.0000,1500,1500,0.0000,0.0025,-0.0271,9.7398,-0.0442,0.1097,-0.1357,-0.0119,-0.0809,9.9775,0.3558,-0.0206,-0.1183
0.1957,-0.0843,-0.0252,-0.0114,0.2780,0.0000,0.0000,-8.0867,1.6875,-0.0000,1500,1500,0.0000,0.0097,-0.0702,9.8212,0.3681,-0.0277,-0.1357,-0.0526,-0.0378,9.6926,0.1879,-0.0740,-0.1412
0.2138,-0.0861,-0.0181,-0.0114,0.2322,0.0000,0.0000,-8.2530,1.7222,-0.0000,1500,1500,0.0000,-0.0310,-0.0414,9.8045,0.1085,0.0028,-0.0746,0.0312,-0.0928,9.7548,0.3558,-0.0129,0.0725
0.2320,-0.0946,-0.0272,-0.0110,0.1558,0.0000,0.0000,-9.0752,1.8938,-0.0000,1500,1500,0.0000,0.0432,-0.0678,9.8069,0.1314,-0.0201,-0.0517,0.0480,-0.0976,9.7931,0.1803,-0.0358,0.0954
0.2502,-0.0994,-0.0370,-0.0112,0.2131,0.0000,0.0000,-9.5335,1.9894,-0.0000,1500,1500,0.0000,0.0480,-0.0558,9.7135,0.1772,0.0563,0.0017,0.0336,-0.0880,9.8386,0.2490,-0.1198,-0.0267
0.2683,-0.0996,-0.0391,-0.0119,0.1749,0.0000,0.0000,-9.5501,1.9929,-0.0000,1500,1500,0.0000,0.0025,-0.0319,9.7901,0.0932,-0.2338,-0.0670,-0.0166,-0.0761,9.8171,0.2566,-0.1045,-0.0038
0.2867,-0.1100,-0.0280,-0.0126,0.2245,0.0000,0.0000,-10.5468,2.2009,-0.0000,1500,1500,0.0000,-0.0550,-0.0845,9.7327,0.1314,-0.0811,0.0399,-0.0262,-0.0665,9.7548,0.3177,-0.1427,-0.1183
0.3048,-0.1125,-0.0311,-0.0134,0.2398,0.0000,0.0000,-10.7843,2.2504,-0.0000,1500,1500,0.0000,0.0049,-0.0510,9.8571,0.1772,-0.1422,-0.0975,0.0049,-0.0641,9.8386,0.3024,-0.1885,0.0038
0.3229,-0.1081,-0.0377,-0.0134,0.3658,0.0000,0.0000,-10.3633,2.1626,-0.0000,1500,1500,0.0000,0.0312,-0.0295,9.7638,0.3757,-0.0582,-0.0899,-0.0573,-0.0402,9.7907,0.3558,-0.1045,0.0878
0.3411,-0.1144,-0.0392,-0.0132,0.3161,0.0000,0.0000,-10.9727,2.2897,-0.0000,1500,1500,0.0000,0.0097,-0.0750,9.7925,0.2765,0.0105,-0.1204,0.0456,-0.0952,9.7524,0.3558,-0.0816,0.1412
0.3593,-0.1267,-0.0382,-0.0164,0.3200,0.0000,0.0000,-12.1475,2.5349,-0.0000,1500,1500,0.0000,0.0001,-0.1061,9.7997,0.2917,0.0105,0.0399,0.0384,-0.0378,9.7500,0.3482,-0.0435,-0.3855
0.3774,-0.1242,-0.0387,-0.0175,0.3925,0.0000,0.0000,-11.9092,2.4852,-0.0000,1500,1500,0.0000,0.0049,-0.0438,9.7374,0.4368,-0.0201,0.0017,-0.0597,-0.0138,9.7213,0.3482,-0.0969,-0.1336
0.3956,-0.1108,-0.0420,-0.0176,0.4612,0.0000,0.0000,-10.6248,2.2171,-0.0000,1500,1500,0.0000,0.0193,0.0040,9.8021,0.2994,0.0028,0.0781,0.0121,-0.0809,9.7859,0.6230,-0.0740,-0.0802
0.4137,-0.1024,-0.0448,-0.0180,0.5108,0.0000,0.0000,-9.8161,2.0484,-0.0000,1500,1500,0.0000,0.0169,-0.0223,9.7638,0.4215,-0.1269,0.1086,0.0552,-0.0473,9.6878,0.6001,0.0634,-0.1565
0.4318,-0.0917,-0.0387,-0.0187,0.5299,0.0000,0.0000,-8.7960,1.8355,-0.0000,1500,1500,0.0000,-0.0190,-0.0127,9.8069,0.5131,-0.0430,-0.1052,-0.1387,-0.0090,9.9368,0.5467,0.0329,0.0267
0.4500,-0.0971,-0.0423,-0.0198,0.3009,0.0000,-0.0000,-9.3150,1.9438,-0.0000,1500,1500,0.0000,0.0169,-0.0678,9.8380,0.2306,-0.0582,-0.0899,-0.0549,-0.0354,9.8434,0.3711,-0.1274,-0.0267
0.4682,-0.0931,-0.0344,-0.0197,0.4421,0.0000,0.0000,-8.9234,1.8621,-0.0000,1500,1500,0.0000,-0.0358,-0.0343,9.7374,0.3986,-0.0506,-0.1739,0.0073,-0.0689,9.7428,0.4856,-0.0740,0.1794
0.4863,-0.0969,-0.0416,-0.0201,0.3848,0.0000,0.0000,-9.2936,1.9393,-0.0000,1500,1500,0.0000,0.0384,-0.0678,9.7949,0.3833,-0.1193,-0.0746,-0.1579,-0.0306,9.8290,0.3864,-0.0053,0.0344
0.5044,-0.0829,-0.0324,-0.0199,0.5871,0.0000,0.0000,-7.9531,1.6596,-0.0000,1500,1500,0.0000,-0.0262,-0.0007,9.7757,0.5207,0.0181,0.0170,-0.0406,-0.0090,9.6926,0.6535,0.2084,0.0038
0.5225,-0.0724,-0.0126,-0.0211,0.6406,0.0000,0.0000,-6.9396,1.4481,-0.0000,1500,1500,0.0000,-0.0837,-0.0175,9.8141,0.5818,0.0639,-0.0975,0.0839,-0.1000,9.8625,0.6994,0.1168,-0.0344
0.5407,-0.0874,-0.0155,-0.0203,0.5986,0.0000,0.0000,-8.3831,1.7493,-0.0000,1500,1500,0.0000,0.0384,-0.1372,9.7805,0.6276,0.2166,-0.0823,0.0025,0.0077,9.7811,0.5696,0.2924,0.1641
0.5588,-0.0719,-0.0081,-0.0198,0.7627,0.0000,0.0000,-6.8955,1.4389,-0.0000,1500,1500,0.0000,-0.0023,-0.0055,9.7829,0.6505,0.4608,0.0857,0.0217,-0.0833,9.7500,0.8749,0.2466,-0.0267
0.5770,-0.0690,-0.0206,-0.0178,0.8734,0.0000,0.0000,-6.6155,1.3805,-0.0000,1500,1500,0.0000,0.0719,-0.0750,9.7590,0.7116,0.1326,0.0475,0.0576,0.0269,9.7811,1.0352,0.1397,0.1718
0.5951,-0.0600,-0.0179,-0.0171,1.0490,0.0000,0.0000,-5.7499,1.1999,-0.0000,1500,1500,0.0000,0.0097,-0.0582,9.7805,0.9482,0.2700,0.0781,-0.0095,-0.0880,9.6997,1.1497,0.1703,0.0038
0.6133,-0.0958,-0.0205,-0.0199,1.1597,0.0000,0.0000,-9.1906,1.9178,-0.0000,1500,1500,0.0000,0.0312,-0.2833,9.8236,1.1161,0.2776,-0.1968,0.1055,-0.0833,9.9847,1.2032,0.1245,-0.1183
0.6314,-0.0853,-0.0163,-0.0214,1.1673,0.0000,0.0000,-8.1814,1.7073,-0.0000,1500,1500,0.0000,-0.0023,-0.0654,9.7207,1.1696,0.0944,-0.0135,-0.0262,-0.1024,9.7261,1.1650,0.2161,-0.1489
0.6495,-0.0728,-0.0186,-0.0261,1.2703,0.0000,0.0000,-6.9793,1.4564,-0.0000,1500,1500,0.0000,0.0360,-0.0654,9.7781,1.1390,0.3005,-0.2120,0.0624,0.0053,9.7476,1.4016,0.2390,-0.3015
0.6677,-0.0631,-0.0063,-0.0273,1.2016,0.0000,0.0000,-6.0534,1.2632,-0.0000,1500,1500,0.0000,-0.0286,-0.0702,9.7111,1.0932,0.2318,-0.2655,0.0408,-0.0210,9.7596,1.3100,0.4069,0.1260
0.6859,-0.0408,-0.0063,-0.0295,1.4688,0.0000,0.0000,-3.9152,0.8170,-0.0000,1500,1500,0.0000,0.0264,-0.0319,9.7494,1.3757,0.2776,0.0094,0.0408,0.0053,9.8195,1.5619,0.3306,-0.2481
0.7040,0.0146,-0.0054,-0.0304,1.5452,0.0000,0.0000,1.4006,-0.2923,0.0000,1500,1500,0.0000,0.0240,0.1262,9.8739,1.4139,0.2776,0.0628,-0.0190,-0.0426,9.7811,1.6765,0.3306,-0.1565
0.7222,0.0362,0.0109,-0.0294,1.6673,0.0000,0.0000,3.4715,-0.7244,0.0000,1500,1500,0.0000,-0.0406,-0.0390,9.8548,1.6505,0.3616,0.0399,0.0049,-0.0234,9.7141,1.6841,0.4832,0.0649
0.7404,0.0684,0.0301,-0.0293,1.6749,0.0000,0.0000,6.5637,-1.3697,0.0000,1500,1500,0.0000,-0.0550,0.0136,9.8188,1.5436,0.5219,-0.1052,0.0001,0.0795,9.7357,1.8062,0.3840,0.1107
0.7585,0.0984,0.0372,-0.0295,1.5566,0.0000,0.0000,9.4390,-1.9697,0.0000,1500,1500,0.0000,-0.0023,0.0208,9.8595,1.5818,0.5906,0.0017,-0.0190,-0.0090,9.8362,1.5314,0.2542,-0.0267
0.7767,0.1562,0.0483,-0.0294,1.5223,0.0000,0.0000,14.9804,-3.1260,0.0000,1500,1500,0.0000,-0.0214,0.1597,9.7303,1.4597,0.5830,0.0246,-0.0310,0.0365,9.8314,1.5848,0.2695,-0.0115
0.7948,0.2056,0.0533,-0.0274,1.4039,0.0000,0.0000,19.7168,-4.1144,0.0000,1500,1500,0.0000,0.0001,0.1429,9.8332,1.3757,0.3463,0.0399,0.1079,-0.0019,9.7620,1.4322,0.4603,0.1718
0.8131,0.2206,0.0699,-0.0278,1.5528,0.0000,0.0000,21.1580,-4.4151,0.0000,1500,1500,0.0000,-0.0526,-0.0271,9.7997,1.3528,0.4379,-0.0899,-0.0238,-0.0354,9.7548,1.7528,0.3764,0.0496
0.8314,0.2402,0.0808,-0.0275,1.6635,0.0000,0.0000,23.0370,-4.8073,0.0000,1500,1500,0.0000,-0.0071,-0.0127,9.8835,1.6352,0.6364,0.0246,-0.1435,-0.0354,9.7620,1.6917,0.5977,0.0038
0.8497,0.2646,0.0795,-0.0274,2.7474,0.0000,0.0000,25.3736,-5.2948,0.0000,1500,1500,0.0000,0.0264,-0.0845,9.7829,1.7497,0.4685,0.0017,-0.0142,0.1657,9.8314,3.7452,0.3153,0.0115
0.8680,0.2937,0.0917,-0.0283,2.1024,0.0000,0.0000,28.1656,-5.8775,0.0000,1500,1500,0.0000,-0.0286,0.0040,9.7805,1.9024,0.5982,0.0857,-0.1507,-0.1311,9.7644,2.3024,0.3229,-0.1870
0.8862,0.3133,0.1006,-0.0288,2.3085,0.0000,0.0000,30.0399,-6.2686,0.0000,1500,1500,0.0000,-0.0238,-0.0558,9.7901,2.1390,0.4761,-0.0059,0.0791,-0.0210,9.7548,2.4780,0.3611,-0.0573
0.9045,0.3495,0.1055,-0.0301,2.4192,0.0000,0.0000,33.5111,-6.9929,0.0000,1500,1500,0.0000,0.0240,0.0160,9.7303,2.2383,0.7738,-0.1433,-0.0286,0.0005,9.8051,2.6001,0.7046,0.0038
0.9226,0.3931,0.1273,-0.0312,2.4688,0.0000,0.0000,37.6927,-7.8655,0.0000,1500,1500,0.0000,-0.0645,0.0543,9.8428,2.3833,0.6593,-0.0746,-0.0813,0.0436,9.7620,2.5543,0.6512,-0.0573
0.9408,0.4375,0.1343,-0.0355,2.6482,0.0000,0.0000,41.9516,-8.7542,0.0000,1500,1500,0.0000,-0.0190,0.0495,9.8093,2.5894,0.5524,-0.2960,-0.0621,0.0508,9.7045,2.7070,0.2619,-0.1794
0.9590,0.4772,0.1870,-0.0393,2.6253,0.0000,0.0000,45.7548,-9.5479,0.0000,1500,1500,0.0000,-0.2393,0.0376,9.8188,2.5971,0.2471,-0.1281,-0.1100,0.0269,9.8075,2.6535,0.5672,-0.3015
0.9771,0.5349,0.2000,-0.0422,2.8581,0.0000,0.0000,51.2948,-10.7039,0.0000,1500,1500,0.0000,-0.0526,0.1118,9.9242,2.6963,0.3540,-0.2197,-0.1028,0.0987,9.8027,3.0200,0.5901,-0.1107
0.9953,0.5891,0.2140,-0.0427,3.2169,0.0000,0.0000,56.4938,-11.7888,0.0000,1500,1500,0.0000,-0.0693,0.0711,9.7829,3.1925,0.4608,-0.0899,-0.0478,0.0676,9.7189,3.2413,0.2619,0.0267
1.0134,0.6368,0.2299,-0.0432,3.3772,0.0000,0.0000,61.0649,-12.7427,0.0000,1500,1500,0.0000,-0.0741,0.0352,9.7901,3.3757,0.5982,0.0323,-0.0573,0.1011,9.7859,3.3787,0.2771,-0.0878
1.0316,0.7001,0.2447,-0.0426,3.8123,0.0000,0.0000,67.1370,-14.0098,0.0000,1500,1500,0.0000,-0.0669,0.0831,9.9194,3.7039,0.4608,-0.0823,-0.0741,0.0484,9.8530,3.9207,0.5443,0.1336
1.0498,0.7731,0.2598,-0.0393,4.0719,0.0000,0.0000,74.1289,-15.4688,0.0000,1500,1500,0.0000,-0.0693,0.1142,9.7111,3.9482,0.5677,0.1926,-0.0837,0.0843,9.8075,4.1955,0.4374,0.1641
1.0679,0.8436,0.3008,-0.0365,4.3390,0.0221,0.0813,80.7020,-16.8812,0.0000,1500,1500,0.0000,-0.1914,0.0926,9.7805,4.2306,0.5601,0.1544,-0.1938,0.1490,9.7237,4.4474,0.5138,0.1336
1.0860,0.9335,0.3231,-0.0309,4.3276,0.1083,0.3179,88.7468,-18.6784,0.0000,1500,1500,0.0000,-0.1196,0.1980,9.8045,4.0856,0.4990,0.2994,-0.0526,0.1777,9.5369,4.5696,0.4145,0.3015
1.1042,1.0248,0.3307,-0.0218,4.1253,0.2046,0.3928,97.3231,-20.5056,0.0171,1500,1499,0.0005,-0.0981,0.2363,9.8141,4.0780,0.1784,0.6429,-0.1603,0.2735,9.8027,4.1726,-0.3488,0.3473
1.1223,1.1043,0.3241,0.0049,4.2513,0.3324,0.6210,104.3988,-22.1066,0.3170,1500,1499,0.0079,-0.1124,0.1860,9.8524,4.2077,-0.7911,2.3910,-0.2178,0.1993,9.8242,4.2948,-1.2267,0.5916
1.1405,1.1745,0.3076,0.0134,4.1444,0.4431,0.5804,111.2345,-23.5238,0.9233,1500,1499,0.0215,-0.1004,0.1645,9.8045,4.1467,-1.4781,0.5437,-0.1675,0.2160,9.7668,4.1421,-1.4023,0.4542
1.1587,1.2505,0.2982,0.0229,4.0910,0.5373,0.5228,118.6575,-25.0556,1.9735,1501,1498,0.0431,-0.1244,0.2123,9.8356,3.9100,-1.2567,0.6200,-0.1004,0.0436,9.7548,4.2719,-1.4099,0.4771
1.1768,1.3328,0.2813,0.0339,4.2856,0.6721,0.8287,125.8182,-26.7155,3.5889,1501,1498,0.0739,0.0001,0.2363,9.7949,4.3146,-1.3254,0.6277,0.0887,0.1705,9.7668,4.2566,0.7275,0.5916
1.1951,1.4091,0.2632,0.0425,4.3658,0.8197,0.9713,132.7881,-28.2547,5.5618,1503,1496,0.1084,-0.0597,0.2147,9.9529,4.2994,-1.2796,0.6200,-0.0406,0.1681,9.9320,4.4322,-0.9137,0.3779
1.2133,1.4895,0.2336,0.0480,4.5032,0.9967,1.2700,139.7784,-29.8771,8.1312,1504,1495,0.1504,0.0360,0.2363,9.7853,4.1009,-0.3254,0.3605,-0.1220,0.0748,9.6351,4.9055,-1.0816,0.2786
1.2315,1.5848,0.2693,0.0727,4.5108,1.1616,1.2546,148.9551,-31.7992,11.8946,1506,1493,0.2065,-0.2704,0.3129,9.6105,4.3833,-0.5850,2.3987,0.0336,0.2400,9.7740,4.6383,-0.7763,0.3550
1.2496,1.6571,0.2590,0.0817,4.7245,1.3834,1.8279,154.5149,-33.2623,15.1479,1508,1491,0.2529,-0.0334,0.2076,9.8045,4.5894,-0.6308,0.6353,-0.0502,0.2184,9.8123,4.8597,-0.1885,0.3779
1.2678,1.7300,0.2622,0.0873,4.8390,1.6264,2.1409,160.7568,-34.7382,18.8666,1510,1489,0.3024,-0.0837,0.2099,9.7710,4.5513,-0.1575,0.5055,0.1055,0.3142,9.7620,5.1268,-0.3106,0.1412
1.2860,1.7803,0.2732,0.0915,5.1558,1.9684,3.3114,162.7722,-35.7622,21.4426,1511,1488,0.3379,-0.0741,0.0902,9.7374,4.8566,0.2547,0.3223,-0.0717,0.1490,9.7859,5.4551,0.2848,0.1412
1.3041,1.8313,0.2798,0.0916,5.5146,2.4262,4.9242,163.7846,-36.7990,24.0746,1513,1486,0.3746,-0.0502,0.0735,9.9362,5.2917,0.2929,0.1620,-0.1842,0.1035,9.5513,5.7375,0.3000,-0.1412
1.3223,1.8835,0.3140,0.0897,6.0452,3.0680,7.8334,161.8091,-37.8620,26.5301,1514,1485,0.4130,-0.2130,0.0424,9.8380,5.7497,0.0563,-0.0135,-0.1004,0.0149,9.7261,6.3406,-0.0893,-0.1641
1.3404,1.9375,0.3247,0.0828,6.7551,3.9429,12.6220,155.4968,-38.9618,28.5596,1515,1484,0.4532,-0.0717,-0.0031,9.9409,6.4597,0.1326,-0.3571,-0.2513,0.0987,9.6950,7.0505,0.5367,-0.3855
1.3586,1.9997,0.3626,0.0684,7.8619,5.0881,21.2841,140.6747,-40.2263,46.3519,1525,1474,0.7790,-0.1819,-0.0438,9.8404,7.3223,0.3387,-0.5555,-0.0573,-0.2197,9.5752,8.4016,0.9031,-1.0344
1.3767,1.9955,0.3962,0.0405,8.8467,6.0005,27.6672,124.9530,-40.1624,55.0680,1530,1469,1.0000,-0.2992,-0.4389,9.8141,8.5436,-0.7758,-1.2120,-0.2776,-0.2628,9.5441,9.1497,-1.1503,-1.6756
1.3949,2.0276,0.4252,0.0021,10.2665,6.6404,35.2612,109.8016,-40.8238,51.1564,1528,1471,1.0000,-0.1340,-0.3814,9.6297,9.7574,0.6898,-1.8838,-0.2992,-0.2341,9.5345,10.7757,0.6741,-2.2863
1.4130,2.0736,0.4677,-0.0489,11.7474,7.4064,42.2514,97.4331,-41.7639,48.1632,1526,1473,1.0000,-0.2297,-0.4437,9.7470,11.2383,0.4608,-2.5784,-0.1028,-0.1647,9.8290,12.2566,0.3916,-2.9427
1.4312,2.1954,0.4901,-0.1106,12.1902,8.1240,39.5579,115.5801,-44.2224,54.4737,1529,1470,1.0000,-0.0885,-0.1133,9.7327,11.9940,0.7967,-3.1433,-0.1794,0.0269,9.7596,12.3864,1.1550,-3.6527
1.4493,2.3763,0.4623,-0.1790,12.6864,8.8084,37.7163,137.3518,-47.8652,62.3911,1534,1465,1.0000,0.0935,0.1477,9.9745,12.2535,0.5753,-3.7082,-0.0047,0.1945,9.8338,13.1192,0.1168,-3.8130
1.4674,2.6001,0.4356,-0.2512,13.2093,9.4685,36.4602,194.1869,-52.3661,80.5554,1544,1455,1.0000,0.0193,0.3416,9.9170,12.6963,-0.5926,-3.8609,0.0312,0.2783,9.7045,13.7223,-0.4252,-4.0573
1.4956,2.7590,0.4066,-0.2930,12.2856,9.8911,42.0075,196.5014,-55.5726,82.8067,1545,1454,1.0000,0.0935,0.7558,9.9386,12.4139,-1.0201,-3.9677,0.1366,0.9941,10.1810,12.1574,-1.2343,-4.2863
1.5138,3.1033,0.3150,-0.3632,10.4497,9.9749,4.6150,343.8138,-62.4899,127.5128,1570,1429,1.0000,0.2946,1.2323,9.9697,10.6581,-0.9666,-3.9372,0.3257,1.1450,10.1666,10.2413,-1.1885,-3.7901
1.5319,3.3719,0.1553,-0.4309,8.4612,9.7478,-12.5077,424.0296,-67.8944,152.6755,1583,1416,1.0000,0.6633,1.0958,9.9577,8.3299,-1.5544,-4.0135,0.5412,1.1354,9.8386,8.5925,-0.1351,-3.4008
1.5501,3.6331,0.1863,-0.4926,7.8161,9.4581,-15.9438,463.9880,-73.1554,166.4944,1591,1408,1.0000,-0.0286,1.1796,10.1205,8.3604,1.7967,-3.6319,0.2611,1.2958,10.3246,7.2719,1.2771,-3.3931
1.5682,3.8935,0.1367,-0.5458,5.2932,8.8333,-34.4505,547.2561,-78.4027,192.4330,1605,1394,1.0000,0.2252,1.4477,10.0607,4.8871,0.6669,-3.0288,0.1917,1.3964,10.4396,5.6994,-0.7305,-2.8969
1.5864,4.1121,0.0234,-0.5934,1.3696,7.7138,-61.7307,650.9750,-82.8150,223.6805,1623,1376,1.0000,0.4598,1.5938,9.7566,2.1009,-1.5010,-2.6929,0.5149,1.4251,10.2959,0.6383,-0.1656,-2.4847
1.6045,4.2698,-0.0079,-0.6302,-2.3632,6.2022,-83.2304,731.0393,-86.0111,247.6966,1636,1363,1.0000,0.3592,1.6513,9.7063,-1.4106,1.6135,-2.1739,0.3209,1.6549,10.1379,-3.3159,3.0558,-2.2252
1.6227,4.3590,0.0851,-0.6546,-6.2678,1.8029,-42.9167,625.2082,-87.8399,218.9782,1620,1379,1.0000,-0.1412,1.6824,9.6465,-5.1434,3.7204,-1.4639,-0.1603,1.6190,10.3079,-7.3923,2.9642,-1.7366
1.6408,4.3502,0.2160,-0.6595,-10.0083,0.0000,-0.0000,500.5968,-87.7077,184.0209,1601,1398,1.0000,-0.5889,1.5914,9.8715,-9.0365,1.4761,-1.3342,-0.5625,1.4395,10.2193,-10.9800,-0.2267,0.6679
1.6591,4.2101,0.2658,-0.6813,-13.3518,0.0000,-0.0000,484.4677,-84.9467,178.1243,1597,1402,1.0000,-0.4404,1.2251,9.6896,-13.0213,-1.8140,-1.2273,-0.2010,1.0971,10.0804,-13.6823,-2.2267,-0.8969
1.6772,3.9156,0.2032,-0.6970,-15.8480,0.0000,-0.0000,450.5845,-79.0973,165.7123,1591,1408,1.0000,0.1102,0.6816,9.6848,-15.2350,-1.9514,-0.8761,0.1246,0.6637,9.9511,-16.4610,-1.3946,-0.6298
1.6953,3.5801,0.1827,-0.7081,-17.1953,-2.8396,-73.2947,623.0534,-72.4213,210.6656,1615,1384,1.0000,0.0935,0.5619,9.8835,-16.5174,0.0028,-0.8761,0.0696,0.6350,9.8290,-17.8732,0.6206,-0.3931
1.7135,3.1923,0.2212,-0.7177,-17.3174,-6.5991,-104.0020,555.7284,-64.6991,187.9535,1603,1396,1.0000,-0.2249,0.2698,9.8619,-17.2350,0.1479,-0.6471,-0.0454,0.3860,9.7788,-17.3999,-0.3794,-0.3550
1.7320,2.8356,0.1612,-0.7262,-16.1304,-8.0288,-77.2344,457.2789,-57.5932,156.8347,1586,1413,1.0000,0.1390,0.2794,9.7973,-16.0289,-1.3941,-0.5784,0.1031,0.1921,9.5920,-16.2319,-1.0053,-0.2023
1.7502,2.5007,0.1298,-0.7326,-15.7869,-9.1925,-64.1252,393.6940,-50.9186,135.6936,1574,1425,1.0000,0.0193,0.2506,9.6512,-15.9755,-1.5315,-0.5555,0.3904,0.3645,9.6950,-15.5984,-0.6847,-0.0344
1.7688,2.2083,0.0886,-0.7271,-15.5159,-10.1411,-50.8971,333.9119,-45.0937,116.0422,1563,1436,1.0000,0.1390,0.4135,9.6441,-15.3800,-0.4628,-0.0441,0.2180,0.0772,9.5609,-15.6518,-0.0816,0.6450
1.7870,1.9293,0.0761,-0.7133,-14.0846,-10.7326,-32.5784,263.1964,-39.5338,93.4619,1551,1448,1.0000,0.0504,0.2722,9.8021,-14.1358,0.3082,0.4139,0.1294,0.0819,9.6423,-14.0335,-0.0587,1.0954
1.8051,1.6364,0.0754,-0.6963,-13.3403,-11.1238,-21.5768,208.6968,-33.6903,75.2803,1541,1458,1.0000,-0.0526,0.0878,9.7614,-12.8915,-0.7529,0.7269,0.1893,0.1083,9.4436,-13.7892,-0.0816,1.1870
1.8232,1.4259,0.0483,-0.6728,-11.1800,-11.1322,-0.4651,137.8436,-29.4946,53.3435,1529,1470,1.0000,0.1126,0.2387,9.7350,-11.3495,-0.1498,1.0628,0.2276,0.3836,9.5848,-11.0106,0.2084,1.4924
1.8418,1.2456,0.1115,-0.6407,-11.0617,-11.1216,0.5705,118.0725,-25.9019,46.0112,1525,1474,1.0000,-0.2178,0.3584,9.8380,-11.1663,1.2242,1.5666,-0.1268,0.3669,9.6040,-10.9571,0.8649,1.8359
1.8602,1.0858,0.1369,-0.6093,-10.2640,-10.9930,6.9985,87.3207,-22.7165,35.8080,1519,1480,1.0000,-0.1459,0.3512,9.8931,-10.5174,0.2395,1.5055,-0.3111,0.2400,9.6566,-10.0106,-0.3870,1.8893
1.8785,0.9559,0.1510,-0.5731,-9.3136,-10.7411,13.6956,58.7915,-20.1280,26.5256,1514,1485,1.0000,-0.1747,0.3751,9.6608,-9.5709,-0.9972,1.9025,-0.0909,0.1849,9.6088,-9.0564,-0.9595,2.0573
1.8969,0.8520,0.1505,-0.5335,-7.6877,-10.2831,24.9294,21.8716,-17.0492,14.6486,1508,1491,1.0000,-0.0478,0.3392,9.7590,-7.9220,-0.6613,2.1468,-0.0765,0.1011,9.6255,-7.4533,0.0863,2.1565
1.9153,0.7564,0.1756,-0.4957,-6.5006,-9.7157,30.9489,-1.7492,-15.1348,7.0776,1503,1496,1.0000,-0.0837,0.2602,9.8212,-6.7235,0.7891,2.0475,-0.2345,-0.0402,9.8602,-6.2777,0.5977,2.0573
1.9337,0.6423,0.2266,-0.4622,-5.2602,-9.0474,36.2935,-25.5170,-12.8517,-0.7189,1499,1500,1.0000,-0.2561,0.0495,9.8524,-5.5556,0.3540,1.9941,-0.4955,-0.0593,9.7452,-4.9648,-0.1045,1.6756
1.9520,0.5535,0.2756,-0.4339,-2.6037,-8.0808,52.5853,-73.1276,-11.0759,-14.9378,1491,1508,1.0000,-0.3159,-0.0750,9.6201,-2.2961,-0.5010,1.7498,-0.2345,-0.2221,9.6207,-2.9113,-0.7076,1.3855
1.9704,0.4365,0.2992,-0.4123,-1.6533,-7.1167,52.5604,-84.2903,-8.7340,-19.2343,1489,1510,1.0000,-0.2154,-0.3120,9.7446,-1.9068,-0.7147,1.3071,-0.0669,-0.2149,9.6830,-1.3999,-0.5855,1.1260
1.9888,0.3730,0.2632,-0.3922,-0.6419,-6.1455,52.7595,-90.8542,-7.4640,-21.7072,1488,1511,1.0000,-0.0262,-0.1683,9.8356,-0.8457,-2.7758,1.2689,0.0839,-0.1599,9.6231,-0.4381,-0.7076,0.9885
2.0072,0.3245,0.2729,-0.3784,-0.0045,-4.3572,41.7816,-69.1557,-6.4940,-6.9107,1496,1503,0.4288,-0.1124,-0.1612,9.7662,-0.0900,-0.2796,0.8719,0.0911,-0.1958,9.8195,0.0810,-0.1580,0.6756
2.0261,0.2859,0.2683,-0.3699,0.2436,-1.9912,19.6158,-19.6607,-5.7213,-0.0000,1500,1500,0.0000,-0.0167,-0.1420,9.7757,0.1238,0.1937,0.5513,-0.1244,-0.0904,9.8338,0.3635,0.0023,0.3855
2.0446,0.2754,0.2880,-0.3616,0.3429,-0.4988,5.2082,13.9128,-5.5116,0.0000,1500,1500,0.0000,-0.1268,-0.0295,9.7518,0.2535,0.2929,0.4903,-0.1292,-0.0450,9.7476,0.4322,-0.0282,0.4313
2.0629,0.2394,0.2848,-0.3522,0.6215,-0.0020,0.0236,22.8963,-4.7897,0.0000,1500,1500,0.0000,-0.0789,-0.1803,9.9170,0.5665,-0.5697,0.4368,-0.0765,-0.0090,9.8602,0.6765,-0.4633,0.5992
2.0813,0.3146,0.2709,-0.3417,0.9574,0.0000,0.0000,30.1689,-6.2955,0.0000,1500,1500,0.0000,-0.0095,0.3153,9.7877,1.1238,-0.4247,0.5819,0.0073,0.0795,9.8410,0.7910,-0.1809,0.5382
2.0997,0.3269,0.2741,-0.3078,1.3963,0.0000,0.0000,31.3424,-6.5404,0.0000,1500,1500,0.0000,-0.0717,-0.0127,9.9553,1.1161,-0.0811,0.8185,-0.1076,0.0125,9.8865,1.6765,-0.1274,2.6756
2.1181,0.3647,0.2671,-0.2933,1.6406,0.0000,0.0000,34.9666,-7.2967,0.0000,1500,1500,0.0000,-0.0597,0.0878,9.8332,1.5131,-0.3789,0.8109,-0.0861,0.2184,9.8314,1.7681,-0.6542,0.7748
2.1364,0.4184,0.2541,-0.2746,1.4917,0.0000,0.0000,40.1197,-8.3720,0.0000,1500,1500,0.0000,-0.0334,0.1812,9.7135,1.5207,-0.5697,0.9025,0.0001,0.2998,9.9440,1.4627,-0.5397,1.1107
2.1548,0.4712,0.2539,-0.2552,1.0108,0.0000,0.0000,45.1801,-9.4280,0.0000,1500,1500,0.0000,-0.0741,0.2315,9.8859,1.0627,-0.5010,1.0628,-0.0119,0.2831,9.8865,0.9589,-0.2038,1.0344
2.1732,0.5094,0.2443,-0.2309,0.3161,0.0000,0.0000,48.8471,-10.1932,0.0000,1500,1500,0.0000,0.0049,0.2315,9.7829,0.3986,0.1326,1.2536,0.2180,0.2376,9.8985,0.2337,0.0787,1.3626
2.1915,0.5734,0.2408,-0.2078,-0.8518,0.0000,-0.0000,54.9879,-11.4746,0.0000,1500,1500,0.0000,-0.0119,0.4637,9.8500,-0.4793,0.3082,1.2002,0.0456,0.4937,9.9320,-1.2243,0.0787,1.2710
2.2099,0.6154,0.2358,-0.1809,-2.9930,0.0000,-0.0000,59.0155,-12.3150,0.0000,1500,1500,0.0000,-0.0143,0.5499,9.7279,-2.6548,-0.0811,1.3071,-0.0190,0.4842,9.9847,-3.3312,0.1703,1.5534
2.2284,0.6061,0.2574,-0.1521,-4.6991,0.0000,-0.0000,58.1208,-12.1284,0.0000,1500,1500,0.0000,-0.0741,0.4661,9.7781,-4.5709,0.5219,1.5284,-0.0621,0.3477,9.8554,-4.8274,1.0252,1.5458
2.2467,0.5687,0.3332,-0.1198,-4.9090,0.0000,-0.0000,54.5374,-11.3806,0.0000,1500,1500,0.0000,-0.2441,0.3344,9.6297,-5.6930,1.5066,1.6353,-0.1603,0.4842,9.7213,-4.1251,2.0100,1.8130
2.2651,0.5152,0.4106,-0.0865,-6.9739,0.0000,-0.0000,49.4005,-10.3086,0.0000,1500,1500,0.0000,-0.2273,0.4374,9.5914,-6.8228,2.2776,1.7422,-0.2489,0.3573,9.5872,-7.1251,2.0787,1.7824
2.2835,0.4246,0.4809,-0.0570,-8.1381,-0.3133,-3.8957,50.0637,-8.4960,0.0000,1500,1500,0.0000,-0.2369,0.3512,9.4765,-7.9297,1.7127,1.5361,-0.1411,0.3118,9.3837,-8.3465,1.9184,1.5992
2.3018,0.2883,0.4945,-0.0317,-8.8060,-1.8183,-18.0236,70.8990,-5.7683,0.0000,1500,1500,0.0000,0.0264,0.1860,9.6129,-8.4945,1.8273,1.2078,-0.0095,0.2376,9.4603,-9.1174,2.1855,1.4847
2.3202,0.1349,0.5073,0.0026,-9.0694,-3.8441,-29.3163,83.2929,-2.6990,4.7605,1502,1497,0.1930,0.1078,0.1118,9.4214,-9.1663,2.6593,0.9101,0.0911,-0.1072,9.5968,-8.9724,3.3077,2.7061
2.3386,-0.0438,0.5506,0.0117,-8.5121,-5.2530,-26.6740,59.8135,0.8773,13.7790,1507,1492,0.8449,0.0552,-0.0774,9.5627,-8.6701,3.7433,0.5742,-0.1842,-0.1647,9.6519,-8.3541,4.1932,0.4237
2.3570,-0.2294,0.6191,0.0123,-7.2487,-5.7587,-13.5973,10.6320,4.5911,0.6689,1500,1499,0.9816,-0.0765,-0.2473,9.6465,-7.4564,4.2929,0.1697,-0.0885,-0.3227,9.4914,-7.0411,3.5672,-0.0267
2.3753,-0.4209,0.6794,0.0022,-5.8327,-5.7620,-0.1075,-40.0991,8.4215,-15.1624,1491,1508,0.9821,-0.1196,-0.4245,9.6225,-6.1129,3.2853,-0.3952,-0.1842,-0.4256,9.4986,-5.5526,2.9031,-0.5611
2.3937,-0.5744,0.7538,-0.0150,-4.8785,-5.4999,7.4490,-72.9595,11.4942,-24.2358,1486,1513,0.9259,-0.2106,-0.3647,9.6776,-5.0976,2.9570,-0.7769,-0.2034,-0.3490,9.6854,-4.6594,2.8955,-0.9504
2.4121,-0.7140,0.8330,-0.0531,-3.7029,-4.7947,14.3924,-103.0101,14.2876,-23.2274,1487,1512,0.6454,-0.2800,-0.4245,9.6417,-4.0213,2.5677,-0.8838,-0.2441,-0.3873,9.5872,-3.3846,2.4909,-3.0573
2.4305,-0.8218,0.8880,-0.0747,-2.7716,-3.6790,15.6890,-116.4611,16.4451,-5.3276,1497,1502,0.1305,-0.2273,-0.3886,9.8332,-4.1739,2.0410,-1.3418,-0.1866,-0.3993,9.6950,-1.3694,2.0252,-0.8664
2.4489,-0.8699,0.9185,-0.0993,0.3161,-1.4677,15.1226,-119.7094,17.4066,-0.0000,1500,1500,0.0000,-0.1172,-0.3982,9.9697,-0.1434,2.1479,-1.3036,-0.0765,-0.3227,9.7452,0.7757,2.0787,-1.2176
2.4673,-0.8523,0.9618,-0.1194,2.0375,-0.0695,1.0831,-84.3245,17.0539,-0.0000,1500,1500,0.0000,-0.1292,-0.2473,9.9481,1.8108,2.6822,-1.0594,-0.1004,-0.0617,9.7883,2.2642,2.7733,-1.0115
2.4857,-0.7967,1.0180,-0.1350,2.8696,0.0000,0.0000,-76.3946,15.9416,-0.0000,1500,1500,0.0000,-0.1579,-0.1372,9.9601,2.5971,3.2089,-0.7464,-0.0789,-0.0019,9.9559,3.1421,3.1626,-0.8588
2.5041,-0.7162,1.0756,-0.1452,3.9535,0.0000,0.0000,-68.6786,14.3315,-0.0000,1500,1500,0.0000,-0.2202,-0.1013,10.1014,3.6200,2.8502,-0.5174,-0.3231,-0.1838,9.9535,4.2871,2.4603,-0.5382
2.5225,-0.6306,1.1343,-0.1546,5.5413,0.0000,0.0000,-60.4698,12.6185,-0.0000,1500,1500,0.0000,-0.2609,-0.2042,10.1852,5.1772,2.4914,-0.4716,-0.2417,-0.2365,9.8602,5.9055,2.3611,-0.4695
2.5410,-0.5166,1.1828,-0.1639,6.3390,0.0000,0.0000,-49.5338,10.3365,-0.0000,1500,1500,0.0000,-0.2680,-0.1276,10.1205,6.2535,1.9952,-0.3876,-0.2824,-0.1240,10.0780,6.4245,1.7046,-0.5611
2.5594,-0.3760,1.1952,-0.1710,7.0261,0.0000,0.0000,-36.0578,7.5244,-0.0000,1500,1500,0.0000,-0.2249,-0.0367,10.2713,6.7726,0.9494,-0.4334,-0.1962,-0.0785,10.0852,7.2795,0.1474,-0.3626
2.5778,-0.2240,1.1427,-0.1752,8.1100,0.0000,0.0000,-21.4768,4.4817,-0.0000,1500,1500,0.0000,0.0384,-0.0534,10.1349,7.9711,-0.1117,-0.2655,0.0935,0.0317,10.0325,8.2490,0.0710,-0.1947
2.5962,-0.0468,1.0855,-0.1763,8.9421,0.2970,4.3526,-14.9341,0.9365,-0.0000,1500,1500,0.0000,0.0911,0.0184,10.1253,8.5055,0.0715,-0.1052,0.1174,0.0724,10.1235,9.3787,0.3535,-0.0267
2.6146,0.1227,1.0423,-0.1748,10.1253,2.3147,27.5377,-54.3291,-2.4543,-0.0000,1500,1500,0.0000,0.0264,-0.0893,10.0870,9.5513,0.5219,0.2078,-0.0526,-0.0545,10.1355,10.6994,-0.3030,0.0038
2.6330,0.2765,1.0173,-0.1697,11.4497,5.2418,53.2830,-101.3689,-5.5320,-21.5354,1488,1511,0.8407,-0.1244,-0.2593,10.2091,10.9100,-0.4552,0.4368,-0.0549,0.0125,10.0445,11.9894,-0.8450,0.2328
2.6514,0.4772,0.9520,-0.1622,13.1062,6.6939,61.3741,-101.5422,-9.5481,-23.6578,1486,1513,1.0000,0.0169,-0.1492,10.2067,12.7039,-1.3254,0.4597,0.0696,-0.1790,10.0828,13.5085,-1.2801,0.4618
2.6698,0.7111,0.8620,-0.1526,14.5948,7.8791,64.4416,-86.4677,-14.2300,-17.0960,1490,1509,1.0000,0.1342,-0.0821,10.0774,14.1925,-1.3331,0.7269,0.1869,-0.0737,9.9751,14.9971,-1.5549,0.4237
2.6882,0.9880,0.7730,-0.1418,16.3009,9.1423,68.7676,-70.3014,-19.7700,-9.7994,1494,1505,1.0000,0.1126,0.0160,10.2713,15.8184,-1.7987,0.8338,0.0743,0.0125,10.0924,16.7833,-1.9290,0.4618
2.7066,1.2870,0.6874,-0.1311,17.4001,10.3810,67.1658,-37.7823,-25.7537,2.2978,1501,1498,1.0000,0.0719,0.0663,10.1421,17.1543,-2.0735,0.8032,0.1055,0.2088,10.0996,17.6459,-2.4481,0.4924
2.7250,1.6274,0.5785,-0.1183,17.8238,11.4974,60.7481,10.2620,-32.5780,19.1623,1510,1489,1.0000,0.1485,0.2890,10.1828,17.5665,-2.5926,0.8948,0.0839,0.3477,10.0445,18.0810,-3.1503,0.6450
2.7434,1.9913,0.4681,-0.1027,17.9192,12.4607,52.4263,65.1276,-39.8754,38.1734,1520,1479,1.0000,0.1078,0.4518,10.1325,17.7955,-3.4018,1.0704,0.2276,0.5704,10.0493,18.0429,-3.7458,0.8282
2.7618,2.3622,0.3232,-0.0867,18.0681,13.3018,45.6597,140.3169,-47.3163,62.9469,1534,1465,1.0000,0.2395,0.5380,10.1828,17.7497,-3.3483,1.1315,0.2084,0.5416,10.1570,18.3864,-5.1045,0.9122
2.7802,2.7502,0.2122,-0.0666,18.6139,14.0986,43.3707,191.5620,-55.1045,81.1896,1544,1455,1.0000,0.1294,0.6361,10.0559,18.2612,-4.7071,1.3300,0.0648,0.5991,10.0373,18.9665,-3.0435,1.1947
2.7989,3.1527,0.1401,-0.0473,19.0566,14.8423,39.7485,248.3157,-63.1867,101.1217,1555,1444,1.0000,-0.0119,0.7032,10.0990,18.6658,-3.2109,1.4521,-0.0023,0.6829,10.0996,19.4474,-3.7992,0.9504
2.8173,3.5654,0.0470,-0.0297,19.7093,15.5723,39.5361,296.4154,-71.4756,118.7341,1565,1434,1.0000,0.0336,0.7750,9.8931,19.3986,-3.8445,1.5361,0.0265,0.7571,10.1283,20.0200,-4.7839,0.8664
2.8357,3.9626,-0.0429,-0.0112,19.3352,16.1368,30.6809,367.6297,-79.4595,142.6661,1578,1421,1.0000,0.0240,0.8229,9.9362,19.0932,-4.4705,1.4597,-0.0095,0.4866,9.7907,19.5772,-4.4175,1.1260
2.8541,4.2939,-0.1555,0.0047,19.6558,16.6646,28.7417,411.3416,-86.1285,158.2399,1587,1412,1.0000,0.1749,0.5499,9.9026,19.3986,-4.2185,1.2994,0.0576,0.3621,9.7165,19.9131,-4.0664,1.0496
2.8727,4.5716,-0.2388,0.0201,19.8314,17.1397,25.5130,452.5986,-91.7282,172.5917,1594,1405,1.0000,0.1031,0.3129,9.7231,19.2765,-3.5315,1.3071,0.0935,0.2878,9.7165,20.3864,-3.4633,0.8664
2.8911,4.8269,-0.3152,0.0297,20.2589,17.6075,25.5099,481.9896,-96.8826,183.3984,1600,1399,1.0000,0.1557,0.2411,9.7710,19.9100,-2.7071,1.0246,0.0839,0.1586,9.5968,20.6077,-2.8603,0.4313
2.9094,5.1085,-0.3793,0.0308,20.8772,18.0980,26.6906,510.9951,-102.5652,194.3612,1606,1393,1.0000,0.1078,0.3512,9.7686,20.7726,-2.9895,0.4903,0.0001,0.2759,9.7093,20.9818,-2.7381,0.0649
2.9279,5.4050,-0.4248,0.0251,20.6444,18.4800,20.7308,562.2791,-108.5484,211.7124,1616,1383,1.0000,0.0049,0.4853,9.7686,20.7726,-3.1422,0.2078,-0.1100,0.3597,9.5896,20.5161,-3.2954,-0.3168
2.9462,5.7004,-0.4446,0.0154,20.1635,18.7325,13.7335,616.4305,-114.5136,229.8573,1626,1373,1.0000,-0.1675,0.5571,9.3999,19.9253,-4.1193,0.0933,-0.1340,0.2711,9.7931,20.4016,-3.8526,-0.4542
2.9646,5.9609,-0.5079,0.0017,20.3467,18.9746,13.1770,648.0154,-119.7833,241.3360,1632,1367,1.0000,0.0456,0.4470,9.8571,20.0703,-4.0353,-0.0594,-0.1579,0.5967,9.7740,20.6230,-3.7839,-0.7519
2.9833,6.2295,-0.5616,-0.0163,20.5871,19.2165,12.9808,679.5003,-125.2184,252.8693,1639,1360,1.0000,0.0240,0.4805,9.5675,20.1085,-3.8521,-0.3723,0.1438,0.4937,9.8769,21.0658,-3.4862,-0.9046
3.0016,6.4815,-0.6046,-0.0388,19.6139,19.2761,3.2400,736.5540,-130.3224,271.3963,1649,1350,1.0000,0.0480,0.5427,9.5914,19.7650,-2.7529,-0.5555,-0.0382,0.7571,9.8027,19.4627,-3.3335,-1.3702
3.0201,6.8037,-0.6943,-0.0665,17.8848,19.0674,-11.3380,815.6220,-136.8339,296.7911,1663,1336,1.0000,0.2515,1.0575,9.5986,18.2917,-3.6308,-0.8303,0.2994,1.0420,10.0469,17.4780,-2.8450,-1.4542
3.0385,7.0573,-0.7758,-0.0955,15.6635,18.5568,-27.6535,891.8043,-141.9771,320.6937,1676,1323,1.0000,0.3736,0.9641,9.4621,15.7803,-1.8750,-1.2502,0.5077,1.0875,9.7452,15.5467,-1.0206,-1.5992
3.0569,7.2531,-0.7664,-0.1227,13.3810,17.7804,-42.2362,956.3476,-145.9668,340.7607,1687,1312,1.0000,0.1102,0.9426,9.5435,13.6734,0.4685,-1.3800,0.1414,1.3437,9.9320,13.0887,-0.3106,-1.7061
3.0752,7.4321,-0.7279,-0.1541,10.6787,16.7152,-58.0774,1022.5638,-149.6192,361.1275,1698,1301,1.0000,-0.0358,1.1341,9.5818,11.2154,-0.2873,-1.6319,-0.2848,1.3581,9.8530,10.1421,0.0176,-1.8282
3.0937,7.5386,-0.6766,-0.1902,6.1558,15.1313,-85.9405,1115.0704,-151.8249,388.1322,1713,1286,1.0000,-0.1172,1.2107,9.5435,6.6429,0.0715,-2.1815,-0.2513,1.1737,9.5657,5.6688,-0.8145,-1.6756
3.1121,7.6266,-0.6576,-0.2328,2.0642,13.1712,-106.5390,1184.5301,-153.6622,408.4996,1724,1275,1.0000,-0.0095,1.4693,9.3855,2.9482,-0.5239,-2.4716,0.0767,1.3341,9.7093,1.1803,-0.9061,-1.9351
3.1304,7.6634,-0.5909,-0.2718,-2.3022,10.8502,-126.2764,1245.6058,-154.4741,426.0067,1734,1265,1.0000,-0.1723,1.6010,9.2921,-1.2121,-0.1040,-2.1891,-0.0597,1.5280,9.9344,-3.3923,0.0481,-1.9809
3.1488,7.6097,-0.5907,-0.3111,-7.3900,8.1142,-148.6975,1304.0038,-153.4774,441.8598,1743,1256,1.0000,0.1940,1.6800,9.6536,-6.0671,0.1860,-2.4639,-0.2656,1.7986,10.0756,-8.7129,1.2466,-1.9351
3.1672,7.5030,-0.5079,-0.3553,-11.9167,4.0264,-128.7827,1234.3666,-151.4184,421.3319,1731,1268,1.0000,-0.1651,1.7877,9.4573,-11.0594,0.7204,-2.5861,-0.2249,1.3509,9.7644,-12.7739,1.3535,-2.4008
3.1856,7.2995,-0.4083,-0.3954,-15.1686,0.0000,-0.0000,840.0483,-147.4215,308.9243,1669,1330,1.0000,-0.2800,1.6513,9.7997,-14.0442,-0.7147,-2.1433,-0.3925,1.3676,9.7740,-16.2930,2.5290,-2.4008
3.2041,6.8984,-0.3000,-0.4423,-19.4587,0.0000,-0.0000,793.8714,-139.4672,292.0176,1660,1339,1.0000,-0.2896,1.0168,9.4956,-18.3037,1.5601,-2.5784,-0.1220,1.3485,9.8865,-20.6136,1.0252,-2.8817
3.2225,6.4582,-0.1635,-0.4930,-23.1877,-2.1547,-86.6880,992.8617,-130.7273,343.3649,1688,1311,1.0000,-0.5530,1.1413,9.9457,-22.3648,0.1860,-2.8838,-0.5817,0.8241,9.6255,-24.0106,0.1779,-2.6527
3.2409,5.8597,-0.1755,-0.5485,-25.5503,-7.6279,-171.4371,1168.0545,-118.8161,386.4633,1712,1287,1.0000,0.1773,0.5044,9.6034,-24.7541,0.0639,-3.1815,-0.2561,0.4914,9.7955,-26.3465,1.3993,-3.0802
3.2594,5.2850,-0.0787,-0.6044,-24.0197,-10.0867,-133.0846,991.4629,-107.3762,331.2977,1682,1317,1.0000,-0.3566,0.3967,10.0415,-24.2808,0.5906,-3.1128,0.0241,0.8289,9.4172,-23.7587,0.6665,-3.0954
3.2778,4.8320,0.0120,-0.6822,-23.4434,-12.0902,-108.8458,869.5178,-98.3641,292.6470,1660,1339,1.0000,-0.2417,0.8205,10.0271,-22.9526,0.6975,-5.3113,-0.1220,0.9678,9.4005,-23.9342,2.6588,-3.4466
3.2962,4.4221,0.0902,-0.7431,-23.8480,-13.8538,-95.9663,785.2514,-90.2103,264.9755,1645,1354,1.0000,-0.1364,0.9522,9.6991,-24.0594,2.5219,-4.0975,-0.3183,0.9654,9.8841,-23.6365,2.2237,-2.9427
3.3146,3.9157,0.1077,-0.8102,-27.2945,-15.8699,-109.4053,638.0633,-80.1210,218.7182,1620,1379,1.0000,-0.1531,0.7223,9.5579,-26.7388,-0.4247,-3.7769,0.1103,0.8648,9.6399,-27.8503,-1.3335,-3.3855
3.3330,3.3695,0.0910,-0.8711,-26.6800,-17.4915,-88.0165,534.3477,-69.2303,184.2325,1601,1398,1.0000,-0.0430,0.4206,9.9769,-27.0136,-2.7376,-3.7082,0.2132,0.5560,9.6662,-26.3465,0.0329,-2.7595
3.3515,2.8187,-0.0240,-0.9265,-23.6877,-18.4209,-50.3190,391.0540,-58.2424,138.6163,1576,1423,1.0000,0.6441,0.0424,10.0032,-24.6319,1.5830,-3.5632,0.5939,0.3836,9.6758,-22.7434,0.7733,-2.6527
3.3699,2.4624,0.0485,-0.9730,-21.1113,-18.8245,-21.8760,288.6264,-51.1417,106.3862,1558,1441,1.0000,0.0719,0.6241,9.7422,-21.1587,4.8273,-3.2197,-0.0262,1.0588,9.6088,-21.0640,4.3687,-2.2939
3.3883,2.1555,0.1771,-1.0163,-22.4434,-19.3673,-29.5004,277.4993,-45.0262,100.2129,1555,1444,1.0000,-0.3494,0.8636,9.2179,-22.2274,2.6211,-2.8914,-0.6391,0.9367,9.6159,-22.6594,2.5977,-2.0496
3.4067,1.7570,0.2244,-1.0617,-22.1266,-19.7812,-22.5323,222.5592,-37.0731,80.8531,1544,1455,1.0000,-0.3303,0.3895,9.3065,-22.5251,-0.9361,-2.9525,-0.1866,0.1466,9.1994,-21.7281,-1.3870,-1.9351
3.4252,1.3241,0.2571,-1.1047,-18.1915,-19.5427,12.9264,95.9438,-28.4278,41.0782,1522,1477,1.0000,-0.0693,-0.1468,9.5531,-19.5938,0.5219,-2.6166,0.0145,-0.3658,9.3215,-16.7892,2.1168,-2.0954
3.4435,0.9742,0.2757,-1.1466,-13.4892,-18.6347,49.4066,-25.1576,-21.4402,3.6760,1502,1497,1.0000,0.1701,-0.2569,9.9338,-14.5022,3.4150,-2.5555,0.1557,-0.1479,9.2305,-12.4762,3.4756,-2.1336
3.4619,0.7543,0.3643,-1.1872,-9.8632,-17.3190,71.6162,-99.5507,-15.0930,-20.3277,1488,1511,1.0000,-0.2178,-0.0127,9.6034,-10.7312,3.2929,-2.5326,-0.4332,-0.1814,9.2999,-8.9953,2.1550,-1.9656
3.4804,0.5804,0.4075,-1.2270,-6.8632,-15.7506,85.0719,-148.5139,-11.6146,-35.7766,1480,1519,1.0000,-0.2297,-0.0893,9.6632,-7.4487,0.6975,-2.2044,-0.4500,-0.1455,9.4220,-6.2777,-0.1198,-2.0878
3.4987,0.5012,0.4682,-1.2631,-4.0808,-14.0002,95.2001,-180.4242,-10.0281,-45.5047,1474,1525,1.0000,-0.4213,0.0783,9.5890,-4.5022,-0.6918,-1.9067,-0.2441,0.0293,9.3885,-3.6594,-1.0664,-1.9885
3.5171,0.5043,0.4303,-1.2957,-1.2487,-12.0874,104.1436,-201.5892,-10.0906,-51.3997,1471,1528,1.0000,0.0145,0.2076,9.7566,-2.0136,-1.6079,-1.6853,0.2300,0.0412,9.6614,-0.4839,-0.3030,-1.8664
3.5355,0.5555,0.3931,-1.3233,1.3772,-10.0677,109.5281,-209.6017,-11.1152,-53.1309,1470,1529,1.0000,0.2707,0.2076,9.8164,1.0627,1.3463,-1.4334,0.2778,0.1322,9.6471,1.6917,2.5825,-1.6069
3.5539,0.6791,0.3912,-1.3451,2.0795,-8.2457,99.1076,-172.7394,-13.5887,-41.5727,1477,1522,1.0000,0.2730,0.4901,9.7614,2.1925,4.9570,-1.2655,0.2036,0.5919,9.7620,1.9665,2.8497,-1.2405
3.5723,0.8717,0.4958,-1.3599,1.7284,-6.7496,81.5087,-112.0306,-17.4432,-22.6470,1487,1512,1.0000,-0.3471,0.8444,9.4597,1.8413,2.7356,-0.9448,-0.4572,0.6470,9.6734,1.6154,1.8268,-0.8664
3.5907,1.0064,0.5529,-1.3722,1.9345,-4.9599,64.4214,-58.1068,-20.1380,-4.4816,1497,1502,0.7227,-0.3279,0.6074,9.7303,1.6276,0.5295,-0.5784,-0.1723,0.5009,9.7381,2.2413,0.0252,-0.8511
3.6093,1.1171,0.5319,-1.3811,3.7589,-1.1755,21.4123,55.7290,-22.3629,0.2647,1500,1499,0.0099,0.0097,0.3632,10.0008,3.4520,-0.0201,-0.4639,0.1414,0.4435,9.8554,4.0658,0.2313,-0.5305
3.6278,1.2865,0.4743,-1.3807,4.0452,0.0000,0.0000,123.3677,-25.7649,2.6414,1501,1498,0.0557,0.2371,0.6361,9.8643,4.0627,-0.8216,-0.1128,0.2802,0.7164,9.9440,4.0276,2.0481,0.0267
3.6462,1.4516,0.5131,-1.3738,3.5337,0.0000,0.0000,139.1995,-29.0814,6.9546,1503,1496,0.1300,0.0552,0.6912,9.9314,3.2535,2.7280,0.3147,-0.0310,0.7763,10.0230,3.8139,4.5290,0.1870
3.6646,1.5710,0.5895,-1.3801,3.9955,0.0000,0.0000,150.6408,-31.4834,11.4661,1506,1493,0.1980,-0.3040,0.4613,9.8787,3.8032,1.9723,-1.4639,-0.4835,0.6135,9.7357,4.1879,1.2695,0.5305
3.6829,1.6835,0.6303,-1.3696,4.8696,0.0000,0.0000,161.4357,-33.7517,16.7964,1509,1490,0.2706,-0.2561,0.3847,10.0415,4.6352,0.6211,0.7498,-0.0526,0.4028,9.8410,5.1039,0.4832,0.3626
3.7014,1.8014,0.6090,-1.3591,5.2971,0.0000,0.0000,172.7344,-36.1262,23.4476,1512,1487,0.3530,0.0001,0.3919,10.1085,5.2459,-0.0582,0.4826,0.0456,0.4339,9.9104,5.3482,0.3077,0.6145
3.7197,1.9407,0.5750,-1.3468,5.8390,0.0000,0.0000,186.0972,-38.9327,32.6075,1517,1482,0.4556,0.1964,0.4733,10.1301,5.7192,0.9494,0.5742,0.1941,0.4123,9.9487,5.9589,2.1855,0.6298
3.7381,2.0755,0.6079,-1.3327,5.6978,0.0000,0.0000,199.0278,-41.6503,42.6058,1523,1476,0.5566,0.1102,0.4853,10.0463,5.7650,5.0181,0.7116,0.1055,0.4842,10.0661,5.6306,3.5290,0.5153
3.7565,2.1831,0.6864,-1.3207,4.9994,0.0000,0.0000,209.3432,-43.8235,51.1999,1528,1471,0.6358,-0.2393,0.4398,10.0487,4.9406,3.1021,0.6429,-0.2561,0.3262,10.1977,5.0581,2.4909,0.4542
3.7749,2.2673,0.7369,-1.3102,5.7093,0.0001,0.0005,217.4180,-45.5306,58.1922,1532,1467,0.6957,-0.3494,0.2842,10.0822,5.4215,0.8273,0.6277,-0.3255,0.2088,10.1235,5.9971,-0.3794,0.5305
3.7932,2.3571,0.7164,-1.3063,6.5833,0.3073,2.5363,219.9391,-47.3493,64.4919,1535,1464,0.7564,-0.0861,0.2506,10.1780,6.3070,-0.7376,0.2842,0.0001,0.2591,10.0732,6.8597,-0.4481,0.2328
3.8116,2.4820,0.6476,-1.3064,7.5146,1.3381,10.4472,212.9353,-49.8731,70.4821,1538,1461,0.8335,0.1869,0.3560,10.2785,7.1696,-0.2185,0.2384,0.2539,0.2998,10.1594,7.8597,-0.1961,-0.1718
3.8300,2.6129,0.6283,-1.3025,8.3085,3.0070,21.4421,199.0973,-52.5167,73.9792,1540,1459,0.9021,0.0671,0.3297,10.0750,7.8413,0.9952,0.2689,-0.0645,0.2591,10.0948,8.7757,0.9871,0.1107
3.8484,2.7376,0.6208,-1.3048,9.5490,5.0494,35.9891,211.3716,-55.0381,82.6180,1545,1454,0.9529,-0.0669,0.2147,10.0559,8.9940,-0.7987,0.0399,-0.1435,0.1418,9.9583,10.1039,0.8115,-0.2176
3.8668,2.8813,0.6392,-1.3179,9.9917,6.1589,36.6399,226.0357,-57.9413,92.2607,1550,1449,1.0000,-0.1459,0.2866,10.0463,10.0856,0.7738,-0.4945,-0.1651,0.3549,10.1068,9.8978,0.3306,-0.9122
3.8853,3.0408,0.6370,-1.3345,8.4917,6.5088,19.0088,295.1647,-61.1612,113.2267,1562,1437,1.0000,-0.0574,0.5212,9.9457,8.7879,0.3158,-0.7616,-0.0286,0.3740,10.0924,8.1955,0.5825,-1.0725
3.9036,3.2009,0.6323,-1.3697,8.4497,6.7999,15.8713,322.6187,-64.3942,122.5303,1567,1432,1.0000,0.1150,0.5763,10.2737,8.4368,3.0639,-0.9372,0.1581,0.3740,10.0277,8.4627,1.4298,-3.0115
3.9220,3.3659,0.6160,-1.3902,8.9306,7.1196,17.3541,337.3355,-67.7278,128.3178,1570,1429,1.0000,0.0624,0.5739,10.1875,8.6810,1.2776,-1.0212,0.0169,0.4746,10.0182,9.1803,0.7581,-1.3015
3.9404,3.4948,0.5781,-1.4200,9.1711,7.4273,16.7286,353.9771,-70.3419,134.2845,1573,1426,1.0000,0.1126,0.4039,10.1564,9.0474,0.2089,-1.4181,-0.1268,0.5225,10.3773,9.2948,0.3611,-1.7901
3.9587,3.6431,0.5614,-1.4559,9.9650,7.8079,20.7676,359.4082,-73.3438,137.3062,1575,1424,1.0000,-0.0334,0.4518,10.0750,9.3223,-0.0964,-1.8914,-0.2944,0.2376,9.9751,10.6077,-0.5091,-1.9427
3.9771,3.7350,0.5249,-1.5023,13.5871,8.6748,47.1290,294.0635,-75.2192,119.9474,1565,1434,1.0000,-0.0597,-0.1252,10.4868,12.4673,-1.0811,-2.1891,-0.3327,-0.1287,10.4443,14.7070,-2.2954,-2.4542
3.9955,3.9605,0.4338,-1.5478,16.4917,9.8474,63.8315,271.9125,-79.7692,116.0201,1563,1436,1.0000,0.0264,0.2794,10.1612,15.9940,-4.6918,-2.1968,-0.0454,0.6925,10.4587,16.9894,-3.0129,-2.1794
4.0139,4.3192,0.3616,-1.5895,15.5910,10.7089,46.9117,361.9262,-86.9872,144.8329,1579,1420,1.0000,0.0384,1.0551,10.1373,16.0093,-2.8521,-2.1815,0.1390,1.2096,10.2432,15.1726,-2.7076,-2.0420
4.0324,4.6347,0.2925,-1.6333,11.6024,10.8429,7.2326,512.5005,-93.3417,190.1710,1604,1395,1.0000,0.0815,1.1940,9.6225,12.5131,-2.3865,-2.1433,0.1581,1.2551,10.0661,10.6917,-2.0740,-2.2939
4.0509,4.8362,0.2225,-1.6858,6.9841,10.2641,-31.2394,646.4898,-97.4201,229.7272,1626,1373,1.0000,0.1725,1.0958,9.4477,7.3681,-2.6918,-2.6395,0.1917,1.0372,9.8649,6.6001,-0.2114,-2.8435
4.0693,4.9313,0.1536,-1.7388,6.2398,9.6605,-32.8468,662.0713,-99.3727,235.0663,1629,1370,1.0000,0.2467,0.7343,9.7901,5.9787,-0.0201,-2.8990,0.4047,0.8241,9.8578,6.5009,-1.1503,-2.7748
4.0877,5.0412,0.1447,-1.7920,6.1978,9.1411,-28.2284,661.4112,-101.6199,236.0051,1629,1370,1.0000,0.1605,0.8348,9.9481,6.4139,1.3921,-2.9754,0.2252,1.1426,10.0661,5.9818,1.4451,-3.0649
4.1061,5.2026,0.0852,-1.8443,5.2856,8.5627,-31.4654,689.3175,-104.9013,245.4596,1635,1364,1.0000,0.3473,1.1557,9.7853,4.8642,0.9570,-2.8456,0.2611,1.6047,10.3677,5.7070,0.6665,-3.0038
4.1244,5.3636,0.1699,-1.8926,-0.2373,7.2427,-71.9120,824.3318,-108.1748,284.9003,1656,1343,1.0000,-0.4069,1.5699,9.1197,0.9253,0.1555,-2.6319,-0.4093,1.7244,9.7788,-1.3999,-1.0206,-2.6069
4.1430,5.4267,0.1729,-1.9400,-4.2297,5.1458,-86.5223,873.6682,-109.4904,299.3723,1664,1335,1.0000,-0.2872,1.5268,9.4382,-4.3419,-2.8750,-2.3494,-0.2752,1.5927,10.1786,-4.1174,-3.4023,-2.2481
4.1614,5.3467,0.1555,-1.9832,-7.6495,0.3098,-9.3772,642.2812,-107.9435,233.8105,1628,1371,1.0000,-0.1795,1.2227,9.7734,-7.1663,-3.2185,-2.2044,-0.0262,1.0731,9.9799,-8.1327,-2.5778,-2.0115
4.1797,5.2167,0.0413,-2.0172,-7.9701,0.0000,-0.0000,600.3209,-105.3970,220.7884,1621,1378,1.0000,0.4071,0.9833,9.6967,-7.8915,-1.5163,-2.0975,0.4287,1.0277,9.5872,-8.0487,-1.1198,-1.4847
4.1981,5.0604,0.0515,-2.0429,-10.6877,0.0000,-0.0000,582.3282,-102.3209,214.2123,1617,1382,1.0000,0.2611,1.0431,9.3352,-9.8915,3.2547,-1.9601,0.3856,0.9558,9.8362,-11.4839,4.0634,-1.5687
4.2165,4.7662,0.1652,-2.0662,-13.1228,0.0000,-0.0000,548.4713,-96.4849,201.8144,1610,1389,1.0000,-0.3231,0.6050,9.4621,-13.0747,3.2242,-1.6319,-0.4955,0.3405,9.7237,-13.1709,1.4603,-1.3168
4.2348,4.2873,0.3287,-2.0952,-11.3174,-0.1755,-3.9126,504.6241,-86.9495,184.7695,1601,1398,1.0000,-0.8618,-0.4604,9.6345,-12.2045,-0.7224,-1.3494,-0.7301,-0.4400,9.7381,-10.4304,-1.2725,-1.4771
4.2537,3.8967,0.2265,-2.1363,-8.4816,-1.4139,-13.6897,487.8341,-79.1769,176.1820,1596,1403,1.0000,0.0456,-0.3407,10.3911,-8.5861,-4.9666,-1.5708,0.1294,-0.1575,9.7859,-8.3770,-3.9366,-1.9962
4.2725,3.5936,0.1621,-2.1711,-10.1877,-3.9245,-37.0889,520.3380,-73.1500,182.2696,1600,1399,1.0000,0.1126,0.1621,9.6991,-9.5938,-2.1804,-1.6624,-0.2848,0.3285,9.9104,-10.7816,-1.5931,-1.7519
4.2910,3.2786,0.1621,-2.2086,-11.5388,-6.0444,-52.4039,440.1626,-66.8826,156.6868,1586,1413,1.0000,-0.4189,0.1501,10.3144,-11.4564,-3.8827,-1.5250,-0.3758,0.3238,9.4843,-11.6213,-4.8526,-1.9046
4.3094,2.8984,0.2285,-2.2498,-10.9129,-6.7747,-39.6444,373.0788,-59.3074,134.1158,1573,1426,1.0000,-0.7948,-0.2785,9.3352,-11.5403,-6.2262,-1.7845,-0.2656,0.2783,9.6231,-10.2854,-5.4099,-1.9351
4.3278,2.7132,0.1283,-2.2855,-9.7487,-7.2208,-24.2395,318.3530,-55.6318,116.9547,1564,1435,1.0000,0.1653,0.4613,9.4669,-9.5938,-3.7224,-1.9983,0.1510,0.1945,9.9894,-9.9037,-2.5931,-1.6450
4.3462,2.5030,0.1874,-2.3178,-10.9816,-7.7849,-30.7079,313.7129,-51.4513,113.5653,1562,1437,1.0000,-0.4261,0.4230,9.9098,-11.9602,-2.7376,-1.7540,0.1103,0.1945,9.9032,-10.0029,-0.3717,-1.6298
4.3645,2.3006,0.2440,-2.3540,-10.3098,-8.1636,-20.6274,270.1181,-47.4279,99.3470,1554,1445,1.0000,-0.3447,0.3704,9.6752,-10.4945,-0.4323,-1.7235,-0.0549,-0.0689,9.3310,-10.1251,-0.7839,-2.1031
4.3829,1.9216,0.1753,-2.3990,-9.0770,-8.3006,-7.4640,202.1817,-39.8669,76.5443,1542,1457,1.0000,0.0312,-0.5706,9.2993,-10.0136,-2.9361,-2.2655,-0.1052,-0.8901,9.2664,-8.1403,-3.0282,-2.3244
4.4014,1.5612,0.1291,-2.4420,-2.2029,-7.3860,49.4349,31.0654,-32.6747,25.0357,1513,1486,1.0000,0.2587,-1.1859,9.9553,-3.5556,-0.5850,-2.5403,-0.0071,-1.3450,8.5817,-0.8503,1.6588,-2.1183
4.4199,1.5391,0.2285,-2.4810,0.8848,-6.1454,66.9612,-13.1178,-32.2480,12.4510,1506,1493,1.0000,-0.1962,0.0807,9.2371,1.0398,2.8883,-2.2578,-0.1699,0.3740,9.4819,0.7299,3.3382,-2.1336
4.4384,1.7342,0.3640,-2.5144,-2.3671,-5.2793,29.0336,96.6117,-36.1661,38.5722,1521,1478,0.8546,-0.5649,1.3424,9.4238,-1.4793,1.7509,-1.9525,-0.5673,1.2599,9.8075,-3.2548,0.3306,-1.8588
4.4568,1.7388,0.4632,-2.5480,-3.2182,-4.3578,16.0727,128.1606,-36.2759,23.1821,1512,1487,0.4291,-0.6727,0.5691,9.3496,-3.9220,-1.6995,-1.5937,-0.4644,0.1586,9.1946,-2.5144,-2.3946,-1.9351
4.4752,1.5966,0.4683,-2.5895,3.4726,-0.8798,15.8795,114.9867,-33.4475,10.4613,1505,1494,0.2138,-0.3279,-0.6855,9.9026,2.1390,-2.6460,-1.8685,-0.0885,-0.4975,8.9336,4.8062,-2.5473,-2.2481
4.4936,1.6549,0.3608,-2.6344,7.1215,0.0000,0.0000,158.6925,-34.6310,15.5277,1508,1491,0.2515,0.1988,-0.0678,9.4717,6.8795,-2.0430,-2.2197,0.0456,0.1370,9.5202,7.3635,-3.0511,-2.4237
4.5119,1.7998,0.2997,-2.6853,6.8963,0.0000,0.0000,172.5855,-37.5466,23.6086,1512,1487,0.3519,0.1533,0.3584,9.5770,6.7879,-0.7605,-2.5097,0.2826,0.4459,9.4077,7.0047,-0.8832,-2.9351
4.5304,1.9156,0.2651,-2.7402,7.2245,0.0000,0.0000,183.6917,-39.8821,31.1811,1517,1482,0.4369,0.1845,0.2171,9.5315,6.8413,0.3769,-2.8532,0.1629,0.2735,9.5441,7.6077,1.1932,-3.1183
4.5488,2.0022,0.1693,-2.8067,10.9192,0.0000,0.0000,191.9982,-41.6346,37.4138,1520,1479,0.5017,0.4598,-0.2186,10.0654,9.9177,0.5143,-3.3571,0.4430,-0.2125,9.7213,11.9207,0.3382,-3.7901
4.5671,2.1856,0.1031,-2.8820,14.4955,0.6717,18.1800,165.9467,-45.3232,44.0741,1524,1475,0.6376,0.3161,-0.0510,9.9529,13.8184,0.0715,-3.7922,0.2922,0.0748,9.2927,15.1726,0.3229,-4.3473
4.5855,2.4494,-0.0055,-2.9655,15.5604,5.2518,90.4103,17.8943,-50.6243,25.6051,1514,1485,0.8444,0.6585,0.2722,10.0128,15.4215,0.9570,-4.2655,0.5484,0.3669,10.0756,15.6994,2.1321,-4.8511
4.6038,2.7563,-0.0443,-3.0559,13.3658,6.7365,63.7184,133.6552,-56.7887,65.8178,1536,1463,1.0000,0.4957,0.7055,9.7446,13.6810,3.2089,-4.8914,0.3138,0.7044,9.9128,13.0505,3.5519,-5.2176
4.6222,2.9909,-0.0171,-3.1552,12.5795,7.6130,47.7859,206.5408,-61.5112,88.5871,1548,1451,1.0000,0.1462,0.4925,9.6872,13.3910,3.2700,-5.5174,-0.0956,0.3860,9.6973,11.7681,2.3611,-5.5916
4.6406,3.1233,0.0228,-3.2667,13.0184,8.4238,44.0629,232.4981,-64.1903,97.1946,1553,1446,1.0000,-0.1076,0.0040,10.1085,12.0780,0.9112,-6.0212,-0.2728,0.1586,9.7883,13.9589,0.2313,-6.1641
4.6589,3.3049,0.0474,-3.3858,16.2703,9.6008,64.1236,195.6217,-67.8554,88.7018,1548,1451,1.0000,0.0049,-0.0223,10.0295,15.5589,0.6669,-6.2960,0.1222,0.3262,9.7309,16.9818,1.4680,-6.7901
4.6773,3.5557,0.0702,-3.5129,18.1558,10.8840,70.0840,207.3194,-72.9073,94.5031,1551,1448,1.0000,0.2132,0.1740,9.9002,17.6352,3.1479,-7.0517,0.0935,0.6733,9.7907,18.6765,3.5138,-7.2328
4.6957,3.9153,0.1084,-3.6444,17.0948,11.8156,50.6219,304.7498,-80.1380,125.3989,1568,1431,1.0000,0.1342,0.8109,9.6656,17.4826,3.2471,-7.1739,-0.0502,0.8217,9.9368,16.7070,3.2848,-7.5534
4.7140,4.2957,0.2670,-3.7731,13.5070,12.0694,13.8218,454.5188,-87.7902,171.1604,1594,1405,1.0000,-0.3471,1.2275,9.2514,14.0932,4.1250,-7.1891,-0.2297,1.2934,9.8817,12.9207,4.0558,-7.5076
4.7324,4.6151,0.3796,-3.9079,9.2665,11.6489,-22.9050,597.0413,-94.2229,214.2830,1617,1382,1.0000,-0.1866,1.4190,9.6034,9.9940,3.6975,-7.6090,-0.2920,1.4299,9.9942,8.5390,3.9642,-7.8053
4.7509,4.8513,0.5120,-4.0449,5.8123,10.7734,-47.3541,694.6396,-98.9957,243.9970,1634,1365,1.0000,-0.2824,1.3879,9.6991,6.1543,3.8960,-7.7616,-0.2225,1.3628,9.9870,5.4703,4.0710,-7.8740
4.7692,5.0093,0.6427,-4.1818,3.4612,9.6766,-59.7309,748.4661,-102.2054,260.6732,1643,1356,1.0000,-0.3279,1.2897,9.8428,4.1314,3.9876,-7.9067,-0.3973,1.4179,10.2241,2.7910,3.3764,-7.8053
4.7876,5.1506,0.6667,-4.3223,-1.1075,8.0590,-88.2022,846.7317,-105.0840,289.6268,1659,1340,1.0000,0.0145,1.6177,9.6943,0.0856,2.0028,-8.0288,0.1533,1.8321,10.3486,-2.3006,2.1550,-7.9198
4.8060,5.2113,0.7228,-4.4563,-7.7068,5.5286,-124.8137,959.1593,-106.3502,321.7397,1676,1323,1.0000,-0.1699,1.7805,9.4070,-6.1358,1.7280,-7.6395,0.0672,2.0596,10.1259,-9.2777,1.7046,-7.5611
4.8244,5.1213,0.7700,-4.5857,-13.5083,0.0000,-0.0000,589.3349,-104.6009,217.3142,1619,1380,1.0000,-0.0813,1.6369,9.6919,-12.9449,1.7662,-7.6090,0.3928,1.7435,10.8130,-14.0716,3.2008,-7.2099
4.8427,4.8928,0.7997,-4.7064,-19.3365,0.0000,-0.0000,563.0362,-100.0796,207.6900,1614,1385,1.0000,0.1222,1.5363,10.0750,-18.5403,3.6211,-7.5174,0.2156,1.2599,10.4635,-20.1327,4.2771,-6.5916
4.8612,4.4889,0.8393,-4.8440,-21.8518,-0.5254,-24.5392,587.2255,-92.0464,210.4464,1615,1384,1.0000,0.0983,0.8803,10.1277,-21.1892,4.2547,-9.2731,0.2539,0.8026,10.3797,-22.5144,4.3153,-6.5382
4.8796,3.9967,0.9044,-4.9661,-23.7984,-6.7235,-164.1494,932.6573,-82.2420,302.2650,1666,1333,1.0000,-0.1651,0.5356,10.0535,-22.7465,3.5219,-7.2578,-0.3039,0.6374,10.3031,-24.8503,2.2390,-6.4618
4.8979,3.4584,1.0347,-5.0878,-25.0312,-9.4696,-149.6340,690.7620,-71.5121,229.1694,1626,1373,1.0000,-0.6631,0.3249,9.8883,-24.6625,0.9494,-6.7845,-0.5003,0.5919,10.2576,-25.3999,0.8268,-6.4618
4.9164,2.8877,1.0579,-5.2120,-26.8174,-12.0718,-140.8971,615.0601,-60.1260,202.2798,1611,1388,1.0000,-0.1795,0.2459,10.0583,-27.6243,0.5906,-6.9906,-0.0669,0.7523,10.3151,-26.0106,1.3153,-6.4771
4.9348,2.3555,1.0483,-5.3307,-27.6571,-14.4096,-127.1388,531.0059,-49.5058,173.4345,1595,1404,1.0000,0.0312,0.3943,9.7303,-26.9678,0.7815,-6.8914,0.1533,0.4554,10.6718,-28.3465,2.5596,-6.2176
4.9531,1.8589,1.0247,-5.4404,-29.0808,-16.6103,-119.8682,465.9373,-39.5927,150.2588,1582,1417,1.0000,0.0552,0.6170,10.2306,-28.0442,1.4150,-6.6319,0.2108,0.6757,10.4803,-30.1174,1.1245,-5.5916
4.9715,1.3658,0.9423,-5.5404,-32.8327,-19.0436,-132.2262,448.3133,-29.7446,140.4000,1577,1422,1.0000,0.1629,0.8324,9.5914,-31.8457,-0.2033,-6.1739,0.1533,0.8601,10.3462,-33.8197,-1.0053,-5.0038
4.9899,0.7630,0.8074,-5.6292,-34.6800,-21.3891,-127.6397,379.5024,-17.6963,115.1088,1563,1436,1.0000,0.2946,0.4158,9.9194,-34.7006,-2.1575,-5.5021,0.3138,-0.1120,10.2935,-34.6594,-2.0969,-4.2863
5.0082,0.1204,0.7308,-5.7078,-32.5350,-23.0610,-91.2015,230.4330,-2.4100,65.7263,1536,1463,1.0000,0.1964,-0.0821,10.0463,-32.7159,-1.1269,-5.0365,0.4478,-0.1240,9.6997,-32.3541,0.4832,-3.6221
5.0267,-0.3767,0.6925,-5.7737,-31.3900,-24.3103,-67.7283,126.4263,7.5377,31.6305,1517,1482,1.0000,0.3018,0.4063,9.8236,-31.3113,2.6822,-4.2044,0.1821,0.3908,9.9224,-31.4686,3.0863,-3.1641
5.0451,-0.9059,0.7364,-5.8308,-30.1075,-25.1799,-47.2757,26.5960,18.1267,-1.6165,1499,1500,1.0000,-0.1124,0.0591,9.8571,-29.5938,3.2013,-3.3265,-0.3111,-0.0809,9.8147,-30.6213,1.8191,-2.8969
5.0634,-1.4843,0.8005,-5.8859,-27.5808,-25.5400,-19.6257,-95.2275,29.7004,-41.5139,1477,1522,1.0000,-0.4644,-0.5131,10.3288,-28.2426,0.6593,-3.1281,-0.5410,-0.7800,9.5513,-26.9190,-0.8145,-2.7901
5.0818,-1.9578,0.8203,-5.9333,-24.9434,-25.4505,4.8660,-239.3029,39.1913,-86.6004,1452,1547,1.0000,-0.4524,-0.3216,9.8260,-24.7999,-2.3941,-2.8685,-0.2608,-0.2461,9.7907,-25.0869,-2.5168,-2.4160
5.1002,-2.3208,0.7371,-5.9718,-24.8861,-25.3659,4.6153,-280.3426,46.4728,-101.7323,1444,1555,1.0000,0.1653,0.1142,9.9960,-24.3800,-1.9666,-2.4945,0.1893,-0.1503,10.0325,-25.3923,0.0176,-1.9885
5.1185,-2.6855,0.6959,-6.0027,-24.4396,-25.2269,7.5785,-330.8434,53.7936,-119.5329,1434,1565,1.0000,0.2204,0.0017,9.9026,-24.4487,1.2929,-1.9754,0.0432,-0.3897,9.7117,-24.4304,2.2771,-1.4237
5.1373,-3.1044,0.7557,-6.0456,-23.0655,-24.9027,17.2711,-406.9650,62.2030,-145.0517,1420,1579,1.0000,-0.2585,-0.3862,9.6776,-23.0365,2.0028,-3.4334,-0.2776,-0.4759,9.5513,-23.0945,1.3153,-1.1412
5.1561,-3.4980,0.8077,-6.0661,-21.3403,-24.3684,28.3610,-484.1993,70.1101,-170.6309,1406,1593,1.0000,-0.4979,-0.4844,9.6177,-21.4640,-0.4781,-1.3113,-0.3039,-0.4352,9.7237,-21.2167,-2.4710,-1.0496
5.1750,-3.8828,0.7126,-6.0762,-19.7487,-23.6754,36.7357,-552.6074,77.8460,-193.6531,1393,1606,1.0000,-0.0382,-0.6328,9.4358,-20.5861,-4.3865,-1.0365,-0.2369,-0.7129,9.4723,-18.9113,-3.4481,-0.5611
5.1938,-4.2536,0.7331,-6.0820,-15.4472,-22.4412,65.7197,-678.7457,85.3032,-232.7004,1372,1627,1.0000,-0.2704,-1.0279,9.6919,-16.8839,-1.1117,-0.5784,-0.4907,-1.1391,9.4723,-14.0106,-0.3335,-0.0496
5.2125,-4.5748,0.6266,-6.0869,-9.4281,-20.4892,104.0545,-826.1187,91.7737,-277.2001,1347,1652,1.0000,0.1318,-1.4205,9.8811,-10.4945,-2.1498,-0.5861,0.0911,-0.9356,9.4531,-8.3617,-3.1656,-0.1947
5.2310,-4.7318,0.5972,-6.0857,-7.0541,-18.4740,109.2344,-859.1062,94.9612,-288.0303,1341,1658,1.0000,-0.2297,-0.8794,9.4669,-7.3953,-3.3789,-0.2807,-0.0573,-0.8877,9.1060,-6.7129,-2.7839,-0.0649
5.2494,-4.8488,0.5290,-6.0875,-3.7487,-16.2652,119.9232,-903.3544,97.3495,-301.6140,1334,1665,1.0000,0.0552,-1.0159,9.6441,-4.8610,-2.1269,-0.3571,0.1605,-1.3546,9.1203,-2.6365,-1.5320,-0.1031
5.2679,-4.9429,0.5548,-6.0850,2.8314,-13.4007,154.8644,-1014.8138,99.2808,-333.7883,1316,1683,1.0000,-0.2968,-1.5019,9.6680,0.9482,-0.9208,0.0017,-0.2992,-1.6419,8.8881,4.7146,-1.1580,0.2252
5.2864,-4.8686,0.6030,-6.0843,9.4994,-9.9657,185.4051,-1094.2153,97.8427,-355.3016,1304,1695,1.0000,-0.4692,-1.2864,9.4789,8.2688,-1.2644,-0.1128,-0.2034,-1.1942,9.2257,10.7299,-2.3717,-0.0267
5.3049,-4.6267,0.5696,-6.0781,14.0681,-6.3606,195.2194,-1094.6451,93.0516,-353.0264,1305,1694,1.0000,-0.2824,-0.9177,9.7207,13.1161,-3.3712,0.2002,-0.5146,-0.7656,9.5824,15.0200,-4.5549,-0.1641
5.3233,-4.3067,0.5098,-6.0686,17.2207,0.0000,0.0000,-495.5838,86.6942,-182.1106,1399,1600,1.0000,-0.3159,-0.7645,9.5818,16.7803,-5.9361,0.5590,-0.1196,-0.6267,9.4053,17.6612,-5.7687,-0.4160
5.3416,-3.9357,0.4011,-6.0646,19.1902,0.0000,0.0000,-452.8904,79.3139,-166.4663,1408,1591,1.0000,-0.0190,-0.6663,10.0008,18.3986,-5.3865,0.0323,-0.0214,-0.8111,9.5752,19.9818,-4.8679,-0.3397
5.3601,-3.5157,0.2887,-6.0556,21.3658,0.3892,18.3485,-457.4077,70.9503,-163.5493,1410,1589,1.0000,0.0767,-0.5490,9.7686,20.0474,-3.6842,0.3147,0.1198,-0.7081,9.5130,22.6841,-5.0969,0.0878
5.3784,-3.1251,0.2403,-6.0510,24.9688,6.8153,174.5122,-718.5018,63.1682,-232.7646,1371,1628,1.0000,-0.0430,-0.9249,9.7805,23.5742,-2.4170,0.5437,0.0408,-0.8039,9.4819,26.3635,-2.6771,-0.2710
5.3968,-2.4270,0.1132,-6.0485,24.9345,9.5331,148.1470,-588.2869,49.2318,-189.3362,1395,1604,1.0000,0.2874,0.5739,9.5315,25.4368,-3.0506,0.3376,0.0289,0.6757,9.8602,24.4322,-3.0816,-0.4313
5.4152,-1.8295,0.1454,-6.0344,20.7589,11.2170,91.5323,-395.1154,37.3001,-129.2824,1428,1571,1.0000,-0.4476,0.5715,9.3855,20.8413,-2.9285,0.9635,-0.1148,0.2735,9.7572,20.6765,-3.8679,0.2328
5.4335,-1.3962,-0.0268,-6.0165,20.6100,12.6260,76.7210,-318.0140,28.6473,-103.3676,1443,1556,1.0000,0.4502,-0.0534,10.2115,20.3604,-4.3331,1.0475,0.3138,-0.4161,10.1259,20.8597,-3.8603,0.6908
5.4519,-1.0603,-0.0663,-5.9943,20.5948,13.8213,65.1431,-258.0191,21.9403,-83.2155,1454,1545,1.0000,0.0767,-0.4245,9.4573,20.5589,-1.3331,1.3071,0.4095,-0.2006,10.0301,20.6306,-1.1274,1.0725
5.4702,-0.6099,-0.1127,-5.9692,20.4497,14.8155,54.1360,-188.4141,12.9387,-59.2253,1467,1532,1.0000,0.2994,0.1597,9.5818,19.5971,0.4150,1.4750,0.2587,0.2256,9.6950,21.3024,1.3458,1.3168
5.4886,-0.2078,-0.1349,-5.9407,18.2932,15.3372,28.3991,-88.0841,4.1581,-26.7426,1485,1514,1.0000,0.0384,0.1980,9.5722,18.4749,0.0105,1.6429,0.0600,0.2831,9.6064,18.1116,-1.8832,1.4542
5.5069,0.1152,-0.0955,-5.9062,16.5795,15.5235,10.1641,-13.3459,-2.3054,-2.5841,1498,1501,1.0000,-0.2824,0.0519,9.6489,16.4826,-1.4781,1.9941,-0.0430,0.0795,9.7572,16.6765,-1.3565,1.7595
5.5253,0.3867,-0.1232,-5.8664,15.9001,15.5800,3.0710,29.7105,-7.7379,12.1879,1506,1493,1.0000,-0.0454,-0.0750,9.8164,15.6810,-1.8903,2.3529,-0.0047,-0.2437,9.8123,16.1192,-2.4862,1.9962
5.5437,0.5785,-0.1534,-5.8211,16.5566,15.7265,7.9813,36.3157,-11.5753,15.9561,1508,1491,1.0000,0.0121,-0.4509,9.5722,16.1314,-1.7758,2.5742,-0.0765,-0.2700,9.7979,16.9818,-1.7152,2.3779
5.5620,0.7880,-0.1807,-5.7742,15.6787,15.7194,-0.3906,76.4958,-15.7671,29.3024,1516,1483,1.0000,0.0240,-0.2641,9.6177,15.6887,-1.5697,2.5361,-0.0166,-0.0569,9.5896,15.6688,-1.4023,2.5840
5.5804,1.0033,-0.1899,-5.7238,14.8238,15.5850,-7.3102,113.7499,-20.0756,41.8878,1523,1476,1.0000,0.0600,-0.1300,9.5722,14.7497,-0.9666,2.8032,0.0648,0.0005,9.5848,14.8978,0.7199,2.6679
5.5988,1.1831,-0.2180,-5.6553,14.8314,15.4720,-6.1413,128.1922,-23.6848,47.7362,1526,1473,1.0000,-0.0238,-0.2545,9.4980,14.2001,-1.1346,2.7422,-0.1603,-0.1958,9.6566,15.4627,-3.1274,4.7061
5.6172,1.3679,-0.2233,-5.6060,17.0223,15.7045,12.6641,100.7746,-27.3933,41.9135,1523,1476,1.0000,-0.0645,-0.4006,9.8787,16.3223,-1.2567,2.7574,0.0025,-0.2173,9.6279,17.7223,-1.5244,2.6145
5.6356,1.6380,-0.2422,-5.5621,18.4955,16.1232,22.7379,102.5019,-32.8125,45.1068,1524,1475,1.0000,0.1007,-0.0965,9.8404,18.2001,-0.5850,2.6277,0.0504,0.0700,9.7692,18.7910,0.0863,2.1412
5.6540,1.9850,-0.2635,-5.5036,18.6253,16.4985,20.4334,141.3081,-39.7725,59.4525,1532,1467,1.0000,0.1438,0.2985,9.6728,17.8719,0.3921,4.3529,0.1222,0.3166,9.9440,19.3787,-0.0587,2.0649
5.6723,2.3194,-0.2130,-5.4455,16.3810,16.4809,-0.9603,269.6653,-46.4839,98.7483,1554,1445,1.0000,-0.1076,0.5020,9.8500,16.6352,0.5830,4.3376,-0.1723,0.4890,9.5274,16.1268,1.5596,1.9962
5.6908,2.6429,-0.1656,-5.4043,14.7589,16.2226,-13.9558,344.3110,-52.9790,122.8966,1567,1432,1.0000,-0.1531,0.6122,9.4789,14.8413,0.8578,2.2613,-0.0765,0.5201,9.6614,14.6765,-0.0053,2.1565
5.7092,2.8983,-0.1395,-5.3617,14.7589,16.0030,-11.9180,367.8303,-58.1157,132.0503,1572,1427,1.0000,-0.1364,0.3751,9.7997,14.4444,0.4227,2.4903,-0.0166,0.3884,9.8195,15.0734,-1.1045,2.1718
5.7276,3.1939,-0.1299,-5.3164,14.4345,15.7677,-12.8144,404.4381,-64.0613,145.2733,1579,1420,1.0000,0.0432,0.6241,9.6010,14.4826,0.8044,2.6429,0.0456,0.7810,9.7285,14.3864,0.9718,2.2176
5.7460,3.5051,-0.1039,-5.2641,12.8200,15.3256,-24.0411,472.5784,-70.3195,167.4817,1592,1407,1.0000,0.0001,0.8803,9.6010,13.3070,1.1937,2.8414,0.0312,1.0157,9.8482,12.3329,1.4756,2.7137
5.7643,3.8074,-0.0883,-5.2112,10.9612,14.6709,-35.6574,540.8258,-76.4043,189.6334,1604,1395,1.0000,0.0528,1.0407,9.5004,10.4673,1.4379,2.9101,0.0025,1.0995,9.6112,11.4551,1.4603,2.7061
5.7827,3.9837,-0.0514,-5.1528,8.5337,13.7503,-50.2035,602.9993,-79.9688,208.8242,1614,1385,1.0000,-0.0358,0.7223,9.5339,8.3299,1.5448,2.9559,-0.0023,0.8601,9.8123,8.7375,1.7199,3.2023
5.8010,4.1353,-0.0164,-5.0894,8.5337,12.9678,-42.6159,598.5967,-83.0427,209.1284,1615,1384,1.0000,0.0624,0.6553,9.7470,8.1543,2.4227,3.4063,0.1533,0.6278,9.6231,8.9131,3.1626,3.1260
5.8198,4.3491,0.0477,-5.0168,8.6711,12.3233,-34.4379,599.6449,-87.3616,211.5814,1616,1383,1.0000,0.0528,0.9282,9.6082,7.7268,4.3921,3.4750,-0.0334,0.8074,9.7740,9.6154,4.1779,3.6679
5.8383,4.4540,0.1471,-4.9423,6.4306,11.4394,-47.7254,649.9834,-89.5038,226.7473,1624,1375,1.0000,-0.2297,0.6601,9.5746,6.3070,3.5906,3.8490,-0.2561,0.8146,9.6926,6.5543,2.4603,3.7519
5.8567,4.5653,0.2308,-4.8697,5.8963,10.6080,-45.0358,655.0497,-91.7761,229.3020,1626,1373,1.0000,-0.2513,0.7534,9.5028,5.9711,2.1937,3.6964,-0.1771,0.6063,9.5968,5.8215,2.0710,3.8435
5.8751,4.5873,0.2851,-4.7945,6.0910,9.9304,-36.8435,633.9931,-92.2628,223.6495,1623,1376,1.0000,-0.0861,0.3584,9.7518,5.8490,2.7280,3.8414,0.0648,0.3764,9.5537,6.3329,2.7962,3.9656
