timestamp,roll_deg,pitch_deg,yaw_deg,omega_raw,omega_filtered,alpha,tau_ff,tau_pid,tau_total,pwm_left,pwm_right,deadzone_factor,accel1_x,accel1_y,accel1_z,gyro1_x,gyro1_y,gyro1_z,accel2_x,accel2_y,accel2_z,gyro2_x,gyro2_y,gyro2_z
2025.1340,0.6092,0.6174,177.9955,0.0538,0.0000,0.0000,57.1670,-14.8479,26.0589,1514,1485,1.0000,-0.2917,0.1517,9.6808,0.2885,0.8218,1.0675,-0.2848,0.1313,9.8067,-0.1809,1.2016,1.2230
2025.1543,0.5995,0.6513,178.0224,-0.2172,0.0000,0.0000,56.2540,-14.6934,25.6922,1514,1485,1.0000,-0.1672,0.0798,9.7622,-0.1771,0.9439,1.2049,0.0887,0.0762,9.8378,-0.2573,1.1023,1.4596
2025.1747,0.5812,0.6740,178.0513,-0.0760,0.0000,0.0000,54.5345,-14.3968,24.9985,1513,1486,1.0000,-0.1049,0.0320,9.8724,-0.1313,1.0126,1.2278,0.0575,0.0331,9.7923,-0.0206,1.5603,1.6428
2025.1940,0.5641,0.7058,178.0853,0.0118,0.0000,0.0000,52.9359,-14.1214,24.3536,1513,1486,1.0000,-0.1241,0.0152,9.8843,0.3038,1.2416,1.7392,-0.1675,0.1337,9.6343,-0.2802,1.9878,1.7802
2025.2132,0.5660,0.8078,178.1408,0.9355,0.0000,0.0000,53.1098,-14.1576,24.4275,1513,1486,1.0000,-0.4329,0.0224,9.9011,0.5481,1.5012,3.7698,-0.1460,0.1193,9.5672,1.3229,2.1863,1.8489
2025.2325,0.5237,0.8462,178.1782,-0.5264,0.0000,-0.0000,49.1430,-13.4653,22.8221,1512,1487,1.0000,-0.1337,-0.0542,9.9131,0.3190,1.6539,1.9606,0.0480,-0.0722,9.4044,-1.3718,2.6748,1.9176
2025.2517,0.4814,0.8503,178.2207,-0.9767,0.0000,-0.0000,45.1738,-12.7722,21.2155,1511,1488,1.0000,0.0028,-0.0279,9.9179,0.1664,1.2569,2.3881,-0.0047,0.0499,9.5337,-2.1198,2.7741,2.0321
2025.2707,0.4156,0.8525,178.2611,-1.4271,0.0000,-0.0000,38.9944,-11.6898,18.7122,1510,1489,1.0000,0.0220,-0.0973,9.7048,-0.8565,1.4096,2.0827,-0.0095,-0.0435,9.4667,-1.9977,2.8733,2.1848
2025.2899,0.3703,0.9423,178.3058,-2.0531,0.0000,-0.0000,34.7497,-10.9471,16.9932,1509,1490,1.0000,-0.3731,0.0368,9.6856,-1.6733,1.4401,2.1667,-0.2896,0.1313,9.5648,-2.4328,2.6825,2.5131
2025.3091,0.2955,1.0136,178.3498,-2.3012,0.0000,-0.0000,27.7256,-9.7150,14.1467,1507,1492,1.0000,-0.3013,-0.0854,9.6354,-1.9481,1.7607,2.2583,-0.1292,0.3156,9.5313,-2.6542,2.4306,2.3604
2025.3283,0.2672,1.0039,178.3953,-2.1027,0.0000,-0.0000,25.0708,-9.2508,13.0717,1507,1492,1.0000,-0.0020,0.0990,9.6832,-2.2306,1.4401,2.1896,0.2203,0.1480,9.5313,-1.9748,1.6977,2.5512
2025.3474,0.2492,0.9851,178.4403,-1.8584,0.0000,-0.0000,23.3850,-8.9569,12.3896,1506,1493,1.0000,0.0435,0.1205,9.9490,-1.4443,1.5623,2.3957,0.1413,0.1025,9.5816,-2.2725,1.5527,2.2611
2025.3665,0.2236,1.0262,178.4861,-2.5607,0.0000,-0.0000,20.9844,-8.5370,11.4175,1506,1493,1.0000,-0.2246,0.1397,9.8029,-1.9100,1.4401,2.3652,-0.1603,0.2007,9.5888,-3.2115,1.5985,2.3604
2025.3858,0.1998,1.0834,178.5302,-3.2325,0.0000,-0.0000,18.7475,-8.1457,10.5117,1505,1494,1.0000,-0.3108,0.2020,9.7431,-2.9481,1.2569,2.2660,-0.0622,0.2653,9.4499,-3.5168,1.6138,2.2230
2025.4050,0.1845,1.0845,178.5713,-3.5989,0.0000,-0.0000,17.3161,-7.8958,9.9323,1505,1494,1.0000,-0.1121,0.2666,9.7168,-3.4748,0.7455,2.1056,0.0120,0.3228,9.6319,-3.7229,1.1481,2.0856
2025.4242,0.1718,1.0413,178.6095,-3.5569,0.0000,-0.0000,16.1169,-7.6867,9.4471,1505,1494,1.0000,0.0866,0.2762,9.8125,-3.4443,0.6310,1.8232,-0.0502,0.2630,9.8785,-3.6695,1.1939,2.0398
2025.4433,0.1691,0.9731,178.6461,-2.7286,0.0000,-0.0000,15.8678,-7.6446,9.3471,1505,1494,1.0000,0.1776,0.2403,9.5803,-2.8413,0.5165,1.7545,0.0839,0.3755,9.6750,-2.6160,0.7512,1.9863
2025.4624,0.1574,0.9561,178.6800,-2.4653,0.0000,-0.0000,14.7727,-7.4536,8.9040,1504,1495,1.0000,-0.0427,0.1852,9.8125,-2.4672,0.2951,1.6705,-0.1627,0.1863,9.7803,-2.4634,0.7894,1.8108
2025.4810,0.1420,0.9852,178.7110,-2.3355,0.0000,-0.0000,13.3229,-7.2001,8.3169,1504,1495,1.0000,-0.2390,0.1541,9.8652,-1.9176,0.5165,1.5484,-0.1101,0.0906,9.8402,-2.7534,0.9726,1.7497
2025.4995,0.1350,0.9778,178.7408,-1.4233,0.0000,0.0000,12.6659,-7.0859,8.0513,1504,1495,1.0000,-0.0020,0.1158,9.9083,-2.2306,0.4706,1.4644,0.0073,0.1073,9.7779,-0.6160,2.7435,1.7115
2025.5180,0.1090,0.9183,178.7670,-2.2019,0.0000,-0.0000,10.2307,-6.6588,7.0645,1503,1496,1.0000,0.1776,0.0918,9.9298,-2.2000,0.5546,1.4110,0.1389,0.0427,9.7923,-2.2038,1.0336,1.3909
2025.5366,0.0606,0.8875,178.7962,-1.9806,0.0000,0.0000,5.6841,-5.8599,5.2212,1502,1497,1.0000,0.0746,-0.0399,9.8317,-2.1542,0.8065,1.4950,0.0025,0.1289,9.8976,-1.8069,1.2855,1.6657
2025.5552,0.0213,0.8957,178.8266,-1.3241,0.0000,0.0000,1.9997,-5.2123,3.7273,1502,1497,1.0000,-0.0978,-0.0614,9.8772,-1.3680,0.8905,1.5179,-0.1316,0.0283,9.8474,-1.2802,1.2779,1.7955
2025.5741,-0.0001,0.8857,178.8614,-0.3508,0.0000,0.0000,-0.0124,-4.8585,2.9114,1501,1498,1.0000,-0.0475,-0.0662,9.7814,-0.3909,0.5088,1.6934,-0.1053,-0.0243,9.8402,-0.3107,0.9039,2.0169
2025.5933,-0.0212,0.8693,178.8943,-0.1828,0.0000,0.0000,-1.9895,-4.5106,2.1095,1501,1498,1.0000,-0.0187,-0.0830,9.8867,-0.1161,0.6615,1.6400,0.0096,-0.0291,9.8426,-0.2496,0.7512,1.8413
2025.6124,-0.0404,0.8322,178.9283,-0.0683,0.0000,0.0000,-3.7888,-4.1938,1.3797,1500,1499,1.0000,0.0866,-0.0854,9.8365,0.0442,0.7531,1.7469,0.2419,-0.1465,9.9072,-0.1809,0.9420,1.8413
2025.6315,-0.0591,0.7840,178.9677,0.2904,0.0000,0.0000,-5.5454,-3.8844,0.6670,1500,1499,1.0000,0.1081,-0.1189,9.7910,0.1740,0.3256,2.0369,0.0767,-0.0603,9.8426,0.4069,0.4687,2.1390
2025.6507,-0.0727,0.7673,179.0110,0.4622,0.0000,0.0000,-6.8174,-3.6600,0.1508,1500,1499,1.0000,-0.0427,-0.1165,9.8197,0.5252,0.2111,2.1362,0.0839,0.0499,9.8354,0.3992,0.2397,2.4138
2025.6698,-0.1050,0.7427,179.0573,0.9889,0.0000,0.0000,-9.8526,-3.1252,-1.0806,1499,1500,1.0000,-0.0307,-0.2482,9.8317,1.0671,0.0203,2.2965,-0.1963,-0.0962,9.6917,0.9107,-0.3328,2.6199
2025.6889,-0.1153,0.7150,179.1090,0.5576,0.0000,0.0000,-10.8180,-2.9543,-1.4728,1499,1500,1.0000,-0.0499,-0.1237,10.0041,1.6244,-0.6439,2.6476,0.0336,-0.0052,9.8067,-0.5092,-0.3862,2.8031
2025.7081,-0.0820,0.6915,179.1653,1.8591,0.0000,0.0000,-7.6906,-3.5034,-0.2051,1499,1500,1.0000,0.0315,-0.0351,10.0017,2.0290,1.1119,2.8919,0.0264,0.0116,9.9551,1.6893,-0.0503,3.0016
2025.7273,-0.0237,0.6720,179.2221,2.4775,0.0000,0.0000,-2.2235,-4.4645,2.0117,1501,1498,1.0000,-0.0379,0.0368,9.9969,1.6015,-0.2774,2.8232,-0.0095,-0.0794,9.7683,3.3534,0.1634,3.0932
2025.7465,0.0212,0.6848,179.2798,1.2065,0.0000,0.0000,1.9925,-5.2060,3.7214,1502,1497,1.0000,-0.1839,0.0894,9.9586,1.3877,-0.3080,2.9453,-0.0670,0.1385,9.8737,1.0252,0.1710,3.0398
2025.7656,0.0701,0.6839,179.3361,1.2675,0.0000,0.0000,6.5740,-6.0123,5.5796,1503,1496,1.0000,-0.1409,0.1110,9.9538,1.4335,-0.6057,2.7850,-0.0670,0.1504,9.8737,1.1015,0.0718,3.0856
2025.7848,0.0991,0.6738,179.3942,1.0233,0.0000,0.0000,9.3027,-6.4931,6.6867,1503,1496,1.0000,-0.0930,0.0487,9.9250,1.1740,-0.3614,3.0064,-0.0550,0.1720,9.6367,0.8725,-0.0656,3.0474
2025.8056,0.1724,0.6391,179.4639,1.4393,0.0000,0.0000,16.1738,-7.7031,9.4740,1505,1494,1.0000,-0.0116,0.1948,10.0041,1.5404,-0.5828,3.1591,0.0599,0.2223,9.8019,1.3382,-0.2717,3.5131
2025.8250,0.2323,0.6172,179.5233,1.1034,0.0000,0.0000,21.7986,-8.6944,11.7562,1506,1493,1.0000,-0.0499,0.1996,9.9634,1.1893,-0.7507,3.0904,-0.0454,0.2127,9.8569,1.0176,-0.0656,3.0016
2025.8440,0.2850,0.5811,179.5800,0.9622,0.0000,0.0000,26.7409,-9.5664,13.7621,1507,1492,1.0000,-0.0954,0.1948,9.9562,1.1511,-2.7660,2.9377,-0.0813,0.1432,9.8450,0.7733,-0.6687,2.9863
2025.8632,0.3242,0.5761,179.6367,0.7446,0.0000,-0.0000,30.4230,-10.2171,15.2571,1508,1491,1.0000,-0.1552,0.1589,9.8867,0.9603,-0.9721,2.8537,0.0767,0.1313,9.7229,0.5290,-0.6763,3.0474
2025.8824,0.3518,0.5398,179.6905,1.0729,0.0000,0.0000,33.0083,-10.6752,16.3076,1508,1491,1.0000,0.0004,0.0870,10.0998,1.0748,-0.9416,2.8690,-0.0550,0.0858,9.8689,1.0710,-0.5160,2.7497
2025.9015,0.3947,0.5243,179.7487,2.3591,0.0000,0.0000,37.0334,-11.3869,17.9422,1509,1490,1.0000,-0.1025,0.0487,9.9705,1.3877,-1.1095,2.9377,0.0599,0.1361,9.7995,3.3305,-0.5923,3.1772
2025.9206,0.4378,0.4777,179.8020,2.0156,0.0000,0.0000,41.0818,-12.1031,19.5864,1510,1489,1.0000,0.0411,0.0894,9.9370,1.8534,-0.9339,2.6782,-0.2010,-0.0363,9.8474,2.1779,-0.9587,2.8947
2025.9397,0.4774,0.4690,179.8550,2.1530,0.0000,0.0000,44.7984,-12.7614,21.0964,1511,1488,1.0000,-0.1217,0.0679,9.9610,2.1740,-0.9568,2.7469,0.0504,0.0307,9.8450,2.1321,-0.7145,2.8108
2025.9588,0.4914,0.4345,179.9086,2.0042,0.0000,0.0000,46.1126,-12.9974,21.6322,1511,1488,1.0000,-0.0116,-0.0303,9.7024,1.8992,-1.2087,2.7011,-0.0215,0.0690,9.8545,2.1092,-0.7603,2.9787
2025.9780,0.5005,0.3743,179.9660,1.8553,0.0000,0.0000,46.9614,-13.1517,21.9794,1512,1487,1.0000,0.0794,-0.0351,9.7455,1.8076,-1.7660,2.6934,-0.0813,-0.0746,9.8593,1.9031,-0.9129,3.3375
2025.9971,0.4971,0.3790,-179.9791,1.5920,0.0000,0.0000,46.6435,-13.1007,21.8535,1512,1487,1.0000,-0.1935,-0.0686,9.8652,1.6626,-1.3843,2.7011,-0.2106,-0.0339,9.6151,1.5214,-1.0732,3.0932
2026.0162,0.4942,0.3974,-179.9232,0.4546,0.0000,-0.0000,46.3692,-13.0574,21.7452,1511,1488,1.0000,-0.2773,0.0296,9.8149,1.3419,-1.5828,2.7392,-0.1005,0.0259,9.7851,-0.4328,-1.3023,3.1695
2026.0353,0.5296,0.4293,-179.8683,2.3630,0.0000,0.0000,49.6929,-13.6472,23.0962,1512,1487,1.0000,-0.3515,0.0391,9.8843,3.4794,-1.6744,2.8385,-0.1723,-0.0722,9.7875,1.2466,-1.4091,2.9329
2026.0544,0.5404,0.4232,-179.8119,1.3477,0.0000,-0.0000,50.7081,-13.8311,23.5111,1512,1487,1.0000,-0.1816,0.0200,9.9634,1.4946,-1.5828,2.9148,-0.1556,0.1145,9.9647,1.2008,-1.4473,3.0321
2026.0735,0.5337,0.4167,-179.7554,1.1454,0.0000,-0.0000,50.0759,-13.7253,23.2579,1512,1487,1.0000,-0.2390,-0.0375,9.8604,1.2503,-1.4377,2.8461,-0.2393,-0.0627,9.8138,1.0405,-3.0732,3.1466
2026.0927,0.5315,0.4212,-179.6994,0.4927,0.0000,-0.0000,49.8740,-13.6951,23.1792,1512,1487,1.0000,-0.1959,0.0368,10.0065,0.9832,-1.6897,2.8079,-0.3375,0.1097,9.7157,0.0023,-0.6687,3.0703
2026.1118,0.5403,0.4670,-179.6449,0.0194,0.0000,-0.0000,50.7026,-13.8462,23.5185,1512,1487,1.0000,-0.3611,0.1253,9.9442,0.3190,-1.0255,2.9072,-0.3327,0.2917,9.7133,-0.2802,-0.7526,2.8031
2026.1309,0.5671,0.4526,-179.5915,-0.7706,0.0000,-0.0000,53.2111,-14.2929,24.5391,1513,1486,1.0000,-0.1025,0.2762,9.8413,-0.4519,-1.2698,2.6171,-0.0526,0.3539,9.8186,-1.0893,-0.6839,2.9558
2026.1500,0.5969,0.4275,-179.5432,-0.9729,0.0000,-0.0000,56.0071,-14.7905,25.6765,1514,1485,1.0000,-0.0451,0.3169,9.9490,-0.5970,-1.4148,2.4721,0.0120,0.3324,9.8689,-1.3489,-0.3786,2.5665
2026.1691,0.6244,0.4084,-179.4965,-1.0989,0.0000,-0.0000,58.5951,-15.2519,26.7296,1514,1485,1.0000,-0.1073,0.3217,9.9394,-0.8718,-2.7278,2.2125,-0.2058,0.3922,9.8091,-1.3260,-0.0961,2.6657
2026.1876,0.6472,0.4353,-179.4575,-1.1103,0.0000,-0.0000,60.7294,-15.6336,27.5990,1515,1484,1.0000,-0.2534,0.3073,9.8556,-0.7955,-0.7126,1.9682,-0.3543,0.3348,9.6415,-1.4252,-0.6458,2.2153
2026.2061,0.6653,0.4512,-179.4220,-1.5569,0.0000,-0.0000,62.4264,-15.9387,28.2911,1515,1484,1.0000,-0.2390,0.3312,9.9155,-1.2764,-1.1400,1.8308,-0.1316,0.2965,9.6558,-1.8374,-0.8290,1.9863
2026.2246,0.6664,0.4467,-179.3925,-1.7325,0.0000,-0.0000,62.5311,-15.9637,28.3376,1515,1484,1.0000,-0.1097,0.2690,9.9610,-1.5435,-0.7355,1.5179,0.0384,0.3563,9.8881,-1.9214,-0.3786,1.6505
2026.2431,0.6801,0.4132,-179.3652,-2.1141,0.0000,-0.0000,63.8162,-16.1965,28.8628,1515,1484,1.0000,0.0555,0.3600,9.8676,-1.9023,-0.3690,1.3805,0.0001,0.3683,9.8809,-2.3260,-0.1725,1.5283
2026.2616,0.6868,0.3983,-179.3442,-2.5264,0.0000,-0.0000,64.4500,-16.3148,29.1239,1516,1483,1.0000,-0.0235,0.3672,9.8939,-2.3298,-0.6286,1.0904,-0.0287,0.3491,9.8330,-2.7229,0.1405,1.1466
2026.2806,0.6657,0.4280,-179.3260,-2.5760,0.0000,-0.0000,62.4657,-15.9726,28.3232,1515,1484,1.0000,-0.1768,0.2498,10.1333,-2.4748,0.1882,0.8995,-0.1484,0.2869,9.8545,-2.6771,0.5527,0.9787
2026.2997,0.6369,0.4552,-179.3090,-2.5111,0.0000,-0.0000,59.7685,-15.5047,27.2334,1514,1485,1.0000,-0.0642,0.2020,9.8245,-2.5054,0.4325,0.7392,0.0288,0.0786,9.9072,-2.5168,2.6901,1.0016
2026.3188,0.6197,0.4546,-179.2968,-2.0416,0.0000,-0.0000,58.1499,-15.2262,26.5807,1514,1485,1.0000,-0.0116,0.2091,9.9179,-1.8871,0.6768,0.6782,0.0527,0.1696,9.8354,-2.1962,0.8657,0.5589
2026.3378,0.5870,0.4764,-179.2849,-2.3279,0.0000,-0.0000,55.0848,-14.6932,25.3414,1513,1486,1.0000,-0.0547,0.1589,9.9250,-2.0168,1.0432,0.5484,0.0288,0.2151,9.7660,-2.6389,1.8504,0.6657
2026.3569,0.5526,0.5088,-179.2774,-2.6828,0.0000,-0.0000,51.8563,-14.1310,24.0355,1513,1486,1.0000,-0.0834,0.1756,9.8389,-2.4138,1.4554,0.3041,-0.0622,0.1720,9.7707,-2.9519,1.9344,0.4367
2026.3760,0.4940,0.5563,-179.2698,-2.9080,0.0000,-0.0000,46.3547,-13.1685,21.8075,1511,1488,1.0000,-0.1576,0.0798,9.7862,-2.7344,1.5012,0.3194,-0.1196,0.0978,9.6917,-3.0817,1.8428,0.4444
2026.3951,0.4624,0.5609,-179.2632,-2.7210,0.0000,-0.0000,43.3902,-12.6519,20.6082,1511,1488,1.0000,0.0507,0.1804,9.9059,-2.5741,1.7607,0.2507,-0.1891,0.0259,9.7971,-2.8679,2.0107,0.3909
2026.4142,0.3781,0.5962,-179.2539,-3.2935,0.0000,-0.0000,35.4806,-11.2649,17.4031,1509,1490,1.0000,-0.0882,-0.0183,9.9059,-2.1771,1.9134,0.4950,0.0001,0.0140,9.6127,-4.4099,2.0336,0.4673
2026.4332,0.3165,0.5974,-179.2246,-1.8851,0.0000,0.0000,29.7006,-10.2517,15.0612,1508,1491,1.0000,0.0363,-0.0518,9.5779,-1.7649,1.5165,0.5331,-0.0718,-0.0076,9.5744,-2.0053,1.8352,2.5589
2026.4524,0.2593,0.6564,-179.2312,-1.7363,0.0000,0.0000,24.3338,-9.3106,12.8865,1507,1492,1.0000,-0.2270,-0.0542,9.8436,-1.4901,1.3561,0.5102,-0.3208,0.0068,9.6869,-1.9824,1.8657,-1.2198
2026.4715,0.1728,0.7017,-179.2161,-1.1218,0.0000,0.0000,16.2109,-7.8840,9.5937,1505,1494,1.0000,-0.1792,-0.2482,9.6928,-1.6810,1.4477,0.7469,-0.1747,-0.0603,9.5457,-0.5626,1.6901,0.9024
2026.4906,0.1032,0.7081,-179.1975,-2.3279,0.0000,-0.0000,9.6853,-6.7376,6.9481,1503,1496,1.0000,-0.0475,-0.0854,9.7646,-1.9329,1.0508,0.9530,-0.0334,-0.0651,9.6199,-2.7229,1.3390,1.0245
2026.5097,0.0335,0.7113,-179.1724,-2.1943,0.0000,-0.0000,3.1453,-5.5879,4.2963,1502,1497,1.0000,-0.0331,-0.1093,9.8413,-2.1695,1.0203,1.1438,-0.0765,-0.0387,9.6726,-2.2191,1.3619,1.5207
2026.5288,-0.0174,0.7358,-179.1444,-1.8813,0.0000,0.0000,-1.6367,-4.7469,2.3571,1501,1498,1.0000,-0.1600,-0.0662,9.8604,-1.7268,0.8905,1.3423,-0.1244,0.0379,9.6367,-2.0359,0.8199,1.6199
2026.5478,-0.0605,0.7468,-179.1151,-1.6065,0.0000,0.0000,-5.6797,-4.0354,0.7173,1500,1499,1.0000,-0.1409,-0.0638,9.8628,-1.3603,0.2798,1.5026,-0.1220,0.0283,9.7731,-1.8527,0.5603,1.5970
2026.5669,-0.0862,0.7616,-179.0799,-1.7248,0.0000,0.0000,-8.0904,-3.6106,-0.2607,1499,1500,1.0000,-0.1672,0.0200,9.9370,-1.5206,0.1577,1.7774,-0.1053,0.0116,9.8689,-1.9290,0.5603,1.9100
2026.5859,-0.1259,0.7593,-179.0394,-1.8126,0.0000,0.0000,-11.8108,-2.9552,-1.7701,1499,1500,1.0000,-0.0834,-0.0399,9.7479,-1.6657,0.2874,1.8614,-0.0095,-0.0483,9.8545,-1.9595,0.5985,2.4062
2026.6050,-0.1558,0.7544,-178.9973,-2.2973,0.0000,-0.0000,-14.6198,-2.4597,-2.9101,1498,1501,1.0000,-0.0618,0.0344,9.7503,-2.0703,0.3256,2.1362,-0.1005,0.1863,9.8545,-2.5244,0.7206,2.2688
2026.6241,-0.2203,0.7665,-178.9495,-2.5531,0.0000,-0.0000,-20.6720,-1.3933,-5.3656,1497,1502,1.0000,-0.1480,-0.1045,10.0041,-2.5054,0.3867,2.5331,-0.1268,0.0403,9.8114,-2.6008,0.4993,2.4825
2026.6433,-0.2663,0.7675,-178.8963,-2.6294,0.0000,-0.0000,-24.9922,-0.6310,-7.1191,1496,1503,1.0000,-0.1193,-0.0231,9.8987,-2.4596,0.0584,2.5713,-0.1364,0.0164,9.9958,-2.7992,0.3313,3.0016
2026.6623,-0.2984,0.7525,-178.8410,-2.5111,0.0000,-0.0000,-28.0009,-0.0989,-8.3409,1495,1504,1.0000,-0.0642,0.0224,9.9873,-2.1924,-0.0255,2.7545,-0.0478,-0.0148,9.8905,-2.8298,0.0336,3.0398
2026.6815,-0.3562,0.7488,-178.7808,-2.5645,0.0000,-0.0000,-33.4254,0.8585,-10.5427,1494,1505,1.0000,-0.0930,-0.0949,9.8532,-2.3603,-0.1171,3.0140,-0.1963,-0.0579,9.8402,-2.7687,0.5069,3.2840
2026.7006,-0.4052,0.7469,-178.7145,-2.6447,0.0000,-0.0000,-38.0210,1.6706,-12.4087,1493,1506,1.0000,-0.0642,-0.0590,9.8269,-2.5359,0.3714,3.3576,-0.0646,-0.0124,9.6534,-2.7534,0.9039,3.5894
2026.7196,-0.4406,0.7663,-178.6479,-2.9500,0.0000,-0.0000,-41.3464,2.2597,-13.7598,1492,1507,1.0000,-0.1504,0.0200,9.6808,-2.7420,0.4019,3.3805,-0.1532,-0.0172,9.7731,-3.1580,1.0260,3.6047
2026.7387,-0.4933,0.7838,-178.5776,-2.7668,0.0000,-0.0000,-46.2932,3.1345,-15.7687,1491,1508,1.0000,-0.1337,-0.0830,9.8269,-2.7344,0.6539,3.5713,-0.1125,0.0666,9.7013,-2.7992,1.0947,3.8260
2026.7579,-0.5359,0.7786,-178.5014,-2.4386,0.0000,0.0000,-50.2908,3.8428,-17.3929,1490,1509,1.0000,-0.0738,-0.0710,9.7622,-2.3374,0.3256,3.8232,-0.1915,-0.0603,9.6558,-2.5397,0.4153,4.1543
2026.7770,-0.5811,0.7887,-178.4239,-1.9844,0.0000,0.0000,-54.5237,4.5929,-19.1128,1489,1510,1.0000,-0.1839,-0.1284,9.7287,-1.9863,-0.2316,4.0522,-0.0813,-0.0842,9.6869,-1.9824,0.0565,4.0703
2026.7962,-0.6212,0.7791,-178.3433,-1.5073,0.0000,0.0000,-58.2920,5.2617,-20.6446,1488,1511,1.0000,-0.0810,-0.1548,9.6976,-1.3527,0.0661,4.1744,-0.0430,-0.0794,9.7157,-1.6618,0.1100,4.2382
2026.8153,-0.6594,0.7937,-178.2615,-1.0607,0.0000,0.0000,-61.8758,5.8985,-22.1018,1487,1512,1.0000,-0.1696,-0.1907,9.8006,-1.0168,0.1119,4.1591,-0.1172,-0.2255,9.7013,-1.1046,0.5145,4.4367
2026.8344,-0.6723,0.7871,-178.1931,-0.4004,0.0000,0.0000,-63.0880,6.1184,-22.5974,1487,1512,1.0000,-0.0834,-0.1428,9.8389,-0.4825,0.0050,4.4186,-0.1364,-0.0435,9.8785,-0.3183,0.4458,2.6734
2026.8535,-0.6636,0.7659,-178.1083,0.2217,0.0000,0.0000,-62.2695,5.9811,-22.2695,1487,1512,1.0000,-0.0187,-0.1021,9.9681,0.0900,0.0355,4.3423,-0.0526,-0.0603,9.7372,0.3534,0.3619,4.5360
2026.8726,-0.6729,0.7388,-178.0232,1.0462,0.0000,0.0000,-63.1414,6.1411,-22.6271,1487,1512,1.0000,-0.0044,-0.2601,10.0807,0.7007,-0.1400,4.4950,0.0288,-0.0243,9.9024,1.3916,0.1939,4.4520
2026.8917,-0.6136,0.7414,-177.9407,1.8668,0.0000,0.0000,-57.5787,5.1691,-20.3751,1488,1511,1.0000,-0.1217,-0.0135,9.9370,1.9374,-0.2316,4.2431,-0.0765,-0.0435,9.9192,1.7962,0.6138,4.3985
2026.9110,-0.5632,0.7506,-177.8573,2.3248,0.0000,0.0000,-52.8530,4.3438,-18.4622,1489,1510,1.0000,-0.1409,-0.0901,10.1214,2.3343,0.0966,4.3499,-0.0861,0.0307,9.9359,2.3153,0.5832,4.3069
2026.9301,-0.4927,0.7721,-177.7752,2.7408,0.0000,0.0000,-46.2351,3.1850,-15.7816,1491,1508,1.0000,-0.1672,-0.0231,10.1549,2.8916,0.4706,4.1896,-0.0311,0.0331,9.9958,2.5901,1.0107,4.3833
2026.9492,-0.4171,0.7800,-177.6946,2.7179,0.0000,0.0000,-39.1382,1.9413,-12.9063,1492,1507,1.0000,-0.0690,0.0176,10.0663,2.7465,0.8829,4.2507,-0.0358,0.0331,10.1275,2.6893,1.4229,4.1848
2026.9683,-0.3498,0.8189,-177.6169,2.5996,0.0000,0.0000,-32.8285,0.8353,-10.3498,1494,1505,1.0000,-0.1744,0.0008,10.1405,2.6397,1.4935,4.0598,-0.1412,0.1025,10.0461,2.5595,1.7359,4.0856
2026.9874,-0.2861,0.8361,-177.5432,2.4202,0.0000,0.0000,-26.8461,-0.2138,-7.9256,1495,1504,1.0000,-0.0594,0.0128,9.9586,2.5481,1.7531,3.9759,-0.1268,0.0594,10.1011,2.2924,1.8810,3.7268
2027.0064,-0.2202,0.8673,-177.4729,2.0996,0.0000,0.0000,-20.6589,-1.2995,-5.4180,1497,1502,1.0000,-0.1385,0.0631,10.0160,2.1053,1.6844,3.7163,-0.0765,0.1241,9.9623,2.0939,1.7665,3.6428
2027.0256,-0.1490,0.8876,-177.4051,1.7217,0.0000,0.0000,-13.9815,-2.4721,-2.7112,1498,1501,1.0000,-0.0930,0.1301,9.9777,1.8305,1.6310,3.5942,-0.1172,0.1241,9.8809,1.6130,1.7817,3.4291
2027.0447,-0.0922,0.9246,-177.3401,1.3210,0.0000,-0.0000,-8.6542,-3.4080,-0.5515,1499,1500,1.0000,-0.2007,0.1110,9.9011,1.5252,1.3943,3.3194,-0.0646,0.1480,9.7612,1.1168,1.4306,3.4444
2027.0637,-0.0454,0.9480,-177.2817,0.5271,0.0000,-0.0000,-4.2579,-4.1806,1.2310,1500,1499,1.0000,-0.1720,0.1469,9.8628,0.7160,0.9897,3.1591,-0.1364,0.0882,9.7085,0.3382,1.1863,2.9100
2027.0828,-0.0179,0.9619,-177.2292,0.7714,0.0000,-0.0000,-1.6788,-4.6339,2.2767,1501,1498,1.0000,-0.1480,0.0463,9.7910,0.1435,0.8829,2.7545,-0.0789,0.0858,9.6127,1.3992,0.9268,2.7192
2027.1019,-0.0321,0.9854,-177.1827,-0.7706,0.0000,-0.0000,-3.0104,-4.3994,1.7365,1500,1499,1.0000,-0.2462,-0.0063,9.7742,-0.4214,0.0813,2.4186,0.0647,0.0547,9.5840,-1.1198,0.6214,2.4444
2027.1209,-0.0591,0.9824,-177.1375,-1.5225,0.0000,-0.0000,-5.5468,-3.9528,0.7076,1500,1499,1.0000,-0.1480,-0.0040,9.6976,-1.1390,-0.0332,2.4415,-0.1364,0.1193,9.5840,-1.9061,0.1634,2.3146
2027.1400,-0.0389,1.0243,-177.0987,-1.1370,0.0000,-0.0000,-3.6456,-4.2867,1.4784,1500,1499,1.0000,-0.3803,0.1756,9.6066,-1.7115,-0.2851,1.9072,-0.1125,0.0475,9.5170,-0.5626,-0.3328,2.0779
2027.1592,-0.0986,1.0000,-177.0650,-2.5836,0.0000,-0.0000,-9.2488,-3.3005,-0.7944,1499,1500,1.0000,-0.1624,-0.0542,9.5539,-2.1848,-1.2469,1.8919,-0.1244,-0.0315,9.4906,-2.9824,-1.0656,1.6352
2027.1784,-0.1394,0.9585,-177.0347,-2.8012,0.0000,-0.0000,-13.0852,-2.6245,-2.3508,1498,1501,1.0000,-0.1409,0.0391,9.6401,-2.6504,-2.0026,1.4415,-0.1651,-0.0722,9.5553,-2.9519,-1.6992,1.6963
2027.1974,-0.2174,0.9003,-177.0103,-3.1752,0.0000,-0.0000,-20.4001,-1.3361,-5.3183,1497,1502,1.0000,-0.0906,-0.1045,9.7287,-2.9939,-2.4148,1.2049,-0.1148,-0.0794,9.5313,-3.3565,-2.0122,1.3833
2027.2165,-0.2682,0.8421,-176.9894,-3.3928,0.0000,-0.0000,-25.1653,-0.4955,-7.2523,1496,1503,1.0000,-0.1049,0.0248,9.6737,-3.1924,-2.6591,1.0293,-0.0909,-0.0267,9.4643,-3.5931,-2.3175,1.1085
2027.2356,-0.3580,0.7839,-176.9705,-3.7134,0.0000,-0.0000,-33.5923,0.9899,-10.6716,1494,1505,1.0000,-0.0906,-0.1284,9.7551,-3.2916,-2.6591,0.7392,-0.0718,-0.2111,9.7540,-4.1351,-2.1725,1.2459
2027.2547,-0.4380,0.7363,-176.9589,-2.0951,0.0000,-0.0000,-41.0998,2.3143,-13.7185,1492,1507,1.0000,-0.1145,-0.2577,10.0807,-0.3909,-2.0942,0.5484,0.0647,0.0930,10.0413,-3.7992,-2.2946,0.6886
2027.2738,-0.5260,0.7103,-176.9506,-2.7325,0.0000,-0.0000,-49.3535,3.7709,-17.0686,1490,1509,1.0000,-0.3037,-0.2362,9.8053,-2.5359,-3.3919,0.3347,-0.2346,-0.2303,9.9719,-2.9290,-3.4549,0.5360
2027.2929,-0.5645,0.6445,-176.9416,-2.4538,0.0000,-0.0000,-52.9739,4.4131,-18.5400,1489,1510,1.0000,-0.1073,-0.0542,9.8915,-4.2229,-3.6820,0.2736,-0.2058,0.0451,9.8258,-0.6847,-2.9129,0.6047
2027.3119,-0.6177,0.6084,-176.9327,-3.1103,0.0000,-0.0000,-57.9666,5.2972,-20.5683,1488,1511,1.0000,-0.1528,-0.0734,10.1477,-2.8489,-2.6668,0.3576,-0.1125,-0.0363,9.7061,-3.3718,-1.9740,0.5207
2027.3311,-0.6741,0.5834,-176.9243,-3.7554,0.0000,-0.0000,-63.2508,6.2331,-22.7151,1487,1512,1.0000,-0.1983,-0.0375,9.7766,-3.3527,-2.6744,0.4110,-0.1484,0.0092,9.8426,-4.1580,-2.1343,0.3909
2027.3502,-0.7236,0.5458,-176.9315,-4.0149,0.0000,-0.0000,-67.8958,7.0571,-24.6030,1486,1513,1.0000,-0.1385,0.0056,10.0615,-3.8184,-2.8194,0.3576,-0.1388,0.0427,9.8498,-4.2115,-1.9129,-1.2350
2027.3693,-0.7881,0.5093,-176.9194,-5.1447,-0.0001,-0.0005,-73.9507,8.1299,-27.0631,1485,1514,1.0000,-0.1289,0.0248,9.9634,-3.9100,-2.5065,0.2965,-0.0574,0.0451,9.8091,-6.3794,-2.0580,0.8947
2027.3881,-0.8208,0.4569,-176.9045,-4.3546,-0.0451,-0.1512,-91.9891,8.6777,-32.8033,1481,1518,1.0000,-0.0978,0.0894,9.8915,-4.1619,-3.2545,0.6247,-0.0454,0.0451,9.8785,-4.5473,-2.5389,0.8413
2027.4066,-0.8468,0.4145,-176.8849,-5.2783,-0.2812,-1.3357,-91.5004,9.1144,-32.9188,1481,1518,1.0000,-0.1337,0.1972,10.0495,-4.7344,-3.1706,0.8614,-0.0502,0.0834,9.7731,-5.8221,-2.6076,1.1085
2027.4254,-0.9266,0.3628,-176.8641,-6.2821,-0.9079,-5.0888,-89.6820,10.4411,-33.1692,1481,1518,1.0000,-0.1217,0.0272,10.0112,-5.6275,-4.7126,0.9072,-0.3519,0.1097,9.9024,-6.9366,-2.0503,1.1695
2027.4441,-1.0344,0.3534,-176.8387,-7.3164,-2.0922,-12.8265,-79.5349,12.2299,-31.1984,1482,1517,1.0000,-0.1911,-0.0303,10.1357,-6.7802,-2.1858,1.1973,-0.0574,0.0187,9.8905,-7.8527,-1.6839,1.4520
2027.4626,-1.1500,0.3545,-176.8075,-7.8622,-3.5703,-19.9253,-72.1083,14.1490,-30.1219,1483,1516,1.0000,-0.2151,-0.0399,10.0184,-7.6199,-1.9339,1.3347,-0.3375,-0.0004,9.9647,-8.1046,-1.5694,1.9405
2027.4813,-1.2448,0.3301,-176.7690,-7.8050,-4.7923,-20.3265,-81.6264,15.7254,-33.9232,1481,1518,1.0000,-0.0762,0.0391,10.0400,-7.8107,-1.9263,1.7163,-0.1244,-0.0291,10.0317,-7.7992,-1.1114,2.2993
2027.5005,-1.3826,0.3154,-176.7277,-7.6981,-5.5988,-17.7217,-104.6514,18.0138,-42.2037,1476,1523,1.0000,-0.0786,-0.1739,9.9658,-7.6275,-1.2087,1.9453,0.1341,-0.1752,9.7755,-7.7687,-0.8137,2.3146
2027.5197,-1.5022,0.3450,-176.6816,-6.8966,-5.8874,-9.0698,-143.0341,20.0019,-54.9114,1469,1530,1.0000,-0.3276,-0.1835,10.0495,-6.4443,-2.6591,2.2354,-0.1244,-0.1776,9.8091,-7.3489,-0.5160,2.4749
2027.5389,-1.6141,0.3880,-176.6378,-6.3431,-5.9689,-3.4361,-171.8566,21.8639,-64.6753,1464,1535,1.0000,-0.2701,-0.2242,10.2124,-5.7115,-0.4377,2.3423,-0.2298,-0.2207,9.7875,-6.9748,0.1405,2.2306
2027.5580,-1.7247,0.4404,-176.5716,-5.5073,-5.8823,3.6273,-204.6578,23.7067,-75.6213,1458,1541,1.0000,-0.2773,-0.3152,10.1310,-5.0779,0.1806,2.4186,-0.0981,-0.1872,9.8282,-5.9366,0.4764,4.5283
2027.5772,-1.8101,0.3760,-176.5213,-4.1141,-5.4009,13.3687,-242.3267,25.1334,-87.7781,1451,1548,1.0000,0.3500,-0.3344,10.1190,-4.3985,0.5699,2.4797,-0.0502,-0.3811,10.1634,-3.8298,2.0718,2.8337
2027.5964,-1.8570,0.4232,-176.4684,-2.1370,-4.0237,21.4897,-271.0002,25.9264,-96.8559,1446,1553,1.0000,-0.0403,-0.3439,9.9586,-2.9100,1.9745,2.7469,-0.2848,-0.2757,10.1562,-1.3641,3.2321,2.9329
2027.6156,-1.8654,0.5426,-176.4134,-0.1447,-1.8862,16.8019,-258.4458,26.0838,-93.1840,1448,1551,1.0000,-0.3348,-0.3463,9.8245,-1.1542,2.9134,2.7545,-0.2585,-0.2757,9.9312,0.8649,3.2932,3.2001
2027.6347,-1.8261,0.6367,-176.3589,0.8248,-0.3567,4.0346,-217.2483,25.4532,-80.4464,1455,1544,1.0000,-0.1983,-0.2218,10.0208,0.2732,3.6233,2.8919,-0.3447,-0.1943,9.9910,1.3763,3.5680,3.0016
2027.6539,-1.7920,0.7035,-176.3020,2.1721,0.0000,0.0000,-201.7869,24.9082,-75.4810,1458,1541,1.0000,-0.0475,-0.3559,9.9514,1.9145,4.2569,3.1667,0.0144,-0.2566,10.0892,2.4298,4.0184,3.0550
2027.6730,-1.7197,0.7577,-176.2403,2.7294,0.0000,0.0000,-193.6435,23.7322,-72.3324,1460,1539,1.0000,-0.0140,-0.2218,9.9322,2.5328,4.2951,3.3347,0.2275,-0.2686,9.6989,2.9260,3.7665,3.3527
2027.6923,-1.6507,0.8272,-176.1774,3.0691,0.0000,0.0000,-185.8754,22.6105,-69.3289,1461,1538,1.0000,-0.0594,-0.2649,10.0759,3.8381,4.1500,3.5102,-0.2393,-0.1249,9.6558,2.3000,4.4535,3.2459
2027.7115,-1.6161,0.9505,-176.1171,3.1378,0.0000,0.0000,-181.9766,22.0553,-67.8262,1462,1537,1.0000,-0.3252,-0.4062,9.7910,3.3190,3.8371,3.3270,-0.0622,-0.1225,9.6510,2.9565,4.6672,3.2459
2027.7305,-1.5392,1.0039,-176.0557,3.0881,0.0000,0.0000,-173.3256,20.8031,-64.4795,1464,1535,1.0000,-0.0786,-0.2003,9.7598,3.1969,3.4248,3.3347,-0.1029,-0.1919,9.5170,2.9794,3.9420,3.2764
2027.7497,-1.4419,1.0237,-176.0001,2.9622,0.0000,0.0000,-162.3591,19.2106,-60.2341,1466,1533,1.0000,0.0315,-0.0854,9.6473,3.0824,2.7760,3.1133,0.0480,-0.0363,9.7133,2.8420,3.9191,2.8031
2027.7687,-1.3538,1.0613,-175.9413,2.3172,0.0000,0.0000,-152.4458,17.7716,-56.3967,1468,1531,1.0000,-0.1241,-0.0614,9.8963,2.5557,1.2340,3.2202,-0.0430,0.2103,9.6223,2.0786,3.8581,2.9787
2027.7875,-1.2707,1.1111,-175.8879,1.8477,0.0000,0.0000,-143.0871,16.4130,-52.7739,1470,1529,1.0000,-0.1121,-0.0183,9.7742,2.0977,3.3332,2.9301,-0.2753,0.1049,9.4763,1.5977,3.3771,2.8260
2027.8062,-1.1647,1.1308,-175.8395,1.4851,0.0000,0.0000,-131.1545,14.6761,-48.1520,1473,1526,1.0000,-0.0427,0.1373,9.8245,1.4335,2.7989,2.5102,-0.1939,0.1792,9.7612,1.5366,2.5680,2.6428
2027.8248,-1.0488,1.1818,-175.7941,1.7904,0.0000,0.0000,-118.0935,12.7728,-43.0917,1476,1523,1.0000,-0.1983,0.1804,9.9250,1.6702,2.8981,2.3881,-0.1005,0.1169,9.7013,1.9107,2.4687,2.4215
2027.8433,-0.9667,1.2131,-175.7497,1.2103,0.0000,0.0000,-108.8542,11.4286,-39.5134,1478,1521,1.0000,-0.1480,0.0894,9.7814,1.6015,2.5775,2.3347,-0.0694,0.1672,9.6391,0.8191,2.0031,2.4062
2027.8619,-0.9155,1.2614,-175.7081,0.1798,0.0000,-0.0000,-103.0935,10.5937,-37.2843,1479,1520,1.0000,-0.2366,0.0463,9.7718,0.7389,2.1271,2.3576,0.0599,0.2175,9.6941,-0.3794,2.4382,2.0779
2027.8804,-0.9111,1.3043,-175.6714,-0.9348,0.0000,-0.0000,-102.5906,10.5291,-37.0946,1479,1520,1.0000,-0.2270,-0.0614,9.8436,-0.4214,2.4630,2.1056,-0.1843,-0.0100,9.5337,-1.4481,1.8733,1.8795
2027.8995,-0.9174,1.3160,-175.6329,-0.9042,0.0000,-0.0000,-103.3072,10.6433,-37.3781,1479,1520,1.0000,-0.1001,-0.1117,9.8700,-1.2153,1.8600,2.0675,-0.0454,-0.1010,9.3158,-0.5931,2.2245,2.0092
2027.9187,-0.9560,1.3286,-175.5939,-1.1714,0.0000,-0.0000,-107.6546,11.2898,-39.0703,1478,1521,1.0000,-0.1265,-0.2362,9.9562,-1.7344,1.1348,2.1973,0.0456,-0.2303,9.5505,-0.6084,2.5603,1.9634
2027.9378,-1.0110,1.3441,-175.5520,-1.7515,0.0000,-0.0000,-113.8453,12.2071,-41.4778,1477,1522,1.0000,-0.1025,-0.2601,9.7694,-1.2153,1.2874,2.1591,-0.1364,-0.4625,9.9719,-2.2878,3.1787,2.3604
2027.9568,-1.0752,1.3432,-175.5229,0.2294,0.0000,0.0000,-121.0662,13.2759,-44.2854,1475,1524,1.0000,-0.0571,-0.4876,9.8580,1.4030,1.9287,2.4568,-0.0167,-0.5032,9.2440,-0.9443,1.9878,0.8184
2027.9760,-1.1656,1.3222,-175.4752,0.2599,0.0000,0.0000,-131.2502,14.7798,-48.2430,1473,1526,1.0000,-0.0427,-0.5953,9.4558,0.5252,0.5775,2.4797,-0.2705,-0.5295,9.8138,-0.0053,1.3695,2.7573
2027.9952,-1.2472,1.3822,-175.4159,0.5309,0.0000,0.0000,-140.4391,16.1388,-51.8150,1471,1528,1.0000,-0.4018,-0.6121,9.7503,0.1206,3.0584,3.0598,-0.1436,-0.5678,9.6319,0.9412,-1.0122,3.3756
2028.0144,-1.3140,1.3235,-175.3520,1.6645,0.0000,0.0000,-147.9670,17.2549,-54.7431,1469,1530,1.0000,0.0363,-0.6456,9.5635,1.7389,0.0584,3.3270,-0.1771,-0.6732,9.5696,1.5901,-0.0427,3.5970
2028.0335,-1.3867,1.2895,-175.2841,1.9507,0.0000,0.0000,-156.1519,18.4681,-57.9265,1468,1531,1.0000,-0.1217,-0.7174,9.6449,1.8381,-0.5599,3.5408,-0.1148,-0.5535,9.6534,2.0634,-0.7679,3.8108
2028.0527,-1.3972,1.2206,-175.2093,4.1759,0.0000,0.0000,-157.3263,18.6542,-58.3904,1467,1532,1.0000,0.0387,-0.6576,9.8987,3.0748,-0.7202,3.8766,-0.1101,-0.4936,9.8354,5.2771,-0.6610,4.0856
2028.0719,-1.3819,1.1706,-175.1311,4.0691,0.0000,0.0000,-155.6118,18.4168,-57.7336,1468,1531,1.0000,-0.0427,-0.5259,9.7503,4.1816,-0.9950,4.1896,-0.1005,-0.4457,9.7492,3.9565,-0.5694,4.0856
2028.0908,-1.3474,1.1268,-175.0485,4.1225,0.0000,0.0000,-151.7218,17.8603,-56.2327,1469,1530,1.0000,-0.0906,-0.4469,9.8508,4.2045,-1.2851,4.3118,-0.2010,-0.2422,9.8905,4.0405,-1.0427,4.4749
2028.1094,-1.2706,1.0621,-174.9663,4.3591,0.0000,0.0000,-143.0755,16.6060,-52.8863,1470,1529,1.0000,-0.0187,-0.2673,10.0615,4.6626,-1.8042,4.3270,0.0671,-0.1991,10.0485,4.0557,-1.2030,4.4291
2028.1280,-1.2052,1.0035,-174.8840,4.1645,0.0000,0.0000,-135.7111,15.5390,-50.0367,1472,1527,1.0000,-0.0594,-0.2913,10.1118,4.4870,-2.0255,4.4797,0.0527,-0.1632,10.0341,3.8420,-1.5160,4.3298
2028.1465,-1.1378,0.9585,-174.7857,3.5920,0.0000,0.0000,-128.1200,14.4380,-47.0988,1474,1525,1.0000,-0.0954,-0.2194,10.1262,4.2274,-2.0103,4.2660,0.0025,-0.1465,9.8019,2.9565,-1.1572,6.3451
2028.1651,-1.0661,0.8985,-174.7066,2.6454,0.0000,-0.0000,-120.0478,13.2659,-43.9739,1475,1524,1.0000,0.0100,-0.1045,10.2195,3.2809,-1.9416,4.3118,0.0168,0.0092,9.9575,2.0099,-0.5923,4.1085
2028.1836,-0.9575,0.8477,-174.6313,1.8591,0.0000,-0.0000,-107.8126,11.4826,-39.2333,1478,1521,1.0000,0.0124,0.1565,10.0304,2.4106,-1.6744,4.1973,0.1246,0.2223,9.9551,1.3076,-0.0045,3.7726
2028.2026,-0.8774,0.8123,-174.5581,-0.6485,0.0000,-0.0000,-98.8036,10.1713,-35.7439,1480,1519,1.0000,-0.0187,0.2498,10.1357,1.1893,-1.1935,3.8003,0.1557,0.4042,9.8474,-2.4863,0.4077,3.7497
2028.2218,-0.7630,0.7782,-174.4934,-1.1218,0.0000,-0.0000,-71.5943,8.2901,-26.4524,1485,1514,1.0000,-0.0307,0.4653,10.1501,-0.2306,-1.1629,3.3881,0.0504,0.6197,9.7229,-2.0130,0.1100,3.1543
2028.2409,-0.6735,0.7483,-174.4378,-2.4004,0.0000,-0.0000,-63.1945,6.8198,-23.0502,1487,1512,1.0000,-0.0164,0.4749,9.9227,-1.5970,-0.5294,2.8461,-0.0167,0.6149,9.7444,-3.2038,0.0565,2.7802
2028.2600,-0.5909,0.6938,-174.3952,-3.4767,0.0000,-0.0000,-55.4439,5.4629,-19.9109,1489,1510,1.0000,0.0579,0.5419,9.6928,-3.2993,-0.6362,2.0369,0.1222,0.6819,9.7755,-3.6542,-0.7374,2.2077
2028.2792,-0.5269,0.6309,-174.3656,-4.0798,0.0000,-0.0000,-49.4383,4.4121,-17.4788,1490,1509,1.0000,0.0555,0.5204,9.6138,-3.9176,-1.1782,1.3805,0.0958,0.6125,9.7181,-4.2420,-1.3023,1.5054
2028.2983,-0.4871,0.5624,-174.3444,-3.9119,0.0000,-0.0000,-45.7041,3.7604,-15.9675,1491,1508,1.0000,0.0172,0.4222,9.7239,-4.1084,-1.8194,0.8308,-0.0023,0.2582,9.8067,-3.7153,-2.4549,1.2306
2028.3174,-0.5246,0.4952,-174.3282,-3.6332,0.0000,-0.0000,-49.2228,4.3844,-17.3975,1490,1509,1.0000,-0.0044,0.0559,9.8652,-3.6962,-2.4377,0.7240,-0.0718,0.2055,9.6462,-3.5702,-2.5160,0.8947
2028.3365,-0.5494,0.4287,-174.3192,-3.5073,0.0000,-0.0000,-51.5492,4.7989,-18.3441,1489,1510,1.0000,-0.0283,0.0942,9.5252,-3.4825,-2.8958,0.3728,0.0815,0.2007,9.6439,-3.5321,-2.6992,0.4825
2028.3557,-0.5957,0.3713,-174.3165,-2.9729,0.0000,-0.0000,-55.9004,5.5700,-20.1121,1488,1511,1.0000,-0.0738,-0.0470,9.8029,-2.8107,-3.1019,-0.0699,-0.1556,-0.0507,9.3901,-3.1351,-2.9587,0.2840
2028.3748,-0.6185,0.3413,-174.3336,-1.3470,0.0000,0.0000,-58.0412,5.9526,-20.9839,1488,1511,1.0000,-0.1744,-0.0901,10.0328,-1.5665,-2.8271,-2.0394,-0.1651,-0.1177,9.6965,-1.1275,-2.7832,0.1466
2028.3934,-0.6465,0.3200,-174.3334,0.2332,0.0000,0.0000,-60.6666,6.4207,-22.0524,1487,1512,1.0000,-0.1504,-0.2577,9.8939,-0.1848,-3.2011,-0.1768,-0.1053,-0.2446,9.9479,0.6511,-1.2259,0.1619
2028.4120,-0.6659,0.2926,-174.3501,1.8744,0.0000,0.0000,-62.4844,6.7470,-22.7935,1487,1512,1.0000,-0.1313,-0.3655,9.8748,1.5633,-3.4835,-2.0699,-0.0574,-0.2901,10.0892,2.1855,-1.2794,0.1543
2028.4305,-0.6378,0.2583,-174.3467,3.3668,0.0000,0.0000,-59.8491,6.2900,-21.7287,1488,1511,1.0000,-0.1337,-0.2841,10.2195,3.1206,-3.1400,0.1209,-0.2274,-0.3260,10.2520,3.6130,-2.4702,0.2001
2028.4490,-0.5723,0.2280,-174.3416,4.2943,0.0000,0.0000,-53.7058,5.2155,-19.2410,1489,1510,1.0000,-0.1265,-0.1763,10.0112,4.1511,-2.6286,0.0522,-0.1053,-0.3117,10.2616,4.4374,-2.5007,0.4291
2028.4676,-0.5227,0.2242,-174.3353,4.9088,0.0000,0.0000,-49.0447,4.4011,-17.3541,1490,1509,1.0000,-0.2055,-0.2984,10.1381,4.7694,-2.2774,0.1896,-0.1172,-0.3308,10.0676,5.0481,-1.8519,0.4520
2028.4863,-0.4665,0.2097,-174.3261,4.9355,0.0000,0.0000,-43.7792,3.4799,-15.2217,1491,1508,1.0000,-0.0475,-0.2649,10.2195,4.8763,-1.1782,0.3957,-0.1220,-0.3452,10.1634,4.9947,-0.6000,0.5818
2028.5055,-0.4255,0.2090,-174.3074,4.9775,0.0000,0.0000,-39.9287,2.8071,-13.6629,1492,1507,1.0000,-0.0714,-0.3367,10.1453,5.0366,-0.5065,0.7545,0.0911,-0.2398,10.1514,4.9183,-0.2946,1.1848
2028.5248,-0.3939,0.2019,-174.2896,4.2828,0.0000,0.0000,-36.9599,2.2890,-12.4614,1493,1506,1.0000,-0.0116,-0.3056,10.0783,5.1129,-0.4301,0.8766,-0.1651,-0.2207,10.2376,3.4527,0.1558,0.9863
2028.5439,-0.3220,0.2188,-174.2656,5.0423,0.0000,0.0000,-30.2157,1.1064,-9.7285,1494,1505,1.0000,-0.0618,-0.1835,10.1333,5.0519,0.4019,1.1515,-0.1316,-0.1704,10.1203,5.0328,0.7130,1.3680
2028.5630,-0.2635,0.2244,-174.2406,4.5500,0.0117,0.0499,-24.8442,0.1434,-7.5393,1495,1504,1.0000,-0.0882,-0.1883,10.0926,4.5710,0.6004,1.2583,-0.1460,-0.1895,10.0317,4.5290,-1.1038,1.3604
2028.5821,-0.2352,0.2609,-174.2108,3.7065,0.0396,0.0584,-22.2083,-0.3213,-6.4697,1496,1503,1.0000,-0.1456,-0.2458,10.1094,3.7771,0.5699,1.5102,-0.0239,-0.1058,10.1442,3.6359,0.8733,1.6276
2028.6011,-0.1884,0.3011,-174.1806,3.0538,0.0314,-0.0112,-17.6523,-1.0912,-4.6410,1497,1502,1.0000,-0.1049,-0.0973,10.0950,3.1816,1.2416,1.5484,-0.0765,0.0547,10.0389,2.9260,1.6290,1.6352
2028.6203,-0.1288,0.3699,-174.1476,2.2752,0.0017,-0.0038,-12.0770,-2.0733,-2.3791,1498,1501,1.0000,-0.2175,0.0391,9.9322,2.3725,1.7607,1.6171,-0.0909,0.0379,9.8043,2.1779,1.6519,1.8108
2028.6395,-0.0587,0.4034,-174.1179,2.3057,0.0000,-0.0000,-5.5064,-3.2297,0.2859,1500,1499,1.0000,-0.0427,0.0918,9.8891,2.4412,1.9287,1.5560,-0.0646,0.1528,9.7612,2.1702,2.0260,1.5283
2028.6586,0.0139,0.4374,-174.0884,2.2675,0.0000,-0.0000,1.3003,-4.4268,3.0462,1501,1498,1.0000,-0.0307,0.1182,9.8269,2.3114,2.1271,1.5255,-0.0311,0.2175,9.6175,2.2237,2.3161,1.5436
2028.6777,0.1137,0.4374,-174.0632,2.5843,0.0000,-0.0000,10.6735,-6.0761,6.8477,1503,1496,1.0000,0.0818,0.2259,9.5611,2.6091,1.7378,1.2431,0.0408,0.1001,9.5720,2.5595,1.9420,1.3527
2028.6969,0.1769,0.4002,-174.0411,2.5920,0.0000,-0.0000,16.6040,-7.1206,9.2536,1505,1494,1.0000,0.1848,0.0751,9.7048,2.6015,0.9287,1.1896,-0.0311,0.2175,9.3853,2.5824,1.1939,1.1085
2028.7160,0.2728,0.3978,-174.0243,2.6492,0.0000,-0.0000,25.6008,-8.7053,12.9034,1507,1492,1.0000,0.0411,0.2259,9.6186,2.9297,0.9287,0.9606,0.1820,0.3731,9.7205,2.3687,1.4458,0.7650
2028.7351,0.3757,0.3610,-174.0102,2.4278,0.0000,-0.0000,35.2527,-10.4063,16.8196,1509,1490,1.0000,0.1728,0.2929,9.5300,2.4870,1.0126,0.7774,0.1318,0.2486,9.4140,2.3687,0.8657,0.6581
2028.7542,0.4551,0.2992,-173.9961,1.9546,0.0000,-0.0000,42.7061,-11.7214,19.8447,1510,1489,1.0000,0.2590,0.2498,9.6808,2.0824,0.4477,0.7621,0.2155,0.2031,9.4715,1.8267,0.6519,0.6810
2028.7733,0.4978,0.2730,-173.9804,2.3439,0.0000,-0.0000,46.7093,-12.4303,21.4710,1511,1488,1.0000,0.1488,0.0655,9.7431,2.2961,0.7760,0.6934,0.2084,0.1720,9.7492,2.3916,1.1939,0.9253
2028.7923,0.5516,0.2550,-173.9656,2.7294,0.0000,0.0000,51.7600,-13.3239,23.5224,1512,1487,1.0000,0.1297,0.0894,9.4606,2.6320,1.0203,0.6934,0.1533,0.1073,9.7181,2.8267,1.3390,0.8337
2028.8115,0.5730,0.2333,-173.9699,2.7561,0.0000,0.0000,53.7674,-13.6826,24.3398,1513,1486,1.0000,0.2039,-0.0470,9.8460,2.6931,1.4019,0.7774,0.0264,0.0020,9.7348,2.8191,1.9878,-1.1892
2028.8306,0.5778,0.2751,-173.9508,2.6798,0.0000,0.0000,54.2169,-13.7674,24.5255,1513,1486,1.0000,-0.0523,-0.1093,9.8891,2.6702,1.8447,0.9835,0.0025,-0.2015,9.7779,2.6893,2.2779,0.9863
2028.8497,0.5663,0.2904,-173.9305,2.4622,0.0000,-0.0000,53.1377,-13.5833,24.0913,1513,1486,1.0000,0.0483,-0.1644,9.8221,2.6702,1.8142,1.0369,0.0288,-0.1345,9.7229,2.2542,2.0336,1.0856
2028.8688,0.5513,0.3137,-173.9087,2.0996,0.0000,-0.0000,51.7361,-13.3424,23.5263,1512,1487,1.0000,0.0339,-0.1500,9.9155,2.2122,2.1806,1.1209,0.0719,-0.2255,9.8474,1.9870,2.2397,1.1390
2028.8879,0.5030,0.3349,-173.8785,1.9126,0.0000,-0.0000,47.1971,-12.5493,21.6887,1511,1488,1.0000,0.0315,-0.2841,9.6904,2.0748,1.9363,1.5713,-0.0813,-0.2566,9.6295,1.7504,2.2550,1.6047
2028.9069,0.4214,0.3708,-173.8473,1.5576,0.0000,-0.0000,39.5470,-11.2083,18.5891,1510,1489,1.0000,-0.0714,-0.4134,9.7598,1.7847,1.5928,1.6553,-0.0526,-0.3763,9.5936,1.3305,1.8733,1.6581
2028.9260,0.3807,0.4401,-173.8092,1.2828,0.0000,-0.0000,35.7232,-10.5398,17.0408,1509,1490,1.0000,-0.2486,-0.2218,9.7503,1.5710,1.5165,1.9148,-0.2896,-0.1321,9.5122,0.9947,1.4000,2.1085
2028.9451,0.3489,0.4714,-173.7661,1.3286,0.0000,-0.0000,32.7392,-10.0186,15.8329,1508,1491,1.0000,-0.0954,-0.1931,9.8221,1.5252,1.4477,2.1820,-0.0215,-0.1656,9.6367,1.1321,1.4229,2.3527
2028.9642,0.2878,0.4761,-173.7274,0.4546,0.0000,-0.0000,27.0024,-9.0127,13.5083,1507,1492,1.0000,0.0076,-0.2529,9.7407,1.4565,1.3638,2.1820,-0.0023,-0.2015,9.6654,-0.5473,1.2168,1.9253
2028.9833,0.2146,0.4848,-173.6833,1.4698,0.0000,-0.0000,20.1412,-7.8084,10.7274,1505,1494,1.0000,-0.0355,-0.4110,9.7622,1.2580,0.9897,2.3728,-0.0598,-0.0914,9.7827,1.6817,1.0031,2.3222
2029.0023,0.2180,0.5165,-173.6545,1.7217,0.0000,-0.0000,20.4561,-7.8659,10.8564,1505,1494,1.0000,-0.1409,-0.0925,9.7551,1.9832,1.2035,2.3347,-0.2441,-0.2566,9.6606,1.4603,0.7206,0.7268
2029.0214,0.2051,0.5534,-173.6088,1.4164,0.0000,-0.0000,19.2423,-7.6546,10.3654,1505,1494,1.0000,-0.2031,-0.1428,9.6090,1.3877,0.5546,2.4339,-0.0765,-0.0603,9.6439,1.4450,0.6290,2.4062
2029.0405,0.2187,0.5557,-173.5623,0.4965,0.0000,-0.0000,20.5236,-7.8820,10.8863,1505,1494,1.0000,-0.0810,0.0487,9.7622,0.7236,-0.0103,2.3881,-0.1268,0.1935,9.4858,0.2695,0.5451,2.4673
2029.0596,0.2527,0.5475,-173.5210,0.4507,0.0000,-0.0000,23.7138,-8.4455,12.1815,1506,1493,1.0000,-0.0187,0.1445,9.7120,1.1053,0.1882,2.1591,-0.0263,0.3515,9.5505,-0.2038,0.7359,2.1314
2029.0787,0.2734,0.5466,-173.4824,-0.0912,0.0000,-0.0000,25.6520,-8.7891,12.9690,1507,1492,1.0000,-0.0762,0.1397,9.7479,0.3572,-0.2469,2.0598,-0.0311,0.2438,9.7085,-0.5397,0.5832,1.9711
2029.0980,0.2950,0.5902,-173.4482,-0.8660,0.0000,-0.0000,27.6775,-9.1482,13.7921,1507,1492,1.0000,-0.2246,0.2187,10.0926,-0.5435,0.3561,1.7469,-0.1556,0.3515,9.7372,-1.1885,1.2703,1.7421
2029.1177,0.3157,0.6148,-173.4149,-1.4157,0.0000,-0.0000,29.6228,-9.4934,14.5829,1508,1491,1.0000,-0.1361,0.2570,9.6976,-1.0168,0.7149,1.5942,-0.1651,0.3108,9.7492,-1.8145,0.9268,1.7268
2029.1363,0.3272,0.6223,-173.3922,-2.2439,0.0000,-0.0000,30.7060,-9.6871,15.0241,1508,1491,1.0000,-0.0810,0.3001,9.9035,-2.1237,0.4019,1.1667,-0.0694,0.3491,9.8498,-2.3641,1.0031,1.2001
2029.1550,0.3413,0.6268,-173.3760,-2.7325,0.0000,-0.0000,32.0301,-9.9234,15.5631,1508,1491,1.0000,-0.0475,0.3600,9.9610,-2.6886,0.8981,0.8995,-0.0358,0.3276,9.6055,-2.7763,0.9878,0.7497
2029.1736,0.3185,0.6380,-173.3669,-2.9577,0.0000,-0.0000,29.8867,-9.5497,14.6958,1508,1491,1.0000,-0.1217,0.2043,9.7503,-2.8184,0.4248,0.4415,-0.1508,0.2342,9.6343,-3.0969,0.4229,0.4902
2029.1922,0.3185,0.6481,-173.3626,-2.8164,0.0000,-0.0000,29.8890,-9.5533,14.6986,1508,1491,1.0000,-0.1839,0.2953,9.8101,-2.7878,0.4554,0.1973,-0.1723,0.3156,9.7995,-2.8450,-1.0809,0.2077
2029.2113,0.2980,0.7009,-173.3619,-2.9195,0.0000,-0.0000,27.9597,-9.2170,13.9181,1507,1492,1.0000,-0.2103,0.2139,9.8772,-2.8871,0.5928,-0.0623,-0.1699,0.2246,9.9886,-2.9519,2.6290,0.0779
2029.2306,0.2559,0.7198,-173.3674,-3.2630,0.0000,-0.0000,24.0119,-8.5254,12.3188,1506,1493,1.0000,-0.2007,0.1421,9.7982,-3.2535,-0.0332,-0.3066,-0.0981,0.1959,9.8498,-3.2725,0.1558,-0.2961
2029.2497,0.1826,0.7184,-173.3777,-3.6599,0.0000,-0.0000,17.1316,-7.3174,9.5299,1505,1494,1.0000,-0.1385,0.0320,9.8939,-3.1771,-0.2545,-0.5890,0.0982,-0.0028,9.8521,-4.1427,-0.1267,-0.4793
2029.2689,0.0855,0.7199,-173.3917,-3.5225,0.0000,-0.0000,8.0231,-5.7166,5.8369,1503,1496,1.0000,-0.1432,-0.0997,9.8341,-2.9863,-0.3156,-0.5966,-0.1125,-0.0052,9.7564,-4.0588,0.0107,-0.8152
2029.2881,0.0122,0.7223,-173.4052,-3.7439,0.0000,-0.0000,1.1485,-4.5079,3.0493,1501,1498,1.0000,-0.1792,0.0104,9.8389,-3.4672,-0.6057,-0.8180,-0.2537,-0.0770,9.7348,-4.0206,-0.4702,-0.5938
2029.3074,-0.1004,0.7271,-173.4185,-4.1218,0.0000,-0.0000,-9.4251,-2.6477,-1.2389,1499,1500,1.0000,-0.2270,-0.1428,9.8197,-3.7115,-1.0408,-0.7798,-0.0598,-0.1345,9.6031,-4.5321,-0.7984,-0.5633
2029.3267,-0.2158,0.7043,-173.4300,-3.2096,0.0000,-0.0000,-20.2521,-0.7417,-5.6306,1496,1503,1.0000,-0.1265,-0.2601,9.9897,-3.9023,-1.4606,-0.6806,-0.0478,-0.2279,9.7492,-2.5168,-0.8748,-0.4488
2029.3459,-0.3543,0.6827,-173.4382,-4.0340,0.0000,-0.0000,-33.2452,1.5465,-10.9015,1494,1505,1.0000,-0.1600,-0.3056,9.7670,-3.7955,-1.7431,-0.6119,-0.1053,-0.3308,9.7181,-4.2725,-1.4168,-0.1892
2029.3651,-0.5201,0.6610,-173.4431,-4.6103,-0.0352,-0.1449,-48.4561,4.2875,-17.1094,1490,1509,1.0000,-0.1935,-0.4158,10.0256,-4.0168,-2.3003,-0.4516,-0.2010,-0.3955,9.8474,-5.2038,-1.6687,0.0016
2029.3842,-0.6988,0.6536,-173.4418,-4.9424,-0.2090,-0.8348,-63.5686,7.2430,-23.4164,1487,1512,1.0000,-0.2582,-0.4828,10.1022,-4.3832,-2.3614,-0.0776,-0.2585,-0.3188,9.9575,-5.5015,-1.6381,0.2688
2029.4033,-0.8740,0.6367,-173.4359,-5.6714,-0.6380,-2.9412,-89.9452,10.1427,-33.0692,1481,1518,1.0000,-0.1911,-0.4301,10.0807,-5.1924,-1.8118,0.1209,-0.1651,-0.4338,9.9766,-6.1504,-1.6839,0.5207
2029.4224,-1.0755,0.6128,-173.4274,-6.9958,-1.6345,-9.6444,-93.3317,13.4785,-36.0866,1480,1519,1.0000,-0.1480,-0.4708,10.2746,-5.6657,-1.9645,0.0598,-0.1125,-0.4984,10.0964,-8.3260,-1.3023,0.8337
2029.4416,-1.2714,0.6140,-173.4093,-6.1676,-2.3889,-7.8274,-120.6208,16.7231,-46.2201,1474,1525,1.0000,-0.2390,-0.5570,10.2243,-5.8642,-1.5217,0.6934,-0.1532,-0.4745,10.0485,-6.4710,-1.2488,1.2153
2029.4607,-1.4517,0.6222,-173.3843,-5.7363,-2.8988,-5.7074,-147.0305,19.7127,-55.9368,1469,1530,1.0000,-0.2582,-0.5474,10.0519,-4.3298,-1.4988,1.0293,-0.1556,-0.4697,9.9982,-7.1427,-1.0961,1.5970
2029.4799,-1.6539,0.5874,-173.3557,-7.5264,-4.1375,-17.6174,-135.5028,23.0662,-54.4906,1470,1529,1.0000,-0.0307,-0.5259,10.1166,-6.8718,-1.2774,1.3576,-0.0526,-0.4553,10.1897,-8.1809,-0.6610,1.6276
2029.4989,-1.8626,0.5791,-173.3232,-8.8470,-5.5456,-28.2917,-128.2547,26.5273,-54.3928,1470,1529,1.0000,-0.1025,-0.4756,10.1142,-7.9787,-0.8805,1.5179,-0.3327,-0.4864,9.8976,-9.7153,-0.1877,1.8871
2029.5181,-2.0522,0.5943,-173.2888,-10.1523,-6.3701,-34.8708,-130.6584,29.6764,-57.0034,1468,1531,1.0000,-0.2342,-0.2984,9.8269,-9.3069,-1.3614,1.6476,-0.0741,-0.2494,9.9048,-10.9977,-0.2794,1.8871
2029.5372,-2.2187,0.4482,-173.2505,-11.2821,-7.1069,-38.4608,-139.0716,32.4463,-61.1893,1466,1533,1.0000,0.4553,-0.1308,9.9083,-10.7726,-2.0561,1.7011,0.1413,-0.1225,10.0509,-11.7916,-0.6381,2.1161
2029.5563,-2.4544,0.2818,-173.2133,-12.8699,-7.9713,-45.2208,-146.1389,36.3590,-65.6571,1463,1536,1.0000,0.6061,-0.3439,9.9897,-12.8718,-2.0866,1.5866,0.0288,-0.1800,10.1131,-12.8679,-0.1419,2.1466
2029.5756,-2.6647,0.3118,-173.1811,-13.7592,-8.8395,-45.0601,-170.2843,39.8557,-74.9987,1458,1541,1.0000,-0.2151,-0.1763,9.6880,-14.0474,-1.0713,1.4339,-0.3136,-0.1728,10.0628,-13.4710,-0.0045,1.8260
2029.5948,-2.8551,0.3700,-173.1434,-15.5836,-9.8511,-52.7319,-169.6358,43.0266,-76.7067,1457,1542,1.0000,-0.4569,0.0320,9.5587,-15.0703,-1.8194,1.3423,-0.3806,-0.1393,10.1251,-16.0969,-1.9282,2.3298
2029.6140,-3.0351,0.3816,-173.1091,-14.0569,-10.4820,-32.9232,-246.9589,46.0274,-101.7042,1444,1555,1.0000,-0.2558,-0.0901,9.8963,-14.2840,-1.9416,1.4186,-0.1795,-0.1967,10.3621,-13.8298,-1.4473,1.9176
2029.6330,-3.2364,0.2885,-173.0751,-14.9271,-11.1488,-34.9300,-263.8438,49.3805,-108.7815,1440,1559,1.0000,0.2374,-0.1452,9.9538,-15.0245,-0.7736,1.2812,0.0863,-0.2638,10.1802,-14.8298,-2.1877,2.0169
2029.6522,-3.4270,0.2114,-173.0420,-14.5111,-11.6531,-26.3502,-310.0146,52.5592,-124.5399,1431,1568,1.0000,0.1752,-0.1668,9.8676,-14.8718,-1.9950,1.1744,-0.1101,-0.1800,9.9503,-14.1504,-1.1954,2.0169
2029.6713,-3.5955,0.1935,-173.0121,-15.2210,-12.1883,-27.9780,-324.3050,55.3757,-130.5169,1428,1571,1.0000,-0.1025,-0.0351,10.0017,-15.2153,-1.7736,0.9911,-0.3303,-0.2231,10.1418,-15.2267,-1.8748,1.8260
2029.6904,-3.7972,0.2134,-172.9777,-15.4729,-12.6810,-25.8256,-353.2226,58.7423,-141.2121,1422,1577,1.0000,-0.2318,-0.2051,10.0926,-15.6123,-0.9416,1.3881,-0.2417,-0.0890,10.1706,-15.3336,-1.6534,2.0016
2029.7095,-3.9854,0.1509,-172.9381,-14.9424,-13.0202,-17.7151,-397.7780,61.8877,-156.4660,1413,1586,1.0000,0.0387,-0.2122,9.8365,-15.5130,-2.3385,1.4797,0.0743,-0.3835,10.0628,-14.3718,-2.6610,2.2459
2029.7287,-4.1050,0.0847,-172.8992,-12.1867,-12.8952,6.5284,-481.0669,63.9019,-182.6612,1399,1600,1.0000,0.1632,-0.1811,10.1621,-12.6504,-1.5828,1.6400,0.2443,-0.2015,10.1610,-11.7229,-1.3023,2.1695
2029.7478,-4.2049,0.0728,-172.8575,-9.9996,-12.4608,22.7421,-539.0129,65.5922,-201.0592,1389,1610,1.0000,0.0243,-0.3032,10.0376,-10.3145,-0.3843,2.0675,-0.1005,-0.2686,9.8761,-9.6847,-0.3404,2.2382
2029.7670,-4.2553,0.1081,-172.8129,-8.6867,-11.8947,29.5333,-564.2503,66.4667,-209.1551,1384,1615,1.0000,-0.1576,-0.2003,9.8245,-8.7191,-0.1324,2.1056,-0.0981,-0.2877,10.0293,-8.6542,0.1176,2.5360
2029.7861,-4.3147,0.1723,-172.7609,-7.8393,-11.2864,31.7855,-577.4271,67.4901,-213.7222,1382,1617,1.0000,-0.2390,-0.3296,9.9322,-7.3145,0.1348,2.5026,-0.1364,-0.1752,10.1203,-8.3641,1.1023,3.0016
2029.8052,-4.3142,0.2136,-172.6992,-5.0722,-10.3543,48.8922,-626.6326,67.5241,-228.5043,1374,1625,1.0000,-0.0427,-0.3080,9.9921,-5.2535,1.4630,3.2354,0.0551,-0.3547,9.9240,-4.8908,2.1176,3.4902
2029.8244,-4.2717,0.2286,-172.6285,-3.5569,-9.3347,53.1386,-634.0771,66.8658,-230.3426,1373,1626,1.0000,0.0531,-0.2458,9.6449,-4.0474,1.6310,3.4721,0.0049,-0.0962,9.7660,-3.0664,1.4611,4.0932
2029.8435,-4.1752,0.3096,-172.5446,-2.1103,-8.2510,56.4967,-632.8841,65.3159,-229.0548,1374,1625,1.0000,-0.2366,-0.1165,9.7718,-1.8260,0.9897,4.1820,0.1294,-0.3140,9.9479,-2.3947,2.2932,4.7573
2029.8626,-4.0599,0.3280,-172.4459,2.3095,-6.6669,83.0047,-696.2377,63.4534,-246.9434,1364,1635,1.0000,0.0579,-0.4062,9.8963,2.0061,2.9821,5.0904,-0.0334,-0.2159,9.8114,2.6130,0.8046,5.4902
2029.8817,-3.9078,0.4133,-172.3344,3.5538,-4.0970,64.0800,-624.5989,60.9820,-223.9689,1376,1623,1.0000,-0.1863,-0.3152,9.5875,3.3954,1.9210,5.8537,-0.3543,-0.2350,9.5385,3.7122,2.9191,6.1314
2029.9008,-3.7502,0.4976,-172.2170,2.9011,-0.8961,14.3640,-463.6732,58.4199,-174.1539,1404,1595,1.0000,-0.1911,-0.2218,9.8221,2.7236,1.9974,6.3652,-0.4692,-0.0028,9.9742,3.0786,3.0184,6.1848
2029.9199,-3.5957,0.5710,-172.0895,2.9775,0.0000,0.0000,-404.9023,55.9061,-155.0144,1414,1585,1.0000,-0.0594,-0.2003,9.4462,2.3496,3.6615,6.8919,0.0096,-0.2614,9.7013,3.6053,3.7283,6.9100
2029.9390,-3.4219,0.5942,-171.9547,2.0462,0.0000,0.0000,-385.3287,53.0725,-147.4421,1418,1581,1.0000,0.0435,-0.0183,9.8939,1.3572,2.4019,6.8995,0.0216,-0.1536,9.6702,2.7351,2.4229,7.3527
2029.9581,-3.2482,0.6717,-171.8220,5.2561,0.0000,0.0000,-365.7711,50.2395,-139.8751,1423,1576,1.0000,-0.1432,-0.2769,10.1429,5.9984,3.0203,7.2049,-0.4644,-0.0124,9.6678,4.5137,3.2321,7.0016
2029.9772,-3.0651,0.7644,-171.6910,5.7065,0.0000,0.0000,-345.1569,47.2499,-131.8970,1427,1572,1.0000,-0.2127,-0.2242,9.4486,4.7160,3.2569,7.2354,-0.1843,-0.2997,9.6917,6.6969,3.2168,6.7726
2029.9964,-2.9855,0.8035,-171.5839,2.2217,0.0000,0.0000,-336.1925,45.9663,-128.4375,1429,1570,1.0000,-0.0930,-0.3631,9.8125,3.0061,2.0584,6.8537,0.1078,-0.3452,9.4547,1.4374,2.3848,4.6352
2030.0155,-2.8432,0.8432,-171.4677,4.2446,0.0000,0.0000,-320.1638,43.6462,-122.2368,1432,1567,1.0000,0.0315,-0.2482,10.0065,5.1053,2.8905,6.5637,0.0671,-0.2039,9.5792,3.3840,4.5145,5.9176
2030.0347,-2.7022,0.9225,-171.3594,4.9240,0.0000,0.0000,-304.2838,41.3465,-116.0930,1436,1563,1.0000,-0.1528,-0.2721,9.3313,5.7542,3.6768,6.0522,-0.1005,-0.2063,9.3326,4.0939,3.6596,5.5360
2030.0539,-2.5320,1.0207,-171.2630,5.6340,0.0000,0.0000,-285.1161,38.5633,-108.6728,1440,1559,1.0000,-0.3994,-0.1883,9.4749,5.0442,1.2645,5.3423,-0.2441,-0.1704,9.6750,6.2237,2.5527,4.8108
2030.0730,-2.3377,1.1328,-171.1553,7.9126,0.0000,0.0000,-263.2408,35.3814,-100.2011,1444,1555,1.0000,-0.4329,-0.2458,9.6449,7.5328,1.2187,4.9301,-0.3255,-0.3140,9.6343,8.2924,3.7970,6.4215
2030.0924,-2.2126,1.1298,-171.0712,9.5881,0.9980,12.8316,-286.1011,33.3383,-105.8333,1441,1558,1.0000,-0.0235,-0.6456,9.3576,9.1969,1.9287,4.5408,-0.0382,-0.6397,9.5984,9.9794,1.3542,4.4291
2030.1121,-2.0381,1.0988,-170.9888,10.5996,3.6252,36.7518,-335.3446,30.4800,-118.8914,1434,1565,1.0000,0.0411,-0.5163,9.4318,10.0442,1.0661,4.3652,0.0575,-0.5152,9.8474,11.1550,0.9802,4.1619
2030.1313,-1.8842,1.1326,-170.9202,11.3668,5.9236,49.7364,-355.4069,27.9590,-123.3975,1432,1567,1.0000,-0.1552,-0.6600,9.9753,10.9755,1.5623,3.9682,-0.1556,-0.4601,9.6415,11.7580,2.4993,3.4444
2030.1505,-1.7006,1.1563,-170.8345,10.4431,6.6091,35.2927,-293.1406,24.9475,-102.9107,1443,1556,1.0000,-0.1744,-0.3918,9.4702,10.3343,1.5699,5.7316,-0.1268,-0.3571,9.3350,10.5519,0.9649,3.4062
2030.1698,-1.4717,1.1435,-170.7730,11.2943,7.3119,36.5015,-270.8477,21.1856,-93.9657,1448,1551,1.0000,-0.0499,-0.2362,9.2882,11.0900,0.6233,3.3957,-0.0598,-0.0986,9.6893,11.4985,1.2321,3.0321
2030.1889,-1.1641,1.1448,-170.7127,13.2446,8.2018,46.4354,-220.6817,16.1216,-75.8775,1458,1541,1.0000,-0.0738,-0.0183,9.6425,12.3877,1.2874,3.3041,-0.1388,-0.0627,9.6415,14.1015,1.4687,2.9634
2030.2078,-0.8585,1.1551,-170.6573,14.5462,9.1534,50.3194,-201.3258,11.0876,-67.0503,1463,1536,1.0000,-0.2414,-0.0614,9.1302,13.7465,0.7226,2.9453,-0.1268,-0.1943,9.5146,15.3458,-1.1038,2.8337
2030.2263,-0.5273,1.1441,-170.6071,15.7599,10.1444,53.5352,-177.9612,5.6274,-56.7648,1468,1531,1.0000,-0.1385,0.0272,9.3624,14.8152,-0.8958,2.5560,-0.2202,0.0068,9.6534,16.7046,0.7588,2.7726
2030.2449,-0.2173,1.0767,-170.5578,15.8591,11.0016,46.1350,-131.1121,0.5147,-39.6425,1478,1521,1.0000,0.0459,-0.0231,9.6952,15.5023,-2.6668,2.8003,-0.1484,-0.1345,9.8809,16.2160,0.7741,2.4825
2030.2635,0.0408,1.0512,-170.5104,13.7943,11.4205,22.5513,-50.2934,-3.7441,-12.8416,1492,1507,1.0000,-0.2462,-0.0303,9.7144,14.0442,-1.4377,2.6324,-0.1125,-0.0938,9.5074,13.5443,-2.7145,2.4596
2030.2820,0.2738,0.9670,-170.4656,11.2752,11.3987,-1.1758,34.2156,-7.5910,14.8193,1508,1491,1.0000,0.0507,0.1110,9.6138,11.8000,-2.2469,2.3728,-0.0861,0.2199,9.7492,10.7504,-1.5160,2.4215
2030.3007,0.4778,0.8871,-170.4210,10.0920,11.2027,-10.4947,84.0240,-10.9615,31.7841,1517,1482,1.0000,0.1584,0.1158,9.8867,10.3954,-0.9034,2.4797,0.0049,0.1409,9.8521,9.7885,-0.1801,2.2993
2030.3198,0.7050,0.8222,-170.3772,10.2294,11.0567,-7.6331,101.3739,-14.7186,39.2433,1521,1478,1.0000,0.0435,0.2139,9.4247,11.3038,-1.0484,2.1820,-0.0574,0.1600,9.5122,9.1550,-1.1419,2.3680
2030.3390,0.8735,0.7534,-170.3342,8.2103,10.6297,-22.3391,162.6967,-17.5069,59.3132,1532,1467,1.0000,-0.0475,0.1660,9.4821,9.1053,-2.6820,2.3194,0.0073,0.1121,9.8785,7.3153,-2.3023,2.2306
2030.3582,1.0300,0.6968,-170.2924,8.9469,10.3773,-13.1376,153.8239,-20.1001,58.2072,1532,1467,1.0000,-0.0235,0.0775,9.9825,8.7694,-1.8042,2.1591,-0.0430,0.2031,10.1131,9.1244,-1.5542,2.2764
2030.3774,1.1472,0.6788,-170.2510,8.7141,10.1278,-12.9896,166.5922,-22.0450,63.2047,1534,1465,1.0000,-0.1863,-0.0470,9.3768,8.6397,-2.2851,2.1438,-0.2058,-0.0770,9.8665,8.7885,-1.2946,2.2917
2030.3965,1.2190,0.6101,-170.2356,8.1340,9.8288,-15.6543,182.3457,-23.2410,68.6483,1537,1462,1.0000,-0.1528,-0.1811,9.9322,8.0519,-3.7126,-0.1234,-0.1101,-0.2135,10.1083,8.2160,-4.2335,1.9787
2030.4156,1.2763,0.5371,-170.2064,9.0920,9.7182,-5.7740,160.3472,-24.1999,62.6241,1534,1465,1.0000,0.0052,-0.3272,10.1621,8.5481,-2.4683,1.6476,-0.1268,-0.3069,10.4770,9.6359,-2.5923,1.6505
2030.4347,1.3568,0.4559,-170.1780,10.8133,9.8825,8.5910,128.0403,-25.5417,53.7371,1529,1470,1.0000,0.0986,-0.3535,9.9298,10.1969,-1.8805,1.6476,-0.0167,-0.3332,10.0868,11.4298,-2.1725,1.5436
2030.4538,1.4764,0.4288,-170.1522,11.5271,10.1292,12.9214,129.0371,-27.5299,55.2291,1530,1469,1.0000,-0.1361,-0.2266,10.1549,11.1435,-2.1019,1.5179,-0.0957,-0.2590,10.1394,11.9107,-1.9053,1.3680
2030.4730,1.6089,0.4538,-170.1273,11.9698,10.4053,14.4141,139.6518,-29.7313,59.7343,1532,1467,1.0000,-0.1983,-0.1955,10.4494,11.8992,-0.2240,1.4186,-0.2178,-0.0698,10.3549,12.0405,0.2550,1.2459
2030.4921,1.7273,0.4408,-170.1052,11.8820,10.6268,11.5608,161.2057,-31.7027,67.3834,1537,1462,1.0000,-0.0451,-0.2266,10.3704,11.5786,0.1958,1.2354,0.0623,-0.1943,10.2328,12.1855,-0.6152,1.1772
2030.5113,1.8696,0.4076,-170.0882,12.1950,10.8620,12.3099,175.0770,-34.0701,72.9652,1540,1459,1.0000,-0.0020,-0.1189,10.3656,12.4335,-0.9721,1.1133,-0.0885,-0.0483,10.2663,11.9565,-0.7679,0.8031
2030.5304,1.9991,0.4519,-170.0696,11.2904,10.9263,3.3566,215.4457,-36.2269,86.3698,1547,1452,1.0000,-0.2199,-0.0758,10.4637,11.6091,0.4172,1.1362,-0.0813,0.0810,10.3046,10.9718,1.1481,0.8108
2030.5495,2.1287,0.5165,-170.0343,9.8820,10.7697,-8.1966,263.3135,-38.3867,102.0260,1556,1443,1.0000,-0.3252,0.0727,10.1860,10.3954,0.4401,1.0369,-0.0502,0.3707,10.5129,9.3687,1.0642,2.6428
2030.5686,2.2466,0.5532,-170.0361,8.5271,10.4333,-17.6493,303.8108,-40.3540,115.3557,1563,1436,1.0000,-0.1911,0.1684,10.2315,8.9526,0.5546,0.9988,0.0120,0.2701,9.6534,8.1015,1.1710,-1.2274
2030.5878,2.3424,0.5624,-170.0230,7.0042,9.9189,-26.8099,340.9815,-41.9582,127.4694,1570,1429,1.0000,-0.0044,0.2163,10.1980,7.5099,0.9287,0.8537,-0.2657,0.3827,9.8330,6.4985,2.0871,0.4291
2030.6069,2.4959,0.6199,-170.0124,6.9622,9.4754,-23.1945,347.8516,-44.5154,131.0647,1572,1427,1.0000,-0.2486,0.4916,9.7335,6.9145,1.2111,0.3881,-0.2417,0.3228,9.7181,7.0099,1.2550,0.5894
2030.6260,2.5978,0.6952,-170.0053,6.0996,8.9690,-26.5053,368.8662,-46.2234,138.3939,1576,1423,1.0000,-0.3156,0.3624,9.7934,6.0824,0.3485,0.1362,-0.3184,0.3037,9.9168,6.1168,2.6901,0.4902
2030.6451,2.6546,0.7449,-170.0043,4.2904,8.2672,-36.6505,404.4818,-47.1873,149.6569,1582,1417,1.0000,-0.3084,0.3360,9.9322,4.5175,0.3256,0.0217,-0.3495,0.3037,9.9814,4.0634,0.5298,0.0779
2030.6643,2.6580,0.7356,-169.9852,2.2103,7.3587,-47.4635,435.9976,-47.2687,159.1605,1587,1412,1.0000,-0.1121,0.2738,9.7694,2.1816,-0.2393,1.7927,-0.2585,0.4832,9.7300,2.2389,-0.3633,0.2611
2030.6834,2.6351,0.7106,-169.9892,-0.3202,6.2069,-60.3603,470.5658,-46.9179,169.3205,1593,1406,1.0000,-0.0690,0.3815,9.8484,0.0671,-0.6897,-0.2760,-0.1508,0.3755,9.9575,-0.7076,-0.6381,-0.0595
2030.7025,2.5490,0.7158,-169.9961,-2.8431,3.2564,-47.5622,424.0123,-45.5229,154.5174,1584,1415,1.0000,-0.2007,0.3121,9.9203,-2.4367,-0.4148,-0.4211,-0.1532,0.3707,9.8210,-3.2496,-0.8595,-0.1969
2030.7210,2.4742,0.7166,-170.0027,-3.9424,0.2923,-5.8926,295.5789,-44.3131,115.2615,1563,1436,1.0000,-0.2318,0.4342,9.8843,-4.0245,-1.0408,-0.5737,-0.2513,0.3324,9.8258,-3.8603,-1.4168,-0.0213
2030.7395,2.3555,0.6871,-170.0113,-4.9996,0.0000,-0.0000,265.2420,-42.3782,104.9996,1557,1442,1.0000,-0.1576,0.3097,10.0711,-4.6810,-2.2774,-0.5203,-0.1220,0.3108,9.8378,-5.3183,-1.6534,-0.2045
2030.7580,2.1984,0.6459,-170.0211,-5.4271,0.0000,-0.0000,247.5480,-39.8076,98.1490,1553,1446,1.0000,-0.0594,0.1421,10.0136,-5.1237,-2.0713,-0.4211,0.0743,0.2462,9.7444,-5.7305,-0.9511,-0.4488
2030.7765,2.0751,0.5979,-170.0315,-5.0225,0.0000,-0.0000,233.6688,-37.7947,92.7774,1551,1448,1.0000,-0.0116,0.2331,9.8341,-4.6962,-1.3843,-0.5661,-0.0047,0.3731,9.6199,-5.3489,-1.5389,-0.4182
2030.7952,1.9790,0.5656,-170.0435,-3.9729,0.0000,-0.0000,222.8402,-36.2278,88.5888,1548,1451,1.0000,-0.1193,0.2546,9.8580,-4.1008,-2.4759,-0.6806,-0.2058,0.4162,9.8330,-3.8450,-1.4244,-0.4411
2030.8157,1.8780,0.5805,-170.0561,-2.5264,0.0000,-0.0000,211.4692,-34.5805,84.1890,1546,1453,1.0000,-0.1768,0.1325,10.0998,-2.7573,-1.0713,-0.6959,-0.1292,0.3300,9.9623,-2.2954,0.7817,-0.4717
2030.8350,1.8521,0.5114,-170.0696,-0.5569,0.0000,0.0000,208.5566,-34.1722,83.0703,1545,1454,1.0000,0.0148,0.2618,10.0184,-0.8031,-2.2316,-0.7493,0.0025,0.2151,10.0724,-0.3107,-2.3175,-0.4869
2030.8541,1.8257,0.4488,-170.0839,2.0080,0.0000,0.0000,205.5829,-33.7547,81.9277,1545,1454,1.0000,-0.0140,0.0248,9.9131,1.8687,-1.8042,-0.7264,-0.0119,0.1959,10.1131,2.1473,-3.0961,-0.5480
2030.8733,1.8240,0.4109,-170.0969,2.0004,0.0000,0.0000,205.3926,-33.7451,81.8648,1545,1454,1.0000,0.0267,0.1421,10.3129,1.5175,-0.5141,-0.7798,0.0527,0.1504,10.1706,2.4832,-1.0885,-0.4869
2030.8924,1.8456,0.3951,-170.1070,2.2179,0.0000,0.0000,207.8274,-34.1203,82.8204,1545,1454,1.0000,-0.0307,0.2235,10.1310,2.7389,-0.7278,-0.5737,0.0575,0.3061,9.9168,1.6969,0.0489,-0.4335
2030.9115,1.8662,0.3852,-170.1155,1.6950,0.0000,0.0000,210.1469,-34.4788,83.7314,1546,1453,1.0000,0.0435,0.2666,9.9298,1.9679,0.3867,-0.4974,0.0240,0.2342,10.0078,1.4221,1.1481,-0.4335
2030.9307,1.8955,0.3896,-170.1248,1.1110,0.0000,0.0000,213.4434,-34.9808,85.0215,1546,1453,1.0000,-0.0427,0.3600,9.9705,1.4335,0.5394,-0.6272,0.0719,0.3851,9.8330,0.7885,0.4993,-0.3801
2030.9500,1.9571,0.3783,-170.1358,1.6225,0.0000,0.0000,220.3844,-36.0174,87.7258,1548,1451,1.0000,0.0172,0.4629,9.8748,1.7084,0.2645,-0.6501,0.0551,0.4401,9.7923,1.5366,0.5145,-0.5251
2030.9691,1.9763,0.3849,-170.1485,0.9813,0.0000,0.0000,222.5368,-36.3526,88.5726,1548,1451,1.0000,-0.0810,0.3384,9.8101,1.1664,-0.0026,-0.8104,-0.0981,0.2486,9.9048,0.7962,0.2626,-0.5251
2030.9882,1.9432,0.3793,-170.1587,-0.2286,0.0000,-0.0000,218.8108,-35.8260,87.1389,1547,1452,1.0000,0.0052,0.2139,10.1094,-0.0550,0.4859,-0.6272,-0.0646,0.2797,9.4930,-0.4023,0.5145,-0.4488
2031.0074,1.9151,0.3980,-170.1711,-1.5378,0.0000,-0.0000,215.6520,-35.3823,85.9250,1547,1452,1.0000,-0.0738,0.3336,9.6497,-1.0245,0.5546,-0.7569,0.0216,0.2869,9.9264,-2.0511,1.1863,-0.5862
2031.0266,1.8887,0.4198,-170.1864,-3.3966,0.0000,-0.0000,212.6790,-34.9656,84.7831,1546,1453,1.0000,0.0387,0.5228,10.1477,-4.1084,2.9592,-0.8715,0.0958,0.4114,9.9838,-2.6847,1.7130,-0.9144
2031.0457,1.8942,0.3584,-170.2087,-3.1714,0.0000,-0.0000,213.2929,-35.0745,85.0326,1546,1453,1.0000,0.3021,0.6185,9.7982,-3.0855,0.9745,-1.2837,0.0504,0.6772,9.6055,-3.2573,1.1481,-1.1587
2031.0648,1.9167,0.3080,-170.2314,-3.1409,0.0000,-0.0000,215.8336,-35.4660,86.0297,1547,1452,1.0000,0.2422,0.6999,9.8365,-3.1771,0.7149,-1.1234,0.3185,0.5934,9.4906,-3.1046,1.0413,-1.3801
2031.0839,1.9212,0.2548,-170.2601,-3.2706,0.0000,-0.0000,216.3351,-35.5586,86.2357,1547,1452,1.0000,0.4146,0.6257,9.7694,-2.9329,3.0279,-1.7569,0.5507,0.6724,9.6774,-3.6084,2.2779,-1.4564
2031.1031,1.9025,0.2131,-170.2933,-3.6409,0.0000,-0.0000,214.2360,-35.2701,85.4328,1546,1453,1.0000,0.3978,0.5707,10.0232,-3.1237,2.7226,-1.9249,0.5555,0.4976,9.1123,-4.1580,3.0031,-1.7541
2031.1222,1.8327,0.1850,-170.3310,-4.2783,0.0000,-0.0000,206.3719,-34.1361,82.3933,1545,1454,1.0000,0.3093,0.3672,9.4893,-3.6275,2.1577,-2.1234,0.1485,0.3875,9.8474,-4.9290,3.0184,-1.9908
